{"businesses": [{"id": "qbt9LeiJJZVJ5dp43yJDlQ", "alias": "mister-o1-dallas-dallas-3", "name": "Mister O1 Dallas", "image_url": "https://s3-media3.fl.yelpcdn.com/bphoto/871OqV6twXoaPX94T8DCIA/o.jpg", "is_closed": false, "url": "https://www.yelp.com/biz/mister-o1-dallas-dallas-3?adjust_creative=p8ZmzrMnEc-h1IE5NUGjPA&utm_campaign=yelp_api_v3&utm_medium=api_v3_business_search&utm_source=p8ZmzrMnEc-h1IE5NUGjPA", "review_count": 239, "categories": [{"alias": "pizza", "title": "Pizza"}, {"alias": "italian", "title": "Italian"}, {"alias": "salad", "title": "Salad"}], "rating": 4.5, "coordinates": {"latitude": 32.81448082396739, "longitude": -96.8014862}, "transactions": [], "price": "$$", "location": {"address1": "3838 Oak Lawn Ave", "address2": "Ste P175", "address3": "", "city": "Dallas", "zip_code": "75219", "country": "US", "state": "TX", "display_address": ["3838 Oak Lawn Ave", "Ste P175", "Dallas, TX 75219"]}, "phone": "+12144324434", "display_phone": "(214) 432-4434", "distance": 2732.679310955061}, {"id": "6LqEK7zNO22kJ8QD-uukEA", "alias": "mo-bettahs-dallas", "name": "Mo' Bettahs", "image_url": "https://s3-media2.fl.yelpcdn.com/bphoto/c9OC42UvdVBgV-OICWq-Bg/o.jpg", "is_closed": false, "url": "https://www.yelp.com/biz/mo-bettahs-dallas?adjust_creative=p8ZmzrMnEc-h1IE5NUGjPA&utm_campaign=yelp_api_v3&utm_medium=api_v3_business_search&utm_source=p8ZmzrMnEc-h1IE5NUGjPA", "review_count": 200, "categories": [{"alias": "hawaiian", "title": "Hawaiian"}], "rating": 4.5, "coordinates": {"latitude": 32.85743, "longitude": -96.74971}, "transactions": ["delivery", "pickup"], "price": "$$", "location": {"address1": "6471 E Nw Hwy", "address2": "Ste 100", "address3": null, "city": "Dallas", "zip_code": "75231", "country": "US", "state": "TX", "display_address": ["6471 E Nw Hwy", "Ste 100", "Dallas, TX 75231"]}, "phone": "+12144323240", "display_phone": "(214) 432-3240", "distance": 5170.252770789413}, {"id": "tOchv3-CghlPrAWijRn65w", "alias": "margarets-dallas-3", "name": "Margaret's", "image_url": "https://s3-media4.fl.yelpcdn.com/bphoto/uCdeFRqkdNDXjBBrHitm8A/o.jpg", "is_closed": false, "url": "https://www.yelp.com/biz/margarets-dallas-3?adjust_creative=p8ZmzrMnEc-h1IE5NUGjPA&utm_campaign=yelp_api_v3&utm_medium=api_v3_business_search&utm_source=p8ZmzrMnEc-h1IE5NUGjPA", "review_count": 5, "categories": [{"alias": "bars", "title": "Bars"}, {"alias": "breakfast_brunch", "title": "Breakfast & Brunch"}, {"alias": "newamerican", "title": "American (New)"}], "rating": 4.5, "coordinates": {"latitude": 32.787073, "longitude": -96.798564}, "transactions": [], "location": {"address1": "800 N Harwood St", "address2": null, "address3": "", "city": "Dallas", "zip_code": "75201", "country": "US", "state": "TX", "display_address": ["800 N Harwood St", "Dallas, TX 75201"]}, "phone": "+12147367760", "display_phone": "(214) 736-7760", "distance": 5813.353718937979}, {"id": "BmX-t6hhACCc60h0jhj2XA", "alias": "k-pop-ramen-dallas", "name": "K Pop Ramen", "image_url": "https://s3-media2.fl.yelpcdn.com/bphoto/ngLT0V2FeBjpu3qPYMkx5g/o.jpg", "is_closed": false, "url": "https://www.yelp.com/biz/k-pop-ramen-dallas?adjust_creative=p8ZmzrMnEc-h1IE5NUGjPA&utm_campaign=yelp_api_v3&utm_medium=api_v3_business_search&utm_source=p8ZmzrMnEc-h1IE5NUGjPA", "review_count": 346, "categories": [{"alias": "ramen", "title": "Ramen"}, {"alias": "korean", "title": "Korean"}], "rating": 4.5, "coordinates": {"latitude": 32.825176, "longitude": -96.819912}, "transactions": ["delivery", "pickup"], "price": "$$", "location": {"address1": "5150 Lemmon Ave", "address2": "Ste 104", "address3": "", "city": "Dallas", "zip_code": "75209", "country": "US", "state": "TX", "display_address": ["5150 Lemmon Ave", "Ste 104", "Dallas, TX 75209"]}, "phone": "+19726853033", "display_phone": "(972) 685-3033", "distance": 2382.275088488905}, {"id": "G8nrtlo66fKnoWyrZ4pFSQ", "alias": "plomo-quesadilla-bar-dallas", "name": "Plomo Quesadilla Bar", "image_url": "https://s3-media1.fl.yelpcdn.com/bphoto/YM7NGOr3p9xW9JJxBq3MVw/o.jpg", "is_closed": false, "url": "https://www.yelp.com/biz/plomo-quesadilla-bar-dallas?adjust_creative=p8ZmzrMnEc-h1IE5NUGjPA&utm_campaign=yelp_api_v3&utm_medium=api_v3_business_search&utm_source=p8ZmzrMnEc-h1IE5NUGjPA", "review_count": 10, "categories": [{"alias": "mexican", "title": "Mexican"}, {"alias": "bars", "title": "Bars"}], "rating": 3.5, "coordinates": {"latitude": 32.81166219495462, "longitude": -96.7745424}, "transactions": [], "location": {"address1": "1802 McMillan Ave", "address2": "", "address3": null, "city": "Dallas", "zip_code": "75206", "country": "US", "state": "TX", "display_address": ["1802 McMillan Ave", "Dallas, TX 75206"]}, "phone": "", "display_phone": "", "distance": 3894.8310664388623}, {"id": "bULVB0Q87mn4u2sNPjXTTQ", "alias": "rodeo-goat-dallas", "name": "Rodeo Goat", "image_url": "https://s3-media2.fl.yelpcdn.com/bphoto/voAJ36ryei1TMVg7wFCFoQ/o.jpg", "is_closed": false, "url": "https://www.yelp.com/biz/rodeo-goat-dallas?adjust_creative=p8ZmzrMnEc-h1IE5NUGjPA&utm_campaign=yelp_api_v3&utm_medium=api_v3_business_search&utm_source=p8ZmzrMnEc-h1IE5NUGjPA", "review_count": 2770, "categories": [{"alias": "burgers", "title": "Burgers"}, {"alias": "beerbar", "title": "Beer Bar"}], "rating": 4.5, "coordinates": {"latitude": 32.7971504231268, "longitude": -96.8239863214264}, "transactions": ["delivery"], "price": "$$", "location": {"address1": "1926 Market Center Blvd", "address2": "", "address3": "", "city": "Dallas", "zip_code": "75207", "country": "US", "state": "TX", "display_address": ["1926 Market Center Blvd", "Dallas, TX 75207"]}, "phone": "+12147414628", "display_phone": "(214) 741-4628", "distance": 5147.945817852955}, {"id": "NHWU88c4bl08C8kgCdJP9g", "alias": "waya-japanese-izakaya-dallas", "name": "WAYA Japanese Izakaya", "image_url": "https://s3-media4.fl.yelpcdn.com/bphoto/0HA2MA9eSvFraC31Stf5bA/o.jpg", "is_closed": false, "url": "https://www.yelp.com/biz/waya-japanese-izakaya-dallas?adjust_creative=p8ZmzrMnEc-h1IE5NUGjPA&utm_campaign=yelp_api_v3&utm_medium=api_v3_business_search&utm_source=p8ZmzrMnEc-h1IE5NUGjPA", "review_count": 157, "categories": [{"alias": "japanese", "title": "Japanese"}], "rating": 4.5, "coordinates": {"latitude": 32.813083, "longitude": -96.753458}, "transactions": ["delivery", "pickup"], "price": "$$", "location": {"address1": "6334 Gaston Ave", "address2": null, "address3": "", "city": "Dallas", "zip_code": "75214", "country": "US", "state": "TX", "display_address": ["6334 Gaston Ave", "Dallas, TX 75214"]}, "phone": "+19729822103", "display_phone": "(972) 982-2103", "distance": 5267.947845253417}, {"id": "RB0FQMBIe1FurGZwRxEEfA", "alias": "lyla-dallas", "name": "Lyla", "image_url": "https://s3-media3.fl.yelpcdn.com/bphoto/enm4LM6PR7J-4iP6pcUjJg/o.jpg", "is_closed": false, "url": "https://www.yelp.com/biz/lyla-dallas?adjust_creative=p8ZmzrMnEc-h1IE5NUGjPA&utm_campaign=yelp_api_v3&utm_medium=api_v3_business_search&utm_source=p8ZmzrMnEc-h1IE5NUGjPA", "review_count": 80, "categories": [{"alias": "italian", "title": "Italian"}, {"alias": "mediterranean", "title": "Mediterranean"}], "rating": 4.0, "coordinates": {"latitude": 32.80484, "longitude": -96.799318}, "transactions": [], "location": {"address1": "3309 McKinney Ave", "address2": null, "address3": "", "city": "Dallas", "zip_code": "75204", "country": "US", "state": "TX", "display_address": ["3309 McKinney Ave", "Dallas, TX 75204"]}, "phone": "+12142160675", "display_phone": "(214) 216-0675", "distance": 3808.2147653464835}, {"id": "4jOnJcCVPvkMqXVN_Fv6Tw", "alias": "hawkers-asian-street-food-dallas-2", "name": "Hawkers Asian Street Food", "image_url": "https://s3-media3.fl.yelpcdn.com/bphoto/HmzbIdetyPocxRJlwYDOxQ/o.jpg", "is_closed": false, "url": "https://www.yelp.com/biz/hawkers-asian-street-food-dallas-2?adjust_creative=p8ZmzrMnEc-h1IE5NUGjPA&utm_campaign=yelp_api_v3&utm_medium=api_v3_business_search&utm_source=p8ZmzrMnEc-h1IE5NUGjPA", "review_count": 49, "categories": [{"alias": "panasian", "title": "Pan Asian"}, {"alias": "tapasmallplates", "title": "Tapas/Small Plates"}], "rating": 4.5, "coordinates": {"latitude": 32.95214, "longitude": -96.82003}, "transactions": [], "location": {"address1": "5100 Belt Line Rd", "address2": "Ste 430", "address3": "", "city": "Dallas", "zip_code": "75254", "country": "US", "state": "TX", "display_address": ["5100 Belt Line Rd", "Ste 430", "Dallas, TX 75254"]}, "phone": "", "display_phone": "", "distance": 12654.074076101057}, {"id": "U3Nx-Vvizc6BMHiZxcuw7A", "alias": "il-bracco-dallas", "name": "il Bracco", "image_url": "https://s3-media3.fl.yelpcdn.com/bphoto/UJE--oDwpgTZjKeOZVvU4w/o.jpg", "is_closed": false, "url": "https://www.yelp.com/biz/il-bracco-dallas?adjust_creative=p8ZmzrMnEc-h1IE5NUGjPA&utm_campaign=yelp_api_v3&utm_medium=api_v3_business_search&utm_source=p8ZmzrMnEc-h1IE5NUGjPA", "review_count": 338, "categories": [{"alias": "italian", "title": "Italian"}], "rating": 4.5, "coordinates": {"latitude": 32.864895, "longitude": -96.802592}, "transactions": ["delivery"], "price": "$$", "location": {"address1": "8416 Preston Center Plaza Dr", "address2": null, "address3": "", "city": "Dallas", "zip_code": "75225", "country": "US", "state": "TX", "display_address": ["8416 Preston Center Plaza Dr", "Dallas, TX 75225"]}, "phone": "+12143610100", "display_phone": "(214) 361-0100", "distance": 2882.095939975006}, {"id": "dodK8kddOJErYt3pPJJ3Dg", "alias": "moriya-shokudo-dallas", "name": "Moriya Shokudo", "image_url": "https://s3-media2.fl.yelpcdn.com/bphoto/eXvzVUsKk2uColgW6PBr5Q/o.jpg", "is_closed": false, "url": "https://www.yelp.com/biz/moriya-shokudo-dallas?adjust_creative=p8ZmzrMnEc-h1IE5NUGjPA&utm_campaign=yelp_api_v3&utm_medium=api_v3_business_search&utm_source=p8ZmzrMnEc-h1IE5NUGjPA", "review_count": 27, "categories": [{"alias": "food_court", "title": "Food Court"}, {"alias": "ramen", "title": "Ramen"}, {"alias": "japacurry", "title": "Japanese Curry"}], "rating": 5.0, "coordinates": {"latitude": 32.8975, "longitude": -96.89029}, "transactions": [], "price": "$$", "location": {"address1": "11422 Harry Hines Blvd", "address2": "Ste 210", "address3": "", "city": "Dallas", "zip_code": "75229", "country": "US", "state": "TX", "display_address": ["11422 Harry Hines Blvd", "Ste 210", "Dallas, TX 75229"]}, "phone": "", "display_phone": "", "distance": 10590.047539710642}, {"id": "ZUBmtNBU0L45jIrMAgGeiQ", "alias": "wabi-house-dallas", "name": "Wabi House", "image_url": "https://s3-media3.fl.yelpcdn.com/bphoto/Kw6EUgC0CQJWjrD2n9KyXw/o.jpg", "is_closed": false, "url": "https://www.yelp.com/biz/wabi-house-dallas?adjust_creative=p8ZmzrMnEc-h1IE5NUGjPA&utm_campaign=yelp_api_v3&utm_medium=api_v3_business_search&utm_source=p8ZmzrMnEc-h1IE5NUGjPA", "review_count": 1709, "categories": [{"alias": "ramen", "title": "Ramen"}, {"alias": "bars", "title": "Bars"}, {"alias": "tapasmallplates", "title": "Tapas/Small Plates"}], "rating": 4.5, "coordinates": {"latitude": 32.81235, "longitude": -96.769994}, "transactions": ["delivery"], "price": "$$", "location": {"address1": "1802 Greenville Ave", "address2": "Ste 100", "address3": "", "city": "Dallas", "zip_code": "75206", "country": "US", "state": "TX", "display_address": ["1802 Greenville Ave", "Ste 100", "Dallas, TX 75206"]}, "phone": "+14699495121", "display_phone": "(469) 949-5121", "distance": 4127.305138109892}, {"id": "9uaSZzLB7CEHGc4mokQxig", "alias": "the-porch-dallas", "name": "The Porch", "image_url": "https://s3-media2.fl.yelpcdn.com/bphoto/bDPP6Fk1LqFhuTbTSOosUw/o.jpg", "is_closed": false, "url": "https://www.yelp.com/biz/the-porch-dallas?adjust_creative=p8ZmzrMnEc-h1IE5NUGjPA&utm_campaign=yelp_api_v3&utm_medium=api_v3_business_search&utm_source=p8ZmzrMnEc-h1IE5NUGjPA", "review_count": 1630, "categories": [{"alias": "southern", "title": "Southern"}, {"alias": "newamerican", "title": "American (New)"}, {"alias": "sandwiches", "title": "Sandwiches"}], "rating": 4.0, "coordinates": {"latitude": 32.82064248039, "longitude": -96.784746955887}, "transactions": ["delivery", "pickup"], "price": "$$", "location": {"address1": "2912 N Henderson Ave", "address2": "", "address3": "", "city": "Dallas", "zip_code": "75206", "country": "US", "state": "TX", "display_address": ["2912 N Henderson Ave", "Dallas, TX 75206"]}, "phone": "+12148282916", "display_phone": "(214) 828-2916", "distance": 2522.53565678719}, {"id": "oL4wRcoK2JJLCX3aHWHapg", "alias": "dallas-grilled-cheese-co-dallas-3", "name": "Dallas Grilled Cheese Co", "image_url": "https://s3-media4.fl.yelpcdn.com/bphoto/o-n_U_Jj5UYFGztlNFPjqA/o.jpg", "is_closed": false, "url": "https://www.yelp.com/biz/dallas-grilled-cheese-co-dallas-3?adjust_creative=p8ZmzrMnEc-h1IE5NUGjPA&utm_campaign=yelp_api_v3&utm_medium=api_v3_business_search&utm_source=p8ZmzrMnEc-h1IE5NUGjPA", "review_count": 323, "categories": [{"alias": "tradamerican", "title": "American (Traditional)"}, {"alias": "sandwiches", "title": "Sandwiches"}], "rating": 4.0, "coordinates": {"latitude": 32.8368102, "longitude": -96.7774467}, "transactions": ["pickup", "delivery"], "price": "$$", "location": {"address1": "5319 E Mockingbird Ln", "address2": "Ste 120", "address3": null, "city": "Dallas", "zip_code": "75206", "country": "US", "state": "TX", "display_address": ["5319 E Mockingbird Ln", "Ste 120", "Dallas, TX 75206"]}, "phone": "+14696202121", "display_phone": "(469) 620-2121", "distance": 2258.1544487019223}, {"id": "5yAcCvXU_gPK1z_PAGv-QA", "alias": "the-exchange-hall-dallas", "name": "The Exchange Hall", "image_url": "https://s3-media4.fl.yelpcdn.com/bphoto/dmglRzcIbKp69ONMIF_kJw/o.jpg", "is_closed": false, "url": "https://www.yelp.com/biz/the-exchange-hall-dallas?adjust_creative=p8ZmzrMnEc-h1IE5NUGjPA&utm_campaign=yelp_api_v3&utm_medium=api_v3_business_search&utm_source=p8ZmzrMnEc-h1IE5NUGjPA", "review_count": 68, "categories": [{"alias": "food_court", "title": "Food Court"}], "rating": 4.5, "coordinates": {"latitude": 32.77929, "longitude": -96.80001}, "transactions": [], "price": "$$", "location": {"address1": "211 S Akard St", "address2": null, "address3": null, "city": "Dallas", "zip_code": "75202", "country": "US", "state": "TX", "display_address": ["211 S Akard St", "Dallas, TX 75202"]}, "phone": "", "display_phone": "", "distance": 6635.650793835599}, {"id": "BNhV_ZpAEgJBRtHVluWZyA", "alias": "via-triozzi-dallas", "name": "Via Triozzi", "image_url": "https://s3-media2.fl.yelpcdn.com/bphoto/lZJ6PDStG3pp-yF2YGM5-A/o.jpg", "is_closed": false, "url": "https://www.yelp.com/biz/via-triozzi-dallas?adjust_creative=p8ZmzrMnEc-h1IE5NUGjPA&utm_campaign=yelp_api_v3&utm_medium=api_v3_business_search&utm_source=p8ZmzrMnEc-h1IE5NUGjPA", "review_count": 27, "categories": [{"alias": "italian", "title": "Italian"}, {"alias": "desserts", "title": "Desserts"}, {"alias": "bars", "title": "Bars"}], "rating": 4.5, "coordinates": {"latitude": 32.81247, "longitude": -96.77}, "transactions": [], "location": {"address1": "1806 Greenville Ave", "address2": "", "address3": null, "city": "Dallas", "zip_code": "75206", "country": "US", "state": "TX", "display_address": ["1806 Greenville Ave", "Dallas, TX 75206"]}, "phone": "+14698975679", "display_phone": "(469) 897-5679", "distance": 4108.306567049815}, {"id": "uGVLGbSSlqgKvAH51UYo-Q", "alias": "kom\u00e9-dallas-2", "name": "Kom\u00e9", "image_url": "https://s3-media2.fl.yelpcdn.com/bphoto/Mw2wCSGrzSADyO3du7zb0w/o.jpg", "is_closed": false, "url": "https://www.yelp.com/biz/kom%C3%A9-dallas-2?adjust_creative=p8ZmzrMnEc-h1IE5NUGjPA&utm_campaign=yelp_api_v3&utm_medium=api_v3_business_search&utm_source=p8ZmzrMnEc-h1IE5NUGjPA", "review_count": 130, "categories": [{"alias": "sushi", "title": "Sushi Bars"}], "rating": 5.0, "coordinates": {"latitude": 32.88152, "longitude": -96.767917}, "transactions": [], "location": {"address1": "8041 Walnut Hill Ln", "address2": "St 820", "address3": "", "city": "Dallas", "zip_code": "75231", "country": "US", "state": "TX", "display_address": ["8041 Walnut Hill Ln", "St 820", "Dallas, TX 75231"]}, "phone": "+12142386314", "display_phone": "(214) 238-6314", "distance": 5607.723722616074}, {"id": "sqhaTs9xc3G8OWHihGBipQ", "alias": "terry-blacks-barbecue-dallas", "name": "Terry Black's Barbecue", "image_url": "https://s3-media1.fl.yelpcdn.com/bphoto/LD-QPzuIYHyHaOCdc3W39A/o.jpg", "is_closed": false, "url": "https://www.yelp.com/biz/terry-blacks-barbecue-dallas?adjust_creative=p8ZmzrMnEc-h1IE5NUGjPA&utm_campaign=yelp_api_v3&utm_medium=api_v3_business_search&utm_source=p8ZmzrMnEc-h1IE5NUGjPA", "review_count": 1827, "categories": [{"alias": "bbq", "title": "Barbeque"}], "rating": 4.5, "coordinates": {"latitude": 32.78488, "longitude": -96.77984}, "transactions": ["delivery"], "price": "$$", "location": {"address1": "3025 Main St", "address2": null, "address3": "", "city": "Dallas", "zip_code": "75226", "country": "US", "state": "TX", "display_address": ["3025 Main St", "Dallas, TX 75226"]}, "phone": "+14693990081", "display_phone": "(469) 399-0081", "distance": 6322.907117103936}, {"id": "MD47euE3xSII4Fz9Gb4cng", "alias": "spice-wok-dallas", "name": "Spice Wok", "image_url": "https://s3-media1.fl.yelpcdn.com/bphoto/epjb_mvzaSiFWfdjJx1AeA/o.jpg", "is_closed": false, "url": "https://www.yelp.com/biz/spice-wok-dallas?adjust_creative=p8ZmzrMnEc-h1IE5NUGjPA&utm_campaign=yelp_api_v3&utm_medium=api_v3_business_search&utm_source=p8ZmzrMnEc-h1IE5NUGjPA", "review_count": 27, "categories": [{"alias": "chickenshop", "title": "Chicken Shop"}, {"alias": "noodles", "title": "Noodles"}, {"alias": "asianfusion", "title": "Asian Fusion"}], "rating": 5.0, "coordinates": {"latitude": 32.9309181537358, "longitude": -96.71696620226642}, "transactions": ["delivery", "pickup"], "location": {"address1": "13340 Audelia Rd", "address2": "Ste 135", "address3": null, "city": "Dallas", "zip_code": "75243", "country": "US", "state": "TX", "display_address": ["13340 Audelia Rd", "Ste 135", "Dallas, TX 75243"]}, "phone": "+14692060139", "display_phone": "(469) 206-0139", "distance": 12855.456973449647}, {"id": "1PlCn1i8g1Hsd-gYkFw_3w", "alias": "sister-restaurant-dallas", "name": "Sister Restaurant", "image_url": "https://s3-media1.fl.yelpcdn.com/bphoto/kPOrFCCnD2ilHpU8kKLhxg/o.jpg", "is_closed": false, "url": "https://www.yelp.com/biz/sister-restaurant-dallas?adjust_creative=p8ZmzrMnEc-h1IE5NUGjPA&utm_campaign=yelp_api_v3&utm_medium=api_v3_business_search&utm_source=p8ZmzrMnEc-h1IE5NUGjPA", "review_count": 211, "categories": [{"alias": "italian", "title": "Italian"}, {"alias": "mediterranean", "title": "Mediterranean"}], "rating": 4.5, "coordinates": {"latitude": 32.82347, "longitude": -96.76995}, "transactions": [], "location": {"address1": "2808 Greenville Ave", "address2": null, "address3": "", "city": "Dallas", "zip_code": "75206", "country": "US", "state": "TX", "display_address": ["2808 Greenville Ave", "Dallas, TX 75206"]}, "phone": "+12148888660", "display_phone": "(214) 888-8660", "distance": 3343.671786664083}, {"id": "ycL1qii6EpKXoLgMMboBIQ", "alias": "pecan-lodge-dallas-3", "name": "Pecan Lodge", "image_url": "https://s3-media2.fl.yelpcdn.com/bphoto/8g7yxWYnCgj-T2BBMzW-Ag/o.jpg", "is_closed": false, "url": "https://www.yelp.com/biz/pecan-lodge-dallas-3?adjust_creative=p8ZmzrMnEc-h1IE5NUGjPA&utm_campaign=yelp_api_v3&utm_medium=api_v3_business_search&utm_source=p8ZmzrMnEc-h1IE5NUGjPA", "review_count": 6431, "categories": [{"alias": "sandwiches", "title": "Sandwiches"}, {"alias": "bbq", "title": "Barbeque"}, {"alias": "southern", "title": "Southern"}], "rating": 4.5, "coordinates": {"latitude": 32.78371943063679, "longitude": -96.78386072987722}, "transactions": ["delivery"], "price": "$$", "location": {"address1": "2702 Main St", "address2": "", "address3": "", "city": "Dallas", "zip_code": "75226", "country": "US", "state": "TX", "display_address": ["2702 Main St", "Dallas, TX 75226"]}, "phone": "+12147488900", "display_phone": "(214) 748-8900", "distance": 6346.090814739491}, {"id": "XKfInM-qaE8y6SGtbrtHoQ", "alias": "anchor-sushi-bar-dallas-2", "name": "Anchor Sushi Bar", "image_url": "https://s3-media4.fl.yelpcdn.com/bphoto/hBNdKAKRd56VgxnITj8H0w/o.jpg", "is_closed": false, "url": "https://www.yelp.com/biz/anchor-sushi-bar-dallas-2?adjust_creative=p8ZmzrMnEc-h1IE5NUGjPA&utm_campaign=yelp_api_v3&utm_medium=api_v3_business_search&utm_source=p8ZmzrMnEc-h1IE5NUGjPA", "review_count": 30, "categories": [{"alias": "newamerican", "title": "American (New)"}, {"alias": "sushi", "title": "Sushi Bars"}, {"alias": "cocktailbars", "title": "Cocktail Bars"}], "rating": 4.0, "coordinates": {"latitude": 32.89577, "longitude": -96.80279}, "transactions": [], "location": {"address1": "6025 Royal Ln", "address2": null, "address3": "", "city": "Dallas", "zip_code": "75230", "country": "US", "state": "TX", "display_address": ["6025 Royal Ln", "Dallas, TX 75230"]}, "phone": "+19723622150", "display_phone": "(972) 362-2150", "distance": 6235.653149414382}, {"id": "tOUH_bPXLvLUzVADj-hc0w", "alias": "naminohana-dallas", "name": "Naminohana", "image_url": "https://s3-media1.fl.yelpcdn.com/bphoto/9N4HbredtGK3Jec1NDtYwA/o.jpg", "is_closed": false, "url": "https://www.yelp.com/biz/naminohana-dallas?adjust_creative=p8ZmzrMnEc-h1IE5NUGjPA&utm_campaign=yelp_api_v3&utm_medium=api_v3_business_search&utm_source=p8ZmzrMnEc-h1IE5NUGjPA", "review_count": 47, "categories": [{"alias": "sushi", "title": "Sushi Bars"}, {"alias": "japanese", "title": "Japanese"}], "rating": 4.5, "coordinates": {"latitude": 32.853738, "longitude": -96.769842}, "transactions": [], "location": {"address1": "5521 Greenville Ave", "address2": "Ste 11", "address3": null, "city": "Dallas", "zip_code": "75206", "country": "US", "state": "TX", "display_address": ["5521 Greenville Ave", "Ste 11", "Dallas, TX 75206"]}, "phone": "+14693720419", "display_phone": "(469) 372-0419", "distance": 3295.1392385388967}, {"id": "5pxAubyYAh69ZUzIy00BaQ", "alias": "seelys-mill-dallas", "name": "Seely's Mill", "image_url": "https://s3-media1.fl.yelpcdn.com/bphoto/XU4bsl8v1XIwZDibPl_fjg/o.jpg", "is_closed": false, "url": "https://www.yelp.com/biz/seelys-mill-dallas?adjust_creative=p8ZmzrMnEc-h1IE5NUGjPA&utm_campaign=yelp_api_v3&utm_medium=api_v3_business_search&utm_source=p8ZmzrMnEc-h1IE5NUGjPA", "review_count": 7, "categories": [{"alias": "bbq", "title": "Barbeque"}, {"alias": "sandwiches", "title": "Sandwiches"}, {"alias": "cocktailbars", "title": "Cocktail Bars"}], "rating": 4.5, "coordinates": {"latitude": 32.84040819769399, "longitude": -96.77520663200418}, "transactions": [], "location": {"address1": "6070 N Central Expy", "address2": null, "address3": "The Beeman Hotel", "city": "Dallas", "zip_code": "75206", "country": "US", "state": "TX", "display_address": ["6070 N Central Expy", "The Beeman Hotel", "Dallas, TX 75206"]}, "phone": "+12147506060", "display_phone": "(214) 750-6060", "distance": 2371.35648488489}, {"id": "Dm8QkLtvBYm29kpDnktGGg", "alias": "maison-chinoise-dallas", "name": "Maison Chinoise", "image_url": "https://s3-media4.fl.yelpcdn.com/bphoto/Xf9-vv_EwnKqLsCLLm2imQ/o.jpg", "is_closed": false, "url": "https://www.yelp.com/biz/maison-chinoise-dallas?adjust_creative=p8ZmzrMnEc-h1IE5NUGjPA&utm_campaign=yelp_api_v3&utm_medium=api_v3_business_search&utm_source=p8ZmzrMnEc-h1IE5NUGjPA", "review_count": 28, "categories": [{"alias": "chinese", "title": "Chinese"}, {"alias": "venues", "title": "Venues & Event Spaces"}, {"alias": "cocktailbars", "title": "Cocktail Bars"}], "rating": 4.0, "coordinates": {"latitude": 32.816103897607675, "longitude": -96.79223993312743}, "transactions": [], "location": {"address1": "4152 Cole Ave", "address2": "Ste 106", "address3": null, "city": "Dallas", "zip_code": "75204", "country": "US", "state": "TX", "display_address": ["4152 Cole Ave", "Ste 106", "Dallas, TX 75204"]}, "phone": "+14698512222", "display_phone": "(469) 851-2222", "distance": 2665.9766051704114}, {"id": "QgyUJBNXPrbfGHaUUS4G7A", "alias": "truck-yard-dallas", "name": "Truck Yard", "image_url": "https://s3-media3.fl.yelpcdn.com/bphoto/ebY5PvkPLTWeaGps3gKC4Q/o.jpg", "is_closed": false, "url": "https://www.yelp.com/biz/truck-yard-dallas?adjust_creative=p8ZmzrMnEc-h1IE5NUGjPA&utm_campaign=yelp_api_v3&utm_medium=api_v3_business_search&utm_source=p8ZmzrMnEc-h1IE5NUGjPA", "review_count": 1132, "categories": [{"alias": "foodstands", "title": "Food Stands"}, {"alias": "cheesesteaks", "title": "Cheesesteaks"}], "rating": 4.5, "coordinates": {"latitude": 32.81456, "longitude": -96.7717908163265}, "transactions": ["pickup"], "price": "$$", "location": {"address1": "5624 Sears St", "address2": "", "address3": "", "city": "Dallas", "zip_code": "75206", "country": "US", "state": "TX", "display_address": ["5624 Sears St", "Dallas, TX 75206"]}, "phone": "+14695000139", "display_phone": "(469) 500-0139", "distance": 3824.434915769305}, {"id": "_HSm-dvSgWKQinYIhvGyZg", "alias": "son-of-a-butcher-dallas-3", "name": "Son of a Butcher", "image_url": "https://s3-media3.fl.yelpcdn.com/bphoto/vwzTLGkff-0E0Ac85gPE4w/o.jpg", "is_closed": false, "url": "https://www.yelp.com/biz/son-of-a-butcher-dallas-3?adjust_creative=p8ZmzrMnEc-h1IE5NUGjPA&utm_campaign=yelp_api_v3&utm_medium=api_v3_business_search&utm_source=p8ZmzrMnEc-h1IE5NUGjPA", "review_count": 314, "categories": [{"alias": "burgers", "title": "Burgers"}, {"alias": "tradamerican", "title": "American (Traditional)"}, {"alias": "desserts", "title": "Desserts"}], "rating": 4.0, "coordinates": {"latitude": 32.814613, "longitude": -96.76993}, "transactions": ["delivery", "pickup"], "price": "$$", "location": {"address1": "2026 Greenville Ave", "address2": "", "address3": null, "city": "Dallas", "zip_code": "75206", "country": "US", "state": "TX", "display_address": ["2026 Greenville Ave", "Dallas, TX 75206"]}, "phone": "+14698628780", "display_phone": "(469) 862-8780", "distance": 3944.428689247409}, {"id": "JtiRBV1iZNbHXTv4S574Bg", "alias": "lovers-seafood-and-market-dallas", "name": "Lovers Seafood And Market", "image_url": "https://s3-media3.fl.yelpcdn.com/bphoto/0dZfBVBPOBd_uE8idxNefQ/o.jpg", "is_closed": false, "url": "https://www.yelp.com/biz/lovers-seafood-and-market-dallas?adjust_creative=p8ZmzrMnEc-h1IE5NUGjPA&utm_campaign=yelp_api_v3&utm_medium=api_v3_business_search&utm_source=p8ZmzrMnEc-h1IE5NUGjPA", "review_count": 319, "categories": [{"alias": "seafood", "title": "Seafood"}, {"alias": "seafoodmarkets", "title": "Seafood Markets"}], "rating": 4.5, "coordinates": {"latitude": 32.850965, "longitude": -96.822204}, "transactions": ["delivery"], "price": "$$", "location": {"address1": "5200 W Lovers Ln", "address2": "", "address3": null, "city": "Dallas", "zip_code": "75209", "country": "US", "state": "TX", "display_address": ["5200 W Lovers Ln", "Dallas, TX 75209"]}, "phone": "+12144149880", "display_phone": "(214) 414-9880", "distance": 2419.5552779204386}, {"id": "RqJhbxQ7evXwR-quag_e7A", "alias": "hide-dallas", "name": "Hide", "image_url": "https://s3-media1.fl.yelpcdn.com/bphoto/4nL3gKDimuDwWPRi1E0xig/o.jpg", "is_closed": false, "url": "https://www.yelp.com/biz/hide-dallas?adjust_creative=p8ZmzrMnEc-h1IE5NUGjPA&utm_campaign=yelp_api_v3&utm_medium=api_v3_business_search&utm_source=p8ZmzrMnEc-h1IE5NUGjPA", "review_count": 476, "categories": [{"alias": "cocktailbars", "title": "Cocktail Bars"}, {"alias": "newamerican", "title": "American (New)"}], "rating": 4.5, "coordinates": {"latitude": 32.81369894043739, "longitude": -96.76991887294749}, "transactions": ["delivery"], "price": "$$", "location": {"address1": "1928 Greenville Ave", "address2": "", "address3": null, "city": "Dallas", "zip_code": "75206", "country": "US", "state": "TX", "display_address": ["1928 Greenville Ave", "Dallas, TX 75206"]}, "phone": "+12147850905", "display_phone": "(214) 785-0905", "distance": 4015.8550510633054}, {"id": "Nav42pMLWtQvVtxFojAUnA", "alias": "bad-chicken-no-title", "name": "Bad Chicken", "image_url": "https://s3-media4.fl.yelpcdn.com/bphoto/bInX3FNtnWISJJABtBQLYg/o.jpg", "is_closed": false, "url": "https://www.yelp.com/biz/bad-chicken-no-title?adjust_creative=p8ZmzrMnEc-h1IE5NUGjPA&utm_campaign=yelp_api_v3&utm_medium=api_v3_business_search&utm_source=p8ZmzrMnEc-h1IE5NUGjPA", "review_count": 70, "categories": [{"alias": "chicken_wings", "title": "Chicken Wings"}, {"alias": "desserts", "title": "Desserts"}, {"alias": "chickenshop", "title": "Chicken Shop"}], "rating": 4.5, "coordinates": {"latitude": 32.863285, "longitude": -96.807339}, "transactions": ["delivery", "pickup"], "location": {"address1": "6030 Luther Ln", "address2": "Ste 130", "address3": "", "city": "Dallas", "zip_code": "75225", "country": "US", "state": "TX", "display_address": ["6030 Luther Ln", "Ste 130", "Dallas, TX 75225"]}, "phone": "+14692060237", "display_phone": "(469) 206-0237", "distance": 2753.595910175625}, {"id": "L5j_40WApWfn2O6Wn3Oyxg", "alias": "pho-vietz-dallas", "name": "Pho Vietz", "image_url": "https://s3-media3.fl.yelpcdn.com/bphoto/hf-7HYh3B0QvqeNvuEmfMw/o.jpg", "is_closed": false, "url": "https://www.yelp.com/biz/pho-vietz-dallas?adjust_creative=p8ZmzrMnEc-h1IE5NUGjPA&utm_campaign=yelp_api_v3&utm_medium=api_v3_business_search&utm_source=p8ZmzrMnEc-h1IE5NUGjPA", "review_count": 30, "categories": [{"alias": "vietnamese", "title": "Vietnamese"}], "rating": 4.5, "coordinates": {"latitude": 32.81518, "longitude": -96.82769}, "transactions": ["delivery", "pickup"], "location": {"address1": "4906 Maple Ave", "address2": "", "address3": null, "city": "Dallas", "zip_code": "75235", "country": "US", "state": "TX", "display_address": ["4906 Maple Ave", "Dallas, TX 75235"]}, "phone": "+12146436602", "display_phone": "(214) 643-6602", "distance": 3676.322616581001}, {"id": "JOZOAXXcOpqL-vGQeEaXfA", "alias": "zaap-kitchen-lao-thai-street-eats-dallas", "name": "Zaap Kitchen Lao Thai Street Eats", "image_url": "https://s3-media2.fl.yelpcdn.com/bphoto/Uv8LJzwYooPGhx0DT3zbbw/o.jpg", "is_closed": false, "url": "https://www.yelp.com/biz/zaap-kitchen-lao-thai-street-eats-dallas?adjust_creative=p8ZmzrMnEc-h1IE5NUGjPA&utm_campaign=yelp_api_v3&utm_medium=api_v3_business_search&utm_source=p8ZmzrMnEc-h1IE5NUGjPA", "review_count": 105, "categories": [{"alias": "laotian", "title": "Laotian"}, {"alias": "thai", "title": "Thai"}, {"alias": "asianfusion", "title": "Asian Fusion"}], "rating": 4.5, "coordinates": {"latitude": 32.8109284483, "longitude": -96.782231642}, "transactions": ["pickup", "delivery"], "price": "$$", "location": {"address1": "2325 N Fitzhugh", "address2": "Ste 105", "address3": "", "city": "Dallas", "zip_code": "75204", "country": "US", "state": "TX", "display_address": ["2325 N Fitzhugh", "Ste 105", "Dallas, TX 75204"]}, "phone": "+12146132710", "display_phone": "(214) 613-2710", "distance": 3563.5821621754017}, {"id": "Z1y_Kmy9zbBx4TNkGK1TAg", "alias": "ka-thai-dallas", "name": "Ka Thai", "image_url": "https://s3-media4.fl.yelpcdn.com/bphoto/GR8xWi3C8yC7rzKIA7LVBQ/o.jpg", "is_closed": false, "url": "https://www.yelp.com/biz/ka-thai-dallas?adjust_creative=p8ZmzrMnEc-h1IE5NUGjPA&utm_campaign=yelp_api_v3&utm_medium=api_v3_business_search&utm_source=p8ZmzrMnEc-h1IE5NUGjPA", "review_count": 434, "categories": [{"alias": "thai", "title": "Thai"}, {"alias": "salad", "title": "Salad"}, {"alias": "chicken_wings", "title": "Chicken Wings"}], "rating": 4.5, "coordinates": {"latitude": 32.80291261733748, "longitude": -96.79951032005457}, "transactions": ["pickup", "delivery"], "price": "$$", "location": {"address1": "3220 Mckinney Ave", "address2": "Ste 120", "address3": "", "city": "Dallas", "zip_code": "75204", "country": "US", "state": "TX", "display_address": ["3220 Mckinney Ave", "Ste 120", "Dallas, TX 75204"]}, "phone": "+14692917995", "display_phone": "(469) 291-7995", "distance": 4018.7099895503075}, {"id": "-5ucSk2ujT-rlpEXwdexog", "alias": "the-old-monk-dallas", "name": "The Old Monk", "image_url": "https://s3-media2.fl.yelpcdn.com/bphoto/LgqyuWfgYGsP9iz3LWK5mA/o.jpg", "is_closed": false, "url": "https://www.yelp.com/biz/the-old-monk-dallas?adjust_creative=p8ZmzrMnEc-h1IE5NUGjPA&utm_campaign=yelp_api_v3&utm_medium=api_v3_business_search&utm_source=p8ZmzrMnEc-h1IE5NUGjPA", "review_count": 611, "categories": [{"alias": "pubs", "title": "Pubs"}, {"alias": "breakfast_brunch", "title": "Breakfast & Brunch"}, {"alias": "cocktailbars", "title": "Cocktail Bars"}], "rating": 4.5, "coordinates": {"latitude": 32.820092541427, "longitude": -96.784871667538}, "transactions": ["delivery"], "price": "$$", "location": {"address1": "2847 N Henderson Ave", "address2": "", "address3": "", "city": "Dallas", "zip_code": "75206", "country": "US", "state": "TX", "display_address": ["2847 N Henderson Ave", "Dallas, TX 75206"]}, "phone": "+12148211880", "display_phone": "(214) 821-1880", "distance": 2565.7222044460664}, {"id": "AimbC1FPpihg6cLIOg2rUg", "alias": "postino-addison-dallas-2", "name": "Postino Addison", "image_url": "https://s3-media3.fl.yelpcdn.com/bphoto/kBRvXlKwBTEcVJx0DILlDA/o.jpg", "is_closed": false, "url": "https://www.yelp.com/biz/postino-addison-dallas-2?adjust_creative=p8ZmzrMnEc-h1IE5NUGjPA&utm_campaign=yelp_api_v3&utm_medium=api_v3_business_search&utm_source=p8ZmzrMnEc-h1IE5NUGjPA", "review_count": 63, "categories": [{"alias": "wine_bars", "title": "Wine Bars"}, {"alias": "italian", "title": "Italian"}, {"alias": "breakfast_brunch", "title": "Breakfast & Brunch"}], "rating": 4.5, "coordinates": {"latitude": 32.953599314955895, "longitude": -96.8188968}, "transactions": ["delivery", "pickup"], "price": "$$", "location": {"address1": "5280 Belt Line Rd", "address2": "Ste 100", "address3": null, "city": "Dallas", "zip_code": "75254", "country": "US", "state": "TX", "display_address": ["5280 Belt Line Rd", "Ste 100", "Dallas, TX 75254"]}, "phone": "+12147317777", "display_phone": "(214) 731-7777", "distance": 12852.832917938053}, {"id": "5CzIaFMxQ3lO8eFeCwWa_g", "alias": "lavui-dallas-4", "name": "LaVui", "image_url": "https://s3-media3.fl.yelpcdn.com/bphoto/5RhIGKSVZ_V87hvo9HtvbQ/o.jpg", "is_closed": false, "url": "https://www.yelp.com/biz/lavui-dallas-4?adjust_creative=p8ZmzrMnEc-h1IE5NUGjPA&utm_campaign=yelp_api_v3&utm_medium=api_v3_business_search&utm_source=p8ZmzrMnEc-h1IE5NUGjPA", "review_count": 169, "categories": [{"alias": "vietnamese", "title": "Vietnamese"}, {"alias": "japanese", "title": "Japanese"}, {"alias": "sushi", "title": "Sushi Bars"}], "rating": 4.0, "coordinates": {"latitude": 32.81796, "longitude": -96.83282}, "transactions": ["pickup"], "price": "$$", "location": {"address1": "5321 Maple Ave", "address2": "", "address3": null, "city": "Dallas", "zip_code": "75235", "country": "US", "state": "TX", "display_address": ["5321 Maple Ave", "Dallas, TX 75235"]}, "phone": "+14697768212", "display_phone": "(469) 776-8212", "distance": 3822.66613100824}, {"id": "ON9DQYtZJ4z8dZM6MEWIAw", "alias": "haywire-dallas-2", "name": "Haywire", "image_url": "https://s3-media1.fl.yelpcdn.com/bphoto/n9TzrZ9C1eQpU6G3SM_ghg/o.jpg", "is_closed": false, "url": "https://www.yelp.com/biz/haywire-dallas-2?adjust_creative=p8ZmzrMnEc-h1IE5NUGjPA&utm_campaign=yelp_api_v3&utm_medium=api_v3_business_search&utm_source=p8ZmzrMnEc-h1IE5NUGjPA", "review_count": 535, "categories": [{"alias": "newamerican", "title": "American (New)"}, {"alias": "bars", "title": "Bars"}, {"alias": "breakfast_brunch", "title": "Breakfast & Brunch"}], "rating": 4.5, "coordinates": {"latitude": 32.79014, "longitude": -96.80329}, "transactions": ["delivery"], "price": "$$", "location": {"address1": "1920 McKinney Ave", "address2": "Ste 100", "address3": null, "city": "Dallas", "zip_code": "75201", "country": "US", "state": "TX", "display_address": ["1920 McKinney Ave", "Ste 100", "Dallas, TX 75201"]}, "phone": "+14695015522", "display_phone": "(469) 501-5522", "distance": 5417.989961299469}, {"id": "mEgczh_FVcbBfW3qk10BIg", "alias": "bistro-31-dallas-2", "name": "Bistro 31", "image_url": "https://s3-media4.fl.yelpcdn.com/bphoto/viaRMiYGoSvfguSp7-nx4g/o.jpg", "is_closed": false, "url": "https://www.yelp.com/biz/bistro-31-dallas-2?adjust_creative=p8ZmzrMnEc-h1IE5NUGjPA&utm_campaign=yelp_api_v3&utm_medium=api_v3_business_search&utm_source=p8ZmzrMnEc-h1IE5NUGjPA", "review_count": 372, "categories": [{"alias": "french", "title": "French"}, {"alias": "spanish", "title": "Spanish"}, {"alias": "modern_european", "title": "Modern European"}], "rating": 4.0, "coordinates": {"latitude": 32.8358851, "longitude": -96.8056808}, "transactions": ["delivery"], "price": "$$$", "location": {"address1": "87 Highland Park Village", "address2": "Ste 200", "address3": "", "city": "Dallas", "zip_code": "75205", "country": "US", "state": "TX", "display_address": ["87 Highland Park Village", "Ste 200", "Dallas, TX 75205"]}, "phone": "+12144203900", "display_phone": "(214) 420-3900", "distance": 582.640527360477}, {"id": "eSyynMjmNnmEP-6WxZp0Fw", "alias": "fuel-city-dallas-dallas", "name": "Fuel City - Dallas", "image_url": "https://s3-media1.fl.yelpcdn.com/bphoto/aJZXtvgA2fx1r6tRBNXo0w/o.jpg", "is_closed": false, "url": "https://www.yelp.com/biz/fuel-city-dallas-dallas?adjust_creative=p8ZmzrMnEc-h1IE5NUGjPA&utm_campaign=yelp_api_v3&utm_medium=api_v3_business_search&utm_source=p8ZmzrMnEc-h1IE5NUGjPA", "review_count": 1254, "categories": [{"alias": "convenience", "title": "Convenience Stores"}, {"alias": "tacos", "title": "Tacos"}, {"alias": "coffee", "title": "Coffee & Tea"}], "rating": 4.0, "coordinates": {"latitude": 32.76728427725633, "longitude": -96.807008702267}, "transactions": [], "price": "$", "location": {"address1": "801 S Riverfront Blvd", "address2": "", "address3": "", "city": "Dallas", "zip_code": "75207", "country": "US", "state": "TX", "display_address": ["801 S Riverfront Blvd", "Dallas, TX 75207"]}, "phone": "+12144260011", "display_phone": "(214) 426-0011", "distance": 8002.14302851836}, {"id": "WTXTDyJaQZEObNZUwnmcxQ", "alias": "doma-seolleongtang-dallas-2", "name": "Doma Seolleongtang", "image_url": "https://s3-media3.fl.yelpcdn.com/bphoto/IB1LSS4SvIaU4D509cmcZw/o.jpg", "is_closed": false, "url": "https://www.yelp.com/biz/doma-seolleongtang-dallas-2?adjust_creative=p8ZmzrMnEc-h1IE5NUGjPA&utm_campaign=yelp_api_v3&utm_medium=api_v3_business_search&utm_source=p8ZmzrMnEc-h1IE5NUGjPA", "review_count": 610, "categories": [{"alias": "korean", "title": "Korean"}], "rating": 4.5, "coordinates": {"latitude": 32.89892, "longitude": -96.89892}, "transactions": ["delivery", "pickup"], "price": "$$", "location": {"address1": "11441 N Stemmons Fwy", "address2": "Ste 137", "address3": "", "city": "Dallas", "zip_code": "75229", "country": "US", "state": "TX", "display_address": ["11441 N Stemmons Fwy", "Ste 137", "Dallas, TX 75229"]}, "phone": "+14693725204", "display_phone": "(469) 372-5204", "distance": 11339.247253546911}], "total": 15300, "region": {"center": {"longitude": -96.800537109375, "latitude": 32.839043482398054}}}