{"businesses": [{"id": "n4Ewo4HJOGIxi9CJeFKaJg", "alias": "the-beach-cottages-san-diego", "name": "The Beach Cottages", "image_url": "https://s3-media2.fl.yelpcdn.com/bphoto/d0me39m4rMeDGwYukuOVsA/o.jpg", "is_closed": false, "url": "https://www.yelp.com/biz/the-beach-cottages-san-diego?adjust_creative=p8ZmzrMnEc-h1IE5NUGjPA&utm_campaign=yelp_api_v3&utm_medium=api_v3_business_search&utm_source=p8ZmzrMnEc-h1IE5NUGjPA", "review_count": 259, "categories": [{"alias": "hotels", "title": "Hotels"}], "rating": 4.5, "coordinates": {"latitude": 32.792998916182, "longitude": -117.255195624993}, "transactions": [], "price": "$", "location": {"address1": "4255 Ocean Blvd", "address2": "", "address3": "", "city": "San Diego", "zip_code": "92109", "country": "US", "state": "CA", "display_address": ["4255 Ocean Blvd", "San Diego, CA 92109"]}, "phone": "+18584837440", "display_phone": "(858) 483-7440", "distance": 9455.366497218554}, {"id": "TcRuD7mXEUD4grcl6PMf5g", "alias": "hampton-inn-san-diego-kearny-mesa-san-diego", "name": "Hampton Inn San Diego-Kearny Mesa", "image_url": "https://s3-media2.fl.yelpcdn.com/bphoto/Dn5FOPiBPYEhIP69BGjuww/o.jpg", "is_closed": false, "url": "https://www.yelp.com/biz/hampton-inn-san-diego-kearny-mesa-san-diego?adjust_creative=p8ZmzrMnEc-h1IE5NUGjPA&utm_campaign=yelp_api_v3&utm_medium=api_v3_business_search&utm_source=p8ZmzrMnEc-h1IE5NUGjPA", "review_count": 185, "categories": [{"alias": "hotels", "title": "Hotels"}], "rating": 4.0, "coordinates": {"latitude": 32.8342305206912, "longitude": -117.143045961857}, "transactions": [], "price": "$$", "location": {"address1": "5434 Kearny Mesa Rd", "address2": "", "address3": "", "city": "San Diego", "zip_code": "92111", "country": "US", "state": "CA", "display_address": ["5434 Kearny Mesa Rd", "San Diego, CA 92111"]}, "phone": "+18582921482", "display_phone": "(858) 292-1482", "distance": 4963.254948086657}, {"id": "mH6PPaJ2i1ZCAs0aXxY4BQ", "alias": "staypineapple-hotel-z-san-diego", "name": "Staypineapple -\u00a0Hotel Z", "image_url": "https://s3-media2.fl.yelpcdn.com/bphoto/8UzqBcuv_1FBSaDNA_hnLA/o.jpg", "is_closed": false, "url": "https://www.yelp.com/biz/staypineapple-hotel-z-san-diego?adjust_creative=p8ZmzrMnEc-h1IE5NUGjPA&utm_campaign=yelp_api_v3&utm_medium=api_v3_business_search&utm_source=p8ZmzrMnEc-h1IE5NUGjPA", "review_count": 596, "categories": [{"alias": "hotels", "title": "Hotels"}], "rating": 4.5, "coordinates": {"latitude": 32.71078, "longitude": -117.15891}, "transactions": [], "price": "$$", "location": {"address1": "521 6th Ave", "address2": "", "address3": "", "city": "San Diego", "zip_code": "92101", "country": "US", "state": "CA", "display_address": ["521 6th Ave", "San Diego, CA 92101"]}, "phone": "+16193306401", "display_phone": "(619) 330-6401", "distance": 8884.01836517258}, {"id": "vhuVcd3WV-xzl9ClGGWOrw", "alias": "moxy-hotel-san-diego-san-diego-2", "name": "Moxy Hotel San Diego", "image_url": "https://s3-media3.fl.yelpcdn.com/bphoto/wt4PaWwjA0SNYGR6Wgpf0g/o.jpg", "is_closed": false, "url": "https://www.yelp.com/biz/moxy-hotel-san-diego-san-diego-2?adjust_creative=p8ZmzrMnEc-h1IE5NUGjPA&utm_campaign=yelp_api_v3&utm_medium=api_v3_business_search&utm_source=p8ZmzrMnEc-h1IE5NUGjPA", "review_count": 239, "categories": [{"alias": "hotels", "title": "Hotels"}], "rating": 4.0, "coordinates": {"latitude": 32.714148566241, "longitude": -117.159108587577}, "transactions": [], "price": "$$", "location": {"address1": "831 Sixth Ave", "address2": "", "address3": null, "city": "San Diego", "zip_code": "92101", "country": "US", "state": "CA", "display_address": ["831 Sixth Ave", "San Diego, CA 92101"]}, "phone": "+16192396699", "display_phone": "(619) 239-6699", "distance": 8510.584222452013}, {"id": "YkSr8ceMS-oVOBrGIdHybA", "alias": "holiday-inn-express-and-suites-san-diego-mission-valley-san-diego-2", "name": "Holiday Inn Express & Suites San Diego - Mission Valley", "image_url": "https://s3-media4.fl.yelpcdn.com/bphoto/xOgFks6-cGDzLLOvR1470Q/o.jpg", "is_closed": false, "url": "https://www.yelp.com/biz/holiday-inn-express-and-suites-san-diego-mission-valley-san-diego-2?adjust_creative=p8ZmzrMnEc-h1IE5NUGjPA&utm_campaign=yelp_api_v3&utm_medium=api_v3_business_search&utm_source=p8ZmzrMnEc-h1IE5NUGjPA", "review_count": 207, "categories": [{"alias": "hotels", "title": "Hotels"}], "rating": 4.0, "coordinates": {"latitude": 32.760483, "longitude": -117.168518}, "transactions": [], "price": "$$", "location": {"address1": "635 Hotel Cir S", "address2": "", "address3": "", "city": "San Diego", "zip_code": "92108", "country": "US", "state": "CA", "display_address": ["635 Hotel Cir S", "San Diego, CA 92108"]}, "phone": "+16197957705", "display_phone": "(619) 795-7705", "distance": 3607.394489278973}, {"id": "No2sQBZERjLC7-DNkdauLw", "alias": "courtyard-san-diego-central-san-diego", "name": "Courtyard San Diego Central", "image_url": "https://s3-media1.fl.yelpcdn.com/bphoto/SDguK9uKpAxqpkomjhs7pg/o.jpg", "is_closed": false, "url": "https://www.yelp.com/biz/courtyard-san-diego-central-san-diego?adjust_creative=p8ZmzrMnEc-h1IE5NUGjPA&utm_campaign=yelp_api_v3&utm_medium=api_v3_business_search&utm_source=p8ZmzrMnEc-h1IE5NUGjPA", "review_count": 220, "categories": [{"alias": "hotels", "title": "Hotels"}], "rating": 3.5, "coordinates": {"latitude": 32.8259129924346, "longitude": -117.142363834949}, "transactions": [], "price": "$$", "location": {"address1": "8651 Spectrum Center Blvd", "address2": "", "address3": "", "city": "San Diego", "zip_code": "92123", "country": "US", "state": "CA", "display_address": ["8651 Spectrum Center Blvd", "San Diego, CA 92123"]}, "phone": "+18585730700", "display_phone": "(858) 573-0700", "distance": 4079.793461347514}, {"id": "r2HnIdx1U0wQAvPAIRIY4Q", "alias": "hilton-garden-inn-san-diego-mission-valley-stadium-san-diego", "name": "Hilton Garden Inn San Diego Mission Valley Stadium", "image_url": "https://s3-media2.fl.yelpcdn.com/bphoto/iVZyotbik7fnj_0XL1dXuw/o.jpg", "is_closed": false, "url": "https://www.yelp.com/biz/hilton-garden-inn-san-diego-mission-valley-stadium-san-diego?adjust_creative=p8ZmzrMnEc-h1IE5NUGjPA&utm_campaign=yelp_api_v3&utm_medium=api_v3_business_search&utm_source=p8ZmzrMnEc-h1IE5NUGjPA", "review_count": 140, "categories": [{"alias": "hotels", "title": "Hotels"}], "rating": 3.0, "coordinates": {"latitude": 32.8118011, "longitude": -117.1161833}, "transactions": [], "price": "$$", "location": {"address1": "3805 Murphy Canyon Rd", "address2": null, "address3": null, "city": "San Diego", "zip_code": "92123", "country": "US", "state": "CA", "display_address": ["3805 Murphy Canyon Rd", "San Diego, CA 92123"]}, "phone": "+18582789300", "display_phone": "(858) 278-9300", "distance": 4256.966830079169}, {"id": "7Uq1QREqHmwk75j8Dss-5Q", "alias": "springhill-suites-mission-valley-san-diego", "name": "SpringHill Suites Mission Valley", "image_url": "https://s3-media2.fl.yelpcdn.com/bphoto/MLRmwwIptmBzy57RwIAy0g/o.jpg", "is_closed": false, "url": "https://www.yelp.com/biz/springhill-suites-mission-valley-san-diego?adjust_creative=p8ZmzrMnEc-h1IE5NUGjPA&utm_campaign=yelp_api_v3&utm_medium=api_v3_business_search&utm_source=p8ZmzrMnEc-h1IE5NUGjPA", "review_count": 122, "categories": [{"alias": "hotels", "title": "Hotels"}, {"alias": "venues", "title": "Venues & Event Spaces"}], "rating": 4.0, "coordinates": {"latitude": 32.7717371912591, "longitude": -117.137286404755}, "transactions": [], "price": "$$", "location": {"address1": "2401 Camino Del Rios N", "address2": null, "address3": null, "city": "San Diego", "zip_code": "92108", "country": "US", "state": "CA", "display_address": ["2401 Camino Del Rios N", "San Diego, CA 92108"]}, "phone": "+16195822838", "display_phone": "(619) 582-2838", "distance": 2617.4010449303296}, {"id": "wPfOe6Up3NTnfUmQdRzCEg", "alias": "carte-hotel-san-diego", "name": "Carte Hotel San Diego Downtown, Curio Collection by Hilton", "image_url": "https://s3-media1.fl.yelpcdn.com/bphoto/0bQLUfgIXYYHYj8mmrdikw/o.jpg", "is_closed": false, "url": "https://www.yelp.com/biz/carte-hotel-san-diego?adjust_creative=p8ZmzrMnEc-h1IE5NUGjPA&utm_campaign=yelp_api_v3&utm_medium=api_v3_business_search&utm_source=p8ZmzrMnEc-h1IE5NUGjPA", "review_count": 223, "categories": [{"alias": "hotels", "title": "Hotels"}], "rating": 3.5, "coordinates": {"latitude": 32.7197260648, "longitude": -117.16677040738062}, "transactions": [], "location": {"address1": "401 W Ash St", "address2": null, "address3": null, "city": "San Diego", "zip_code": "92101", "country": "US", "state": "CA", "display_address": ["401 W Ash St", "San Diego, CA 92101"]}, "phone": "+16195469600", "display_phone": "(619) 546-9600", "distance": 7966.253247344436}, {"id": "6ZetajYdFC49icBgLHdddA", "alias": "four-points-by-sheraton-san-diego-san-diego", "name": "Four Points by Sheraton San Diego", "image_url": "https://s3-media2.fl.yelpcdn.com/bphoto/7za2fsHOBSrWmGz7e6nZew/o.jpg", "is_closed": false, "url": "https://www.yelp.com/biz/four-points-by-sheraton-san-diego-san-diego?adjust_creative=p8ZmzrMnEc-h1IE5NUGjPA&utm_campaign=yelp_api_v3&utm_medium=api_v3_business_search&utm_source=p8ZmzrMnEc-h1IE5NUGjPA", "review_count": 394, "categories": [{"alias": "hotels", "title": "Hotels"}, {"alias": "venues", "title": "Venues & Event Spaces"}], "rating": 2.5, "coordinates": {"latitude": 32.810691, "longitude": -117.149379}, "transactions": [], "price": "$$", "location": {"address1": "8110 Aero Dr", "address2": "", "address3": "", "city": "San Diego", "zip_code": "92123", "country": "US", "state": "CA", "display_address": ["8110 Aero Dr", "San Diego, CA 92123"]}, "phone": "+18582778888", "display_phone": "(858) 277-8888", "distance": 2280.211443666385}, {"id": "VZ5k7SyhUvSaS6jRaR2_FQ", "alias": "residence-inn-by-marriott-san-diego-chula-vista-chula-vista", "name": "Residence Inn By Marriott San Diego Chula Vista", "image_url": "https://s3-media2.fl.yelpcdn.com/bphoto/bhtsc7vcpJVWYGh-LAJmJg/o.jpg", "is_closed": false, "url": "https://www.yelp.com/biz/residence-inn-by-marriott-san-diego-chula-vista-chula-vista?adjust_creative=p8ZmzrMnEc-h1IE5NUGjPA&utm_campaign=yelp_api_v3&utm_medium=api_v3_business_search&utm_source=p8ZmzrMnEc-h1IE5NUGjPA", "review_count": 43, "categories": [{"alias": "hotels", "title": "Hotels"}], "rating": 4.0, "coordinates": {"latitude": 32.6292200175304, "longitude": -116.969201602042}, "transactions": [], "price": "$$", "location": {"address1": "2005 Centerpark Rd", "address2": "", "address3": null, "city": "Chula Vista", "zip_code": "91915", "country": "US", "state": "CA", "display_address": ["2005 Centerpark Rd", "Chula Vista, CA 91915"]}, "phone": "+16192161000", "display_phone": "(619) 216-1000", "distance": 24921.858315151938}, {"id": "I-xLnHpqb_9Yi1uwliTyZQ", "alias": "the-sofia-hotel-san-diego", "name": "The Sofia Hotel", "image_url": "https://s3-media4.fl.yelpcdn.com/bphoto/QiMVnaiUGZZUFw_SlNBnCQ/o.jpg", "is_closed": false, "url": "https://www.yelp.com/biz/the-sofia-hotel-san-diego?adjust_creative=p8ZmzrMnEc-h1IE5NUGjPA&utm_campaign=yelp_api_v3&utm_medium=api_v3_business_search&utm_source=p8ZmzrMnEc-h1IE5NUGjPA", "review_count": 955, "categories": [{"alias": "hotels", "title": "Hotels"}], "rating": 3.5, "coordinates": {"latitude": 32.7162259184028, "longitude": -117.164393663406}, "transactions": [], "price": "$$", "location": {"address1": "150 W Broadway", "address2": "", "address3": "", "city": "San Diego", "zip_code": "92101", "country": "US", "state": "CA", "display_address": ["150 W Broadway", "San Diego, CA 92101"]}, "phone": "+18008260009", "display_phone": "(800) 826-0009", "distance": 8322.647556386763}, {"id": "mfV1kilrUZGhZ4AUV49C2A", "alias": "kings-inn-san-diego-san-diego", "name": "Kings Inn San Diego", "image_url": "https://s3-media3.fl.yelpcdn.com/bphoto/HW_PhDi-KOXx6qdrFK7v-g/o.jpg", "is_closed": false, "url": "https://www.yelp.com/biz/kings-inn-san-diego-san-diego?adjust_creative=p8ZmzrMnEc-h1IE5NUGjPA&utm_campaign=yelp_api_v3&utm_medium=api_v3_business_search&utm_source=p8ZmzrMnEc-h1IE5NUGjPA", "review_count": 723, "categories": [{"alias": "hotels", "title": "Hotels"}], "rating": 4.0, "coordinates": {"latitude": 32.7588703, "longitude": -117.1751486}, "transactions": [], "price": "$$", "location": {"address1": "1333 Hotel Cir S", "address2": "", "address3": "", "city": "San Diego", "zip_code": "92108", "country": "US", "state": "CA", "display_address": ["1333 Hotel Cir S", "San Diego, CA 92108"]}, "phone": "+16192972231", "display_phone": "(619) 297-2231", "distance": 4037.677005171864}, {"id": "HeA1UF1GcDRnH1b5WLfJqQ", "alias": "old-town-inn-san-diego-2", "name": "Old Town Inn", "image_url": "https://s3-media1.fl.yelpcdn.com/bphoto/smVqsiJFbfdiG-j-eKeD-Q/o.jpg", "is_closed": false, "url": "https://www.yelp.com/biz/old-town-inn-san-diego-2?adjust_creative=p8ZmzrMnEc-h1IE5NUGjPA&utm_campaign=yelp_api_v3&utm_medium=api_v3_business_search&utm_source=p8ZmzrMnEc-h1IE5NUGjPA", "review_count": 380, "categories": [{"alias": "hotels", "title": "Hotels"}], "rating": 4.5, "coordinates": {"latitude": 32.7520365878599, "longitude": -117.20078292949904}, "transactions": [], "price": "$$", "location": {"address1": "4444 Pacific Hwy", "address2": "", "address3": "", "city": "San Diego", "zip_code": "92110", "country": "US", "state": "CA", "display_address": ["4444 Pacific Hwy", "San Diego, CA 92110"]}, "phone": "+16192608024", "display_phone": "(619) 260-8024", "distance": 6117.3949429573295}, {"id": "aLApq5qQ1A4k9wQthY0RYQ", "alias": "best-western-plus-la-mesa-san-diego-la-mesa", "name": "Best Western Plus La Mesa San Diego", "image_url": "https://s3-media1.fl.yelpcdn.com/bphoto/7huDj14apdOiaAzg1HtpBQ/o.jpg", "is_closed": false, "url": "https://www.yelp.com/biz/best-western-plus-la-mesa-san-diego-la-mesa?adjust_creative=p8ZmzrMnEc-h1IE5NUGjPA&utm_campaign=yelp_api_v3&utm_medium=api_v3_business_search&utm_source=p8ZmzrMnEc-h1IE5NUGjPA", "review_count": 91, "categories": [{"alias": "hotels", "title": "Hotels"}], "rating": 3.5, "coordinates": {"latitude": 32.779959337164, "longitude": -116.99165135622}, "transactions": [], "price": "$$", "location": {"address1": "9550 Murray Dr", "address2": "", "address3": "", "city": "La Mesa", "zip_code": "91942", "country": "US", "state": "CA", "display_address": ["9550 Murray Dr", "La Mesa, CA 91942"]}, "phone": "+16194660200", "display_phone": "(619) 466-0200", "distance": 15230.241158631154}, {"id": "levkSWPb0kXwBIb8pgGXbA", "alias": "marriott-marquis-san-diego-marina-san-diego", "name": "Marriott Marquis San Diego Marina", "image_url": "https://s3-media3.fl.yelpcdn.com/bphoto/Mj-N5_6BziAHpJKNJqlWfg/o.jpg", "is_closed": false, "url": "https://www.yelp.com/biz/marriott-marquis-san-diego-marina-san-diego?adjust_creative=p8ZmzrMnEc-h1IE5NUGjPA&utm_campaign=yelp_api_v3&utm_medium=api_v3_business_search&utm_source=p8ZmzrMnEc-h1IE5NUGjPA", "review_count": 1367, "categories": [{"alias": "hotels", "title": "Hotels"}], "rating": 3.5, "coordinates": {"latitude": 32.7084466662912, "longitude": -117.165204}, "transactions": [], "price": "$$$", "location": {"address1": "333 West Harbor Dr", "address2": "", "address3": "", "city": "San Diego", "zip_code": "92101", "country": "US", "state": "CA", "display_address": ["333 West Harbor Dr", "San Diego, CA 92101"]}, "phone": "+16192341500", "display_phone": "(619) 234-1500", "distance": 9190.653569926506}, {"id": "23rmApJpXbGnwhZkNc-qfw", "alias": "the-lodge-at-torrey-pines-la-jolla-2", "name": "The Lodge at Torrey Pines", "image_url": "https://s3-media1.fl.yelpcdn.com/bphoto/P61nymuuTvHN5G2VJWgg_Q/o.jpg", "is_closed": false, "url": "https://www.yelp.com/biz/the-lodge-at-torrey-pines-la-jolla-2?adjust_creative=p8ZmzrMnEc-h1IE5NUGjPA&utm_campaign=yelp_api_v3&utm_medium=api_v3_business_search&utm_source=p8ZmzrMnEc-h1IE5NUGjPA", "review_count": 344, "categories": [{"alias": "hotels", "title": "Hotels"}], "rating": 4.5, "coordinates": {"latitude": 32.904153, "longitude": -117.244638}, "transactions": [], "price": "$$$$", "location": {"address1": "11480 N Torrey Pines Rd", "address2": "", "address3": "", "city": "La Jolla", "zip_code": "92037", "country": "US", "state": "CA", "display_address": ["11480 N Torrey Pines Rd", "La Jolla, CA 92037"]}, "phone": "+18584534420", "display_phone": "(858) 453-4420", "distance": 15201.146466197775}, {"id": "k91NXvVyxdXYR1YJrpAlEw", "alias": "fairmont-grand-del-mar-san-diego", "name": "Fairmont Grand Del Mar", "image_url": "https://s3-media4.fl.yelpcdn.com/bphoto/hUFCpRPHSjCrju4RMrIT9A/o.jpg", "is_closed": false, "url": "https://www.yelp.com/biz/fairmont-grand-del-mar-san-diego?adjust_creative=p8ZmzrMnEc-h1IE5NUGjPA&utm_campaign=yelp_api_v3&utm_medium=api_v3_business_search&utm_source=p8ZmzrMnEc-h1IE5NUGjPA", "review_count": 462, "categories": [{"alias": "hotels", "title": "Hotels"}], "rating": 4.5, "coordinates": {"latitude": 32.93824, "longitude": -117.19755}, "transactions": [], "price": "$$$$", "location": {"address1": "5300 Grand Del Mar Ct", "address2": "", "address3": "", "city": "San Diego", "zip_code": "92130", "country": "US", "state": "CA", "display_address": ["5300 Grand Del Mar Ct", "San Diego, CA 92130"]}, "phone": "+18583142000", "display_phone": "(858) 314-2000", "distance": 16913.653500842505}, {"id": "InVnu5vi5_esVAl9jITIUA", "alias": "the-wayfarer-san-diego-san-diego", "name": "The Wayfarer San Diego", "image_url": "https://s3-media3.fl.yelpcdn.com/bphoto/icQqbodIKyyLdD_asotkTw/o.jpg", "is_closed": false, "url": "https://www.yelp.com/biz/the-wayfarer-san-diego-san-diego?adjust_creative=p8ZmzrMnEc-h1IE5NUGjPA&utm_campaign=yelp_api_v3&utm_medium=api_v3_business_search&utm_source=p8ZmzrMnEc-h1IE5NUGjPA", "review_count": 314, "categories": [{"alias": "hotels", "title": "Hotels"}], "rating": 4.0, "coordinates": {"latitude": 32.7904334, "longitude": -117.2547044}, "transactions": [], "price": "$$", "location": {"address1": "707 Pacific Beach Dr", "address2": "", "address3": "", "city": "San Diego", "zip_code": "92109", "country": "US", "state": "CA", "display_address": ["707 Pacific Beach Dr", "San Diego, CA 92109"]}, "phone": "+18584884700", "display_phone": "(858) 488-4700", "distance": 9405.736899334184}, {"id": "JXMidrXItbrkc0CEiEEKIQ", "alias": "san-diego-mission-bay-resort-san-diego-2", "name": "San Diego Mission Bay Resort", "image_url": "https://s3-media3.fl.yelpcdn.com/bphoto/nWBUYwe7zDEO6XqwHB5qjg/o.jpg", "is_closed": false, "url": "https://www.yelp.com/biz/san-diego-mission-bay-resort-san-diego-2?adjust_creative=p8ZmzrMnEc-h1IE5NUGjPA&utm_campaign=yelp_api_v3&utm_medium=api_v3_business_search&utm_source=p8ZmzrMnEc-h1IE5NUGjPA", "review_count": 272, "categories": [{"alias": "hotels", "title": "Hotels"}, {"alias": "resorts", "title": "Resorts"}, {"alias": "venues", "title": "Venues & Event Spaces"}], "rating": 3.0, "coordinates": {"latitude": 32.77932116515062, "longitude": -117.21088492623574}, "transactions": [], "location": {"address1": "1775 E Mission Bay Dr", "address2": "", "address3": null, "city": "San Diego", "zip_code": "92109", "country": "US", "state": "CA", "display_address": ["1775 E Mission Bay Dr", "San Diego, CA 92109"]}, "phone": "+16196771161", "display_phone": "(619) 677-1161", "distance": 5455.276371964815}, {"id": "azeuEitTFnTkbh22lKMu6A", "alias": "barona-resort-and-casino-lakeside", "name": "Barona Resort & Casino", "image_url": "https://s3-media3.fl.yelpcdn.com/bphoto/-F51d2COtMghA8Za5DlFGg/o.jpg", "is_closed": false, "url": "https://www.yelp.com/biz/barona-resort-and-casino-lakeside?adjust_creative=p8ZmzrMnEc-h1IE5NUGjPA&utm_campaign=yelp_api_v3&utm_medium=api_v3_business_search&utm_source=p8ZmzrMnEc-h1IE5NUGjPA", "review_count": 1254, "categories": [{"alias": "resorts", "title": "Resorts"}], "rating": 3.5, "coordinates": {"latitude": 32.939993568868275, "longitude": -116.87392105278651}, "transactions": [], "location": {"address1": "1932 Wildcat Canyon Rd", "address2": null, "address3": "", "city": "Lakeside", "zip_code": "92040", "country": "US", "state": "CA", "display_address": ["1932 Wildcat Canyon Rd", "Lakeside, CA 92040"]}, "phone": "+18887227662", "display_phone": "(888) 722-7662", "distance": 30996.014667238996}, {"id": "lmFY3ifxClgR9fGnyIdM1A", "alias": "the-pearl-hotel-san-diego", "name": "The Pearl Hotel", "image_url": "https://s3-media4.fl.yelpcdn.com/bphoto/u1Z4-7xg90J2lPk8sss09g/o.jpg", "is_closed": false, "url": "https://www.yelp.com/biz/the-pearl-hotel-san-diego?adjust_creative=p8ZmzrMnEc-h1IE5NUGjPA&utm_campaign=yelp_api_v3&utm_medium=api_v3_business_search&utm_source=p8ZmzrMnEc-h1IE5NUGjPA", "review_count": 703, "categories": [{"alias": "hotels", "title": "Hotels"}, {"alias": "venues", "title": "Venues & Event Spaces"}], "rating": 4.0, "coordinates": {"latitude": 32.72534, "longitude": -117.22898}, "transactions": [], "price": "$$", "location": {"address1": "1410 Rosecrans St", "address2": "", "address3": "", "city": "San Diego", "zip_code": "92106", "country": "US", "state": "CA", "display_address": ["1410 Rosecrans St", "San Diego, CA 92106"]}, "phone": "+16192266100", "display_phone": "(619) 226-6100", "distance": 10091.881873303357}, {"id": "UrYZeABzGVtrr_MqzoFG-g", "alias": "hotel-indigo-san-diego-gaslamp-quarter-san-diego-3", "name": "Hotel Indigo San Diego-Gaslamp Quarter", "image_url": "https://s3-media3.fl.yelpcdn.com/bphoto/SJ6h27_8tBaQEGlYqPJ2rQ/o.jpg", "is_closed": false, "url": "https://www.yelp.com/biz/hotel-indigo-san-diego-gaslamp-quarter-san-diego-3?adjust_creative=p8ZmzrMnEc-h1IE5NUGjPA&utm_campaign=yelp_api_v3&utm_medium=api_v3_business_search&utm_source=p8ZmzrMnEc-h1IE5NUGjPA", "review_count": 993, "categories": [{"alias": "hotels", "title": "Hotels"}, {"alias": "venues", "title": "Venues & Event Spaces"}], "rating": 4.0, "coordinates": {"latitude": 32.71062, "longitude": -117.15618}, "transactions": [], "price": "$$", "location": {"address1": "509 9th Ave", "address2": "", "address3": "", "city": "San Diego", "zip_code": "92101", "country": "US", "state": "CA", "display_address": ["509 9th Ave", "San Diego, CA 92101"]}, "phone": "+16197274000", "display_phone": "(619) 727-4000", "distance": 8877.153621326195}, {"id": "qIW3zrTSlwd5OiIDgA71lg", "alias": "motel-6-san-diego-9", "name": "Motel 6", "image_url": "https://s3-media2.fl.yelpcdn.com/bphoto/XcbkD_nkXHN9_GEIebTHxA/o.jpg", "is_closed": false, "url": "https://www.yelp.com/biz/motel-6-san-diego-9?adjust_creative=p8ZmzrMnEc-h1IE5NUGjPA&utm_campaign=yelp_api_v3&utm_medium=api_v3_business_search&utm_source=p8ZmzrMnEc-h1IE5NUGjPA", "review_count": 56, "categories": [{"alias": "hotels", "title": "Hotels"}], "rating": 2.5, "coordinates": {"latitude": 32.8348, "longitude": -117.171995}, "transactions": [], "price": "$", "location": {"address1": "5592 Clairmont Mesa Blvd", "address2": "", "address3": "", "city": "San Diego", "zip_code": "92117", "country": "US", "state": "CA", "display_address": ["5592 Clairmont Mesa Blvd", "San Diego, CA 92117"]}, "phone": "+18582689758", "display_phone": "(858) 268-9758", "distance": 5162.021336336864}, {"id": "4cbeyNrtc1l5IODjYu3kDA", "alias": "la-valencia-hotel-la-jolla", "name": "La Valencia Hotel", "image_url": "https://s3-media4.fl.yelpcdn.com/bphoto/EYfLLB_dF8V7_SozCWMDdw/o.jpg", "is_closed": false, "url": "https://www.yelp.com/biz/la-valencia-hotel-la-jolla?adjust_creative=p8ZmzrMnEc-h1IE5NUGjPA&utm_campaign=yelp_api_v3&utm_medium=api_v3_business_search&utm_source=p8ZmzrMnEc-h1IE5NUGjPA", "review_count": 795, "categories": [{"alias": "hotels", "title": "Hotels"}], "rating": 4.0, "coordinates": {"latitude": 32.8486381, "longitude": -117.27369113736349}, "transactions": [], "price": "$$$", "location": {"address1": "1132 Prospect St", "address2": "", "address3": "", "city": "La Jolla", "zip_code": "92037", "country": "US", "state": "CA", "display_address": ["1132 Prospect St", "La Jolla, CA 92037"]}, "phone": "+18554766870", "display_phone": "(855) 476-6870", "distance": 12907.931238314986}, {"id": "z5nH2t-4gcsCuey45FOXlQ", "alias": "springhill-suites-by-marriott-san-diego-downtown-bayfront-san-diego-2", "name": "SpringHill Suites by Marriott San Diego Downtown/Bayfront", "image_url": "https://s3-media2.fl.yelpcdn.com/bphoto/iIcbp2aec87zrUxnB9QQbQ/o.jpg", "is_closed": false, "url": "https://www.yelp.com/biz/springhill-suites-by-marriott-san-diego-downtown-bayfront-san-diego-2?adjust_creative=p8ZmzrMnEc-h1IE5NUGjPA&utm_campaign=yelp_api_v3&utm_medium=api_v3_business_search&utm_source=p8ZmzrMnEc-h1IE5NUGjPA", "review_count": 237, "categories": [{"alias": "hotels", "title": "Hotels"}], "rating": 4.0, "coordinates": {"latitude": 32.7170714236819, "longitude": -117.171815335751}, "transactions": [], "price": "$$", "location": {"address1": "900 Bayfront Ct", "address2": null, "address3": null, "city": "San Diego", "zip_code": "92101", "country": "US", "state": "CA", "display_address": ["900 Bayfront Ct", "San Diego, CA 92101"]}, "phone": "+16198310224", "display_phone": "(619) 831-0224", "distance": 8339.121944248483}, {"id": "MhPkZTLOt25GDIk_gl_fUQ", "alias": "mudville-flats-san-diego-2", "name": "Mudville Flats", "image_url": "https://s3-media3.fl.yelpcdn.com/bphoto/3ye8dIdi8SM5PSgNFf612g/o.jpg", "is_closed": false, "url": "https://www.yelp.com/biz/mudville-flats-san-diego-2?adjust_creative=p8ZmzrMnEc-h1IE5NUGjPA&utm_campaign=yelp_api_v3&utm_medium=api_v3_business_search&utm_source=p8ZmzrMnEc-h1IE5NUGjPA", "review_count": 55, "categories": [{"alias": "hotels", "title": "Hotels"}], "rating": 5.0, "coordinates": {"latitude": 32.7133, "longitude": -117.15533}, "transactions": [], "price": "$$", "location": {"address1": "747 10th Ave", "address2": "", "address3": "", "city": "San Diego", "zip_code": "92101", "country": "US", "state": "CA", "display_address": ["747 10th Ave", "San Diego, CA 92101"]}, "phone": "+16192324045", "display_phone": "(619) 232-4045", "distance": 8589.43279272076}, {"id": "Qt-5TOA0I9epOZUvl_yHAw", "alias": "bahia-resort-hotel-san-diego-3", "name": "Bahia Resort Hotel", "image_url": "https://s3-media1.fl.yelpcdn.com/bphoto/Lg-ecJILoBZYb99VWbnmeQ/o.jpg", "is_closed": false, "url": "https://www.yelp.com/biz/bahia-resort-hotel-san-diego-3?adjust_creative=p8ZmzrMnEc-h1IE5NUGjPA&utm_campaign=yelp_api_v3&utm_medium=api_v3_business_search&utm_source=p8ZmzrMnEc-h1IE5NUGjPA", "review_count": 1089, "categories": [{"alias": "hotels", "title": "Hotels"}], "rating": 3.5, "coordinates": {"latitude": 32.7720984008455, "longitude": -117.246381938113}, "transactions": [], "price": "$$", "location": {"address1": "998 W Mission Bay Dr", "address2": "", "address3": "", "city": "San Diego", "zip_code": "92109", "country": "US", "state": "CA", "display_address": ["998 W Mission Bay Dr", "San Diego, CA 92109"]}, "phone": "+18005764229", "display_phone": "(800) 576-4229", "distance": 8869.732886293696}, {"id": "46X5bn4wzouF0O-hIMWJhQ", "alias": "ocean-beach-hotel-san-diego", "name": "Ocean Beach Hotel", "image_url": "https://s3-media2.fl.yelpcdn.com/bphoto/k2WgU8ZM_q-1BML_myCoSw/o.jpg", "is_closed": false, "url": "https://www.yelp.com/biz/ocean-beach-hotel-san-diego?adjust_creative=p8ZmzrMnEc-h1IE5NUGjPA&utm_campaign=yelp_api_v3&utm_medium=api_v3_business_search&utm_source=p8ZmzrMnEc-h1IE5NUGjPA", "review_count": 298, "categories": [{"alias": "hotels", "title": "Hotels"}], "rating": 3.5, "coordinates": {"latitude": 32.74796, "longitude": -117.25233}, "transactions": [], "price": "$$", "location": {"address1": "5080 Newport Ave", "address2": null, "address3": "", "city": "San Diego", "zip_code": "92107", "country": "US", "state": "CA", "display_address": ["5080 Newport Ave", "San Diego, CA 92107"]}, "phone": "+16192237191", "display_phone": "(619) 223-7191", "distance": 10336.358259131712}, {"id": "EW0HPGa0cpNc02GtWB3K3Q", "alias": "san-diego-marriott-mission-valley-san-diego-2", "name": "San Diego Marriott Mission Valley", "image_url": "https://s3-media4.fl.yelpcdn.com/bphoto/2Qv92LzSuA7cRHvbbbdBjg/o.jpg", "is_closed": false, "url": "https://www.yelp.com/biz/san-diego-marriott-mission-valley-san-diego-2?adjust_creative=p8ZmzrMnEc-h1IE5NUGjPA&utm_campaign=yelp_api_v3&utm_medium=api_v3_business_search&utm_source=p8ZmzrMnEc-h1IE5NUGjPA", "review_count": 441, "categories": [{"alias": "hotels", "title": "Hotels"}], "rating": 3.0, "coordinates": {"latitude": 32.77548, "longitude": -117.14}, "transactions": [], "price": "$$", "location": {"address1": "8757 Rio San Diego Dr", "address2": "", "address3": "", "city": "San Diego", "zip_code": "92108", "country": "US", "state": "CA", "display_address": ["8757 Rio San Diego Dr", "San Diego, CA 92108"]}, "phone": "+16196923800", "display_phone": "(619) 692-3800", "distance": 2154.3871781692656}, {"id": "EkAoYuMbhCZJdYf0jM6jQw", "alias": "extended-stay-america-san-diego-mission-valley-stadium-san-diego", "name": "Extended Stay America - San Diego - Mission Valley - Stadium", "image_url": "https://s3-media2.fl.yelpcdn.com/bphoto/o_lt2pbzjEd8Nih97vRjQw/o.jpg", "is_closed": false, "url": "https://www.yelp.com/biz/extended-stay-america-san-diego-mission-valley-stadium-san-diego?adjust_creative=p8ZmzrMnEc-h1IE5NUGjPA&utm_campaign=yelp_api_v3&utm_medium=api_v3_business_search&utm_source=p8ZmzrMnEc-h1IE5NUGjPA", "review_count": 95, "categories": [{"alias": "hotels", "title": "Hotels"}], "rating": 2.0, "coordinates": {"latitude": 32.8134864865888, "longitude": -117.116757396735}, "transactions": [], "price": "$$", "location": {"address1": "3860 Murphy Canyon Rd.", "address2": "", "address3": "", "city": "San Diego", "zip_code": "92123", "country": "US", "state": "CA", "display_address": ["3860 Murphy Canyon Rd.", "San Diego, CA 92123"]}, "phone": "+18008043724", "display_phone": "(800) 804-3724", "distance": 4320.21570705901}, {"id": "61o4qVKhU647Cm_4K2Qjng", "alias": "hilton-san-diego-bayfront-san-diego-2", "name": "Hilton San Diego Bayfront", "image_url": "https://s3-media4.fl.yelpcdn.com/bphoto/YJGFQ_G0qCe71fGBZkFMFA/o.jpg", "is_closed": false, "url": "https://www.yelp.com/biz/hilton-san-diego-bayfront-san-diego-2?adjust_creative=p8ZmzrMnEc-h1IE5NUGjPA&utm_campaign=yelp_api_v3&utm_medium=api_v3_business_search&utm_source=p8ZmzrMnEc-h1IE5NUGjPA", "review_count": 1588, "categories": [{"alias": "hotels", "title": "Hotels"}], "rating": 3.0, "coordinates": {"latitude": 32.70400882702561, "longitude": -117.157661318779}, "transactions": [], "price": "$$$", "location": {"address1": "1 Park Blvd", "address2": "", "address3": null, "city": "San Diego", "zip_code": "92101", "country": "US", "state": "CA", "display_address": ["1 Park Blvd", "San Diego, CA 92101"]}, "phone": "+16195643333", "display_phone": "(619) 564-3333", "distance": 9630.900399204176}, {"id": "4EXqzS3M1Ad4O0v8sNnFYA", "alias": "hilton-garden-inn-san-diego-old-town-seaworld-area-san-diego", "name": "Hilton Garden Inn San Diego Old Town/SeaWorld Area", "image_url": "https://s3-media2.fl.yelpcdn.com/bphoto/loeHmBe-6EwldFUgJinrIQ/o.jpg", "is_closed": false, "url": "https://www.yelp.com/biz/hilton-garden-inn-san-diego-old-town-seaworld-area-san-diego?adjust_creative=p8ZmzrMnEc-h1IE5NUGjPA&utm_campaign=yelp_api_v3&utm_medium=api_v3_business_search&utm_source=p8ZmzrMnEc-h1IE5NUGjPA", "review_count": 236, "categories": [{"alias": "hotels", "title": "Hotels"}], "rating": 3.0, "coordinates": {"latitude": 32.7584657971885, "longitude": -117.198098301888}, "transactions": [], "price": "$$", "location": {"address1": "4200 Taylor St", "address2": "", "address3": "", "city": "San Diego", "zip_code": "92110", "country": "US", "state": "CA", "display_address": ["4200 Taylor St", "San Diego, CA 92110"]}, "phone": "+16192600607", "display_phone": "(619) 260-0607", "distance": 5447.690204263099}, {"id": "UC-FY7gSu_mfWzSKwIibKg", "alias": "towneplace-suites-by-marriott-san-diego-central-san-diego", "name": "TownePlace Suites by Marriott San Diego Central", "image_url": "https://s3-media3.fl.yelpcdn.com/bphoto/iWEQzsFBNhRfFy4hfLk1lw/o.jpg", "is_closed": false, "url": "https://www.yelp.com/biz/towneplace-suites-by-marriott-san-diego-central-san-diego?adjust_creative=p8ZmzrMnEc-h1IE5NUGjPA&utm_campaign=yelp_api_v3&utm_medium=api_v3_business_search&utm_source=p8ZmzrMnEc-h1IE5NUGjPA", "review_count": 41, "categories": [{"alias": "hotels", "title": "Hotels"}], "rating": 3.5, "coordinates": {"latitude": 32.8242919624327, "longitude": -117.13909406215}, "transactions": [], "price": "$$", "location": {"address1": "8650 Tech Way", "address2": "", "address3": null, "city": "San Diego", "zip_code": "92123", "country": "US", "state": "CA", "display_address": ["8650 Tech Way", "San Diego, CA 92123"]}, "phone": "+18587379500", "display_phone": "(858) 737-9500", "distance": 4002.905166472481}, {"id": "2yBBkW8SNxQeIm9AX-63vg", "alias": "catamaran-resort-hotel-and-spa-san-diego-4", "name": "Catamaran Resort Hotel and Spa", "image_url": "https://s3-media2.fl.yelpcdn.com/bphoto/gzI9l8Zr8X48ITLKB1a9sw/o.jpg", "is_closed": false, "url": "https://www.yelp.com/biz/catamaran-resort-hotel-and-spa-san-diego-4?adjust_creative=p8ZmzrMnEc-h1IE5NUGjPA&utm_campaign=yelp_api_v3&utm_medium=api_v3_business_search&utm_source=p8ZmzrMnEc-h1IE5NUGjPA", "review_count": 1060, "categories": [{"alias": "hotels", "title": "Hotels"}, {"alias": "resorts", "title": "Resorts"}], "rating": 3.5, "coordinates": {"latitude": 32.790225, "longitude": -117.252503}, "transactions": [], "price": "$$$", "location": {"address1": "3999 Mission Blvd", "address2": "", "address3": "", "city": "San Diego", "zip_code": "92109", "country": "US", "state": "CA", "display_address": ["3999 Mission Blvd", "San Diego, CA 92109"]}, "phone": "+18584881081", "display_phone": "(858) 488-1081", "distance": 9200.035808439849}, {"id": "FsVUPcVHzKVxgsIQFtW03Q", "alias": "stardust-inn-national-city", "name": "Stardust Inn", "image_url": "https://s3-media4.fl.yelpcdn.com/bphoto/CVx0k2D4_e98Wi8xsKckMA/o.jpg", "is_closed": false, "url": "https://www.yelp.com/biz/stardust-inn-national-city?adjust_creative=p8ZmzrMnEc-h1IE5NUGjPA&utm_campaign=yelp_api_v3&utm_medium=api_v3_business_search&utm_source=p8ZmzrMnEc-h1IE5NUGjPA", "review_count": 14, "categories": [{"alias": "hotels", "title": "Hotels"}], "rating": 1.0, "coordinates": {"latitude": 32.67602, "longitude": -117.08723}, "transactions": [], "price": "$$$", "location": {"address1": "1700 E Plaza Blvd", "address2": "", "address3": "", "city": "National City", "zip_code": "91950", "country": "US", "state": "CA", "display_address": ["1700 E Plaza Blvd", "National City, CA 91950"]}, "phone": "+16194746491", "display_phone": "(619) 474-6491", "distance": 14169.02515128837}, {"id": "n38XewPVc8TVvcT2m3CzTQ", "alias": "aunt-sallys-vacation-home-and-breakfast-san-diego", "name": "Aunt Sally's Vacation Home & Breakfast", "image_url": "https://s3-media4.fl.yelpcdn.com/bphoto/Jj0DuRAF4VPrawtu9ve8Rg/o.jpg", "is_closed": false, "url": "https://www.yelp.com/biz/aunt-sallys-vacation-home-and-breakfast-san-diego?adjust_creative=p8ZmzrMnEc-h1IE5NUGjPA&utm_campaign=yelp_api_v3&utm_medium=api_v3_business_search&utm_source=p8ZmzrMnEc-h1IE5NUGjPA", "review_count": 6, "categories": [{"alias": "vacation_rentals", "title": "Vacation Rentals"}], "rating": 5.0, "coordinates": {"latitude": 32.81514, "longitude": -117.1649}, "transactions": [], "location": {"address1": "3910 Marlesta Dr", "address2": null, "address3": "", "city": "San Diego", "zip_code": "92111", "country": "US", "state": "CA", "display_address": ["3910 Marlesta Dr", "San Diego, CA 92111"]}, "phone": "+18583424802", "display_phone": "(858) 342-4802", "distance": 2914.9030237812185}, {"id": "pk4nD2v-W8Op2KKWDd7ENg", "alias": "doubletree-by-hilton-hotel-san-diego-mission-valley-san-diego-2", "name": "DoubleTree by Hilton Hotel San Diego - Mission Valley", "image_url": "https://s3-media1.fl.yelpcdn.com/bphoto/8BAb16duvDG6UGJPitOyzw/o.jpg", "is_closed": false, "url": "https://www.yelp.com/biz/doubletree-by-hilton-hotel-san-diego-mission-valley-san-diego-2?adjust_creative=p8ZmzrMnEc-h1IE5NUGjPA&utm_campaign=yelp_api_v3&utm_medium=api_v3_business_search&utm_source=p8ZmzrMnEc-h1IE5NUGjPA", "review_count": 491, "categories": [{"alias": "hotels", "title": "Hotels"}], "rating": 3.0, "coordinates": {"latitude": 32.7700114, "longitude": -117.1601746}, "transactions": [], "price": "$$$", "location": {"address1": "7450 Hazard Center Dr", "address2": "", "address3": "", "city": "San Diego", "zip_code": "92108", "country": "US", "state": "CA", "display_address": ["7450 Hazard Center Dr", "San Diego, CA 92108"]}, "phone": "+16192975466", "display_phone": "(619) 297-5466", "distance": 2355.8057650925457}, {"id": "zjDwn8LynUzPTeuEkPbRcg", "alias": "estancia-la-jolla-hotel-and-spa-la-jolla", "name": "Estancia La Jolla Hotel & Spa", "image_url": "https://s3-media2.fl.yelpcdn.com/bphoto/kYsH_HmgwJ2G1hLwwaHyeA/o.jpg", "is_closed": false, "url": "https://www.yelp.com/biz/estancia-la-jolla-hotel-and-spa-la-jolla?adjust_creative=p8ZmzrMnEc-h1IE5NUGjPA&utm_campaign=yelp_api_v3&utm_medium=api_v3_business_search&utm_source=p8ZmzrMnEc-h1IE5NUGjPA", "review_count": 789, "categories": [{"alias": "hotels", "title": "Hotels"}, {"alias": "resorts", "title": "Resorts"}], "rating": 3.5, "coordinates": {"latitude": 32.88425, "longitude": -117.244542}, "transactions": [], "price": "$$$$", "location": {"address1": "9700 N Torrey Pines Rd", "address2": "", "address3": "", "city": "La Jolla", "zip_code": "92037", "country": "US", "state": "CA", "display_address": ["9700 N Torrey Pines Rd", "La Jolla, CA 92037"]}, "phone": "+18584120500", "display_phone": "(858) 412-0500", "distance": 13413.960824813059}, {"id": "-tvS0vsUB4rpxKqwK4Y_LQ", "alias": "holiday-inn-express-san-diego-la-mesa-la-mesa-2", "name": "Holiday Inn Express San Diego - La Mesa", "image_url": "https://s3-media4.fl.yelpcdn.com/bphoto/tdX4F3gt-hkDSwVCkFBhiA/o.jpg", "is_closed": false, "url": "https://www.yelp.com/biz/holiday-inn-express-san-diego-la-mesa-la-mesa-2?adjust_creative=p8ZmzrMnEc-h1IE5NUGjPA&utm_campaign=yelp_api_v3&utm_medium=api_v3_business_search&utm_source=p8ZmzrMnEc-h1IE5NUGjPA", "review_count": 215, "categories": [{"alias": "hotels", "title": "Hotels"}], "rating": 2.5, "coordinates": {"latitude": 32.775079, "longitude": -117.025985}, "transactions": [], "price": "$$", "location": {"address1": "8000 Pkwy Dr", "address2": "", "address3": "", "city": "La Mesa", "zip_code": "91942", "country": "US", "state": "CA", "display_address": ["8000 Pkwy Dr", "La Mesa, CA 91942"]}, "phone": "+16196987747", "display_phone": "(619) 698-7747", "distance": 12094.67827240299}], "total": 753, "region": {"center": {"longitude": -117.15408325195312, "latitude": 32.790569394537286}}}