{"businesses": [{"id": "NxvB55P2UCjeAcEPsJwyUw", "alias": "flama-llama-san-diego", "name": "Flama Llama", "image_url": "https://s3-media2.fl.yelpcdn.com/bphoto/qCTnOEh4R-P5ddfQuTdMEA/o.jpg", "is_closed": false, "url": "https://www.yelp.com/biz/flama-llama-san-diego?adjust_creative=p8ZmzrMnEc-h1IE5NUGjPA&utm_campaign=yelp_api_v3&utm_medium=api_v3_business_search&utm_source=p8ZmzrMnEc-h1IE5NUGjPA", "review_count": 1493, "categories": [{"alias": "latin", "title": "Latin American"}, {"alias": "peruvian", "title": "Peruvian"}, {"alias": "asianfusion", "title": "Asian Fusion"}], "rating": 4.5, "coordinates": {"latitude": 32.821134, "longitude": -117.154646}, "transactions": ["pickup", "delivery"], "price": "$$", "location": {"address1": "4433 Convoy St", "address2": null, "address3": "", "city": "San Diego", "zip_code": "92111", "country": "US", "state": "CA", "display_address": ["4433 Convoy St", "San Diego, CA 92111"]}, "phone": "+18584920402", "display_phone": "(858) 492-0402", "distance": 3395.7866090726147}, {"id": "AvkmeiPuyX6gaVjxRkAhWA", "alias": "ten-seconds-rice-noodle-san-diego", "name": "Ten Seconds Rice Noodle", "image_url": "https://s3-media1.fl.yelpcdn.com/bphoto/-XBahUdU0MfvPcuDGu5W9Q/o.jpg", "is_closed": false, "url": "https://www.yelp.com/biz/ten-seconds-rice-noodle-san-diego?adjust_creative=p8ZmzrMnEc-h1IE5NUGjPA&utm_campaign=yelp_api_v3&utm_medium=api_v3_business_search&utm_source=p8ZmzrMnEc-h1IE5NUGjPA", "review_count": 52, "categories": [{"alias": "noodles", "title": "Noodles"}], "rating": 4.5, "coordinates": {"latitude": 32.825823, "longitude": -117.152766}, "transactions": [], "location": {"address1": "7905 Engineer Rd", "address2": null, "address3": "", "city": "San Diego", "zip_code": "92111", "country": "US", "state": "CA", "display_address": ["7905 Engineer Rd", "San Diego, CA 92111"]}, "phone": "+18588981588", "display_phone": "(858) 898-1588", "distance": 3922.9152948642595}, {"id": "iyLfem8zE0fLWTf-4WdqaA", "alias": "steamy-piggy-san-diego-2", "name": "Steamy Piggy", "image_url": "https://s3-media2.fl.yelpcdn.com/bphoto/4QHMIkQgYCSv-QNYXbkBEQ/o.jpg", "is_closed": false, "url": "https://www.yelp.com/biz/steamy-piggy-san-diego-2?adjust_creative=p8ZmzrMnEc-h1IE5NUGjPA&utm_campaign=yelp_api_v3&utm_medium=api_v3_business_search&utm_source=p8ZmzrMnEc-h1IE5NUGjPA", "review_count": 4803, "categories": [{"alias": "chinese", "title": "Chinese"}, {"alias": "asianfusion", "title": "Asian Fusion"}, {"alias": "ramen", "title": "Ramen"}], "rating": 4.5, "coordinates": {"latitude": 32.82558093593696, "longitude": -117.15449932962656}, "transactions": ["delivery", "pickup"], "price": "$$", "location": {"address1": "4681 Convoy St", "address2": "Ste A", "address3": null, "city": "San Diego", "zip_code": "92111", "country": "US", "state": "CA", "display_address": ["4681 Convoy St", "Ste A", "San Diego, CA 92111"]}, "phone": "+18584920401", "display_phone": "(858) 492-0401", "distance": 3893.295658623493}, {"id": "3iDk6Nc07nWNzZZLV-GyhA", "alias": "kanto-filipino-street-food-san-diego", "name": "Kanto Filipino Street Food", "image_url": "https://s3-media4.fl.yelpcdn.com/bphoto/oEOZqSvL8UWiEIF3pbPqOQ/o.jpg", "is_closed": false, "url": "https://www.yelp.com/biz/kanto-filipino-street-food-san-diego?adjust_creative=p8ZmzrMnEc-h1IE5NUGjPA&utm_campaign=yelp_api_v3&utm_medium=api_v3_business_search&utm_source=p8ZmzrMnEc-h1IE5NUGjPA", "review_count": 1, "categories": [{"alias": "filipino", "title": "Filipino"}, {"alias": "foodstands", "title": "Food Stands"}], "rating": 5.0, "coordinates": {"latitude": 33.70907, "longitude": -117.95028}, "transactions": [], "location": {"address1": "1640 Camino Del Rio N", "address2": "", "address3": null, "city": "San Diego", "zip_code": "92108", "country": "US", "state": "CA", "display_address": ["1640 Camino Del Rio N", "San Diego, CA 92108"]}, "phone": "+17142006078", "display_phone": "(714) 200-6078", "distance": 2453.6205036504025}, {"id": "WoQJC9s_Hgj2IUXF7qQxqQ", "alias": "mikes-red-tacos-san-diego-2", "name": "Mike's Red Tacos", "image_url": "https://s3-media2.fl.yelpcdn.com/bphoto/PD3Y0T8U3gpSEa67oC41iA/o.jpg", "is_closed": false, "url": "https://www.yelp.com/biz/mikes-red-tacos-san-diego-2?adjust_creative=p8ZmzrMnEc-h1IE5NUGjPA&utm_campaign=yelp_api_v3&utm_medium=api_v3_business_search&utm_source=p8ZmzrMnEc-h1IE5NUGjPA", "review_count": 629, "categories": [{"alias": "tacos", "title": "Tacos"}], "rating": 4.5, "coordinates": {"latitude": 32.821668006542176, "longitude": -117.1834435138422}, "transactions": ["pickup", "delivery"], "price": "$$", "location": {"address1": "4310 Genesee Ave", "address2": "Ste 104", "address3": null, "city": "San Diego", "zip_code": "92117", "country": "US", "state": "CA", "display_address": ["4310 Genesee Ave", "Ste 104", "San Diego, CA 92117"]}, "phone": "+18587374299", "display_phone": "(858) 737-4299", "distance": 4414.4553284469375}, {"id": "Ve1N_Y3lwtI4UYwDvUEtZg", "alias": "cross-street-san-diego", "name": "Cross Street", "image_url": "https://s3-media1.fl.yelpcdn.com/bphoto/Dvgz7YeQV_ph2KEag0yzAw/o.jpg", "is_closed": false, "url": "https://www.yelp.com/biz/cross-street-san-diego?adjust_creative=p8ZmzrMnEc-h1IE5NUGjPA&utm_campaign=yelp_api_v3&utm_medium=api_v3_business_search&utm_source=p8ZmzrMnEc-h1IE5NUGjPA", "review_count": 2208, "categories": [{"alias": "korean", "title": "Korean"}, {"alias": "beerbar", "title": "Beer Bar"}, {"alias": "chicken_wings", "title": "Chicken Wings"}], "rating": 4.5, "coordinates": {"latitude": 32.820203, "longitude": -117.154722}, "transactions": ["delivery", "pickup"], "price": "$$", "location": {"address1": "4403 Convoy St", "address2": "", "address3": null, "city": "San Diego", "zip_code": "92111", "country": "US", "state": "CA", "display_address": ["4403 Convoy St", "San Diego, CA 92111"]}, "phone": "+18584306001", "display_phone": "(858) 430-6001", "distance": 3293.775226071546}, {"id": "OfjUGieDXyPB8jWa0pvehA", "alias": "homestyle-hawaiian-san-diego", "name": "Homestyle Hawaiian", "image_url": "https://s3-media2.fl.yelpcdn.com/bphoto/TS1ijHoL4rKxKWh2WCtkCw/o.jpg", "is_closed": false, "url": "https://www.yelp.com/biz/homestyle-hawaiian-san-diego?adjust_creative=p8ZmzrMnEc-h1IE5NUGjPA&utm_campaign=yelp_api_v3&utm_medium=api_v3_business_search&utm_source=p8ZmzrMnEc-h1IE5NUGjPA", "review_count": 2053, "categories": [{"alias": "hawaiian", "title": "Hawaiian"}, {"alias": "salad", "title": "Salad"}, {"alias": "seafood", "title": "Seafood"}], "rating": 4.0, "coordinates": {"latitude": 32.80164, "longitude": -117.15914}, "transactions": ["delivery"], "price": "$$", "location": {"address1": "7524 Mesa College Dr", "address2": "", "address3": "", "city": "San Diego", "zip_code": "92111", "country": "US", "state": "CA", "display_address": ["7524 Mesa College Dr", "San Diego, CA 92111"]}, "phone": "+18585715828", "display_phone": "(858) 571-5828", "distance": 1324.8716243058068}, {"id": "7wgq7FZC9iGSOuTWssFRHg", "alias": "woomiok-san-diego-4", "name": "Woomiok", "image_url": "https://s3-media1.fl.yelpcdn.com/bphoto/1BRLsusrzB4xSSr9c9MkLw/o.jpg", "is_closed": false, "url": "https://www.yelp.com/biz/woomiok-san-diego-4?adjust_creative=p8ZmzrMnEc-h1IE5NUGjPA&utm_campaign=yelp_api_v3&utm_medium=api_v3_business_search&utm_source=p8ZmzrMnEc-h1IE5NUGjPA", "review_count": 1074, "categories": [{"alias": "korean", "title": "Korean"}], "rating": 4.5, "coordinates": {"latitude": 32.81394586709426, "longitude": -117.15400354084886}, "transactions": ["pickup", "delivery"], "price": "$$", "location": {"address1": "3860 Convoy St", "address2": "", "address3": null, "city": "San Diego", "zip_code": "92111", "country": "US", "state": "CA", "display_address": ["3860 Convoy St", "San Diego, CA 92111"]}, "phone": "+18587374599", "display_phone": "(858) 737-4599", "distance": 2599.3529448834765}, {"id": "l89rs4dLws8eljg5EQEeSQ", "alias": "white-rice-bodega-san-diego", "name": "White Rice Bodega", "image_url": "https://s3-media3.fl.yelpcdn.com/bphoto/9ERZcCDDALyrXSF9vmZqiA/o.jpg", "is_closed": false, "url": "https://www.yelp.com/biz/white-rice-bodega-san-diego?adjust_creative=p8ZmzrMnEc-h1IE5NUGjPA&utm_campaign=yelp_api_v3&utm_medium=api_v3_business_search&utm_source=p8ZmzrMnEc-h1IE5NUGjPA", "review_count": 103, "categories": [{"alias": "filipino", "title": "Filipino"}], "rating": 4.0, "coordinates": {"latitude": 32.76355237499801, "longitude": -117.1155596897006}, "transactions": ["pickup", "delivery"], "price": "$$", "location": {"address1": "3586 Adams Ave", "address2": "Ste 100", "address3": null, "city": "San Diego", "zip_code": "92116", "country": "US", "state": "CA", "display_address": ["3586 Adams Ave", "Ste 100", "San Diego, CA 92116"]}, "phone": "", "display_phone": "", "distance": 4690.034929809166}, {"id": "eV-L-Al5mZvRYMR90NmYmw", "alias": "kanpai-bbq-and-shabu-san-diego", "name": "Kanpai BBQ & Shabu", "image_url": "https://s3-media2.fl.yelpcdn.com/bphoto/kYJYwRC57mVDgLPIioGE8g/o.jpg", "is_closed": false, "url": "https://www.yelp.com/biz/kanpai-bbq-and-shabu-san-diego?adjust_creative=p8ZmzrMnEc-h1IE5NUGjPA&utm_campaign=yelp_api_v3&utm_medium=api_v3_business_search&utm_source=p8ZmzrMnEc-h1IE5NUGjPA", "review_count": 118, "categories": [{"alias": "japanese", "title": "Japanese"}, {"alias": "bbq", "title": "Barbeque"}], "rating": 5.0, "coordinates": {"latitude": 32.81463, "longitude": -117.15444}, "transactions": [], "location": {"address1": "3904 Convoy St", "address2": "Ste 114-115", "address3": "", "city": "San Diego", "zip_code": "92111", "country": "US", "state": "CA", "display_address": ["3904 Convoy St", "Ste 114-115", "San Diego, CA 92111"]}, "phone": "+18587374253", "display_phone": "(858) 737-4253", "distance": 2653.7786336819017}, {"id": "DL3V6SGxchO2lx84_VOFOQ", "alias": "yiko-yiko-san-diego", "name": "Yiko Yiko", "image_url": "https://s3-media3.fl.yelpcdn.com/bphoto/ewhezeixejgeMlwLO8H2gw/o.jpg", "is_closed": false, "url": "https://www.yelp.com/biz/yiko-yiko-san-diego?adjust_creative=p8ZmzrMnEc-h1IE5NUGjPA&utm_campaign=yelp_api_v3&utm_medium=api_v3_business_search&utm_source=p8ZmzrMnEc-h1IE5NUGjPA", "review_count": 148, "categories": [{"alias": "bakeries", "title": "Bakeries"}], "rating": 4.5, "coordinates": {"latitude": 32.8330983, "longitude": -117.1499051376152}, "transactions": [], "price": "$$", "location": {"address1": "8008 Clairemont Mesa Blvd", "address2": "", "address3": null, "city": "San Diego", "zip_code": "92111", "country": "US", "state": "CA", "display_address": ["8008 Clairemont Mesa Blvd", "San Diego, CA 92111"]}, "phone": "", "display_phone": "", "distance": 4745.085692375717}, {"id": "UhF03LyD4DCoHPpEwQatwg", "alias": "pelicana-chicken-san-diego-3", "name": "Pelicana Chicken", "image_url": "https://s3-media3.fl.yelpcdn.com/bphoto/O5T_7t616eoiF5awOp5xzw/o.jpg", "is_closed": false, "url": "https://www.yelp.com/biz/pelicana-chicken-san-diego-3?adjust_creative=p8ZmzrMnEc-h1IE5NUGjPA&utm_campaign=yelp_api_v3&utm_medium=api_v3_business_search&utm_source=p8ZmzrMnEc-h1IE5NUGjPA", "review_count": 464, "categories": [{"alias": "chicken_wings", "title": "Chicken Wings"}, {"alias": "korean", "title": "Korean"}, {"alias": "beerbar", "title": "Beer Bar"}], "rating": 4.0, "coordinates": {"latitude": 32.821263, "longitude": -117.155911}, "transactions": ["delivery", "pickup"], "price": "$$", "location": {"address1": "7767 Balboa Ave", "address2": null, "address3": "", "city": "San Diego", "zip_code": "92111", "country": "US", "state": "CA", "display_address": ["7767 Balboa Ave", "San Diego, CA 92111"]}, "phone": "+18582782167", "display_phone": "(858) 278-2167", "distance": 3417.9099944823315}, {"id": "X8EmtgsqlB9QHJ7HH-FiIw", "alias": "park-social-san-diego-2", "name": "Park Social", "image_url": "https://s3-media2.fl.yelpcdn.com/bphoto/MXdLy5GMO2qDYnYQAMUdyw/o.jpg", "is_closed": false, "url": "https://www.yelp.com/biz/park-social-san-diego-2?adjust_creative=p8ZmzrMnEc-h1IE5NUGjPA&utm_campaign=yelp_api_v3&utm_medium=api_v3_business_search&utm_source=p8ZmzrMnEc-h1IE5NUGjPA", "review_count": 362, "categories": [{"alias": "bars", "title": "Bars"}, {"alias": "breakfast_brunch", "title": "Breakfast & Brunch"}, {"alias": "coffee", "title": "Coffee & Tea"}], "rating": 4.5, "coordinates": {"latitude": 32.827702962048726, "longitude": -117.14007543626931}, "transactions": ["pickup", "delivery"], "price": "$$", "location": {"address1": "8720 Ariva Ct", "address2": "Ste 10", "address3": null, "city": "San Diego", "zip_code": "92123", "country": "US", "state": "CA", "display_address": ["8720 Ariva Ct", "Ste 10", "San Diego, CA 92123"]}, "phone": "+18587374310", "display_phone": "(858) 737-4310", "distance": 4331.622396932329}, {"id": "Pk2P75bi2cjZdr6oxyg6zQ", "alias": "tabu-shabu-north-park-san-diego", "name": "Tabu Shabu - North Park", "image_url": "https://s3-media2.fl.yelpcdn.com/bphoto/Dma5wnD3LJCd3YlcXAC7dg/o.jpg", "is_closed": false, "url": "https://www.yelp.com/biz/tabu-shabu-north-park-san-diego?adjust_creative=p8ZmzrMnEc-h1IE5NUGjPA&utm_campaign=yelp_api_v3&utm_medium=api_v3_business_search&utm_source=p8ZmzrMnEc-h1IE5NUGjPA", "review_count": 463, "categories": [{"alias": "japanese", "title": "Japanese"}, {"alias": "hotpot", "title": "Hot Pot"}], "rating": 4.5, "coordinates": {"latitude": 32.7451128, "longitude": -117.1299451}, "transactions": ["pickup", "delivery"], "price": "$$", "location": {"address1": "3647 30th St", "address2": null, "address3": "", "city": "San Diego", "zip_code": "92104", "country": "US", "state": "CA", "display_address": ["3647 30th St", "San Diego, CA 92104"]}, "phone": "+16194080369", "display_phone": "(619) 408-0369", "distance": 5541.226975186487}, {"id": "9Rlax6bJCV44f_77hmcUDA", "alias": "havana-grill-san-diego-4", "name": "Havana Grill", "image_url": "https://s3-media2.fl.yelpcdn.com/bphoto/ohEJQXfTYMR_WJVhy_7dRA/o.jpg", "is_closed": false, "url": "https://www.yelp.com/biz/havana-grill-san-diego-4?adjust_creative=p8ZmzrMnEc-h1IE5NUGjPA&utm_campaign=yelp_api_v3&utm_medium=api_v3_business_search&utm_source=p8ZmzrMnEc-h1IE5NUGjPA", "review_count": 244, "categories": [{"alias": "cuban", "title": "Cuban"}], "rating": 4.5, "coordinates": {"latitude": 32.7700388865074, "longitude": -117.14673081538858}, "transactions": [], "price": "$$", "location": {"address1": "1652 Camino Del Rio N", "address2": "", "address3": null, "city": "San Diego", "zip_code": "92108", "country": "US", "state": "CA", "display_address": ["1652 Camino Del Rio N", "San Diego, CA 92108"]}, "phone": "+16199155699", "display_phone": "(619) 915-5699", "distance": 2384.1205867764725}, {"id": "xITfFMC2lHGM0EHcYwlqcA", "alias": "tacos-el-gordo-san-diego-7", "name": "Tacos el Gordo", "image_url": "https://s3-media3.fl.yelpcdn.com/bphoto/iVmQp3RVCBS4Radm8I22HQ/o.jpg", "is_closed": false, "url": "https://www.yelp.com/biz/tacos-el-gordo-san-diego-7?adjust_creative=p8ZmzrMnEc-h1IE5NUGjPA&utm_campaign=yelp_api_v3&utm_medium=api_v3_business_search&utm_source=p8ZmzrMnEc-h1IE5NUGjPA", "review_count": 418, "categories": [{"alias": "tacos", "title": "Tacos"}], "rating": 4.5, "coordinates": {"latitude": 32.71349608578705, "longitude": -117.15982380238896}, "transactions": ["pickup", "delivery"], "price": "$$", "location": {"address1": "511 F St", "address2": "", "address3": null, "city": "San Diego", "zip_code": "92101", "country": "US", "state": "CA", "display_address": ["511 F St", "San Diego, CA 92101"]}, "phone": "", "display_phone": "", "distance": 8586.948900998668}, {"id": "ruZ45_rMndqb7aLEr6VSOw", "alias": "cesarina-san-diego-3", "name": "Cesarina", "image_url": "https://s3-media1.fl.yelpcdn.com/bphoto/Yv3Z0kvnZE8zvSXaW0Mf2g/o.jpg", "is_closed": false, "url": "https://www.yelp.com/biz/cesarina-san-diego-3?adjust_creative=p8ZmzrMnEc-h1IE5NUGjPA&utm_campaign=yelp_api_v3&utm_medium=api_v3_business_search&utm_source=p8ZmzrMnEc-h1IE5NUGjPA", "review_count": 2219, "categories": [{"alias": "italian", "title": "Italian"}, {"alias": "cocktailbars", "title": "Cocktail Bars"}], "rating": 4.5, "coordinates": {"latitude": 32.74324960976518, "longitude": -117.23459219783356}, "transactions": ["delivery"], "price": "$$", "location": {"address1": "4161 Voltaire St", "address2": "Ste B", "address3": "", "city": "San Diego", "zip_code": "92107", "country": "US", "state": "CA", "display_address": ["4161 Voltaire St", "Ste B", "San Diego, CA 92107"]}, "phone": "+16192266222", "display_phone": "(619) 226-6222", "distance": 9184.328684950333}, {"id": "eGhOLzFFIhrvF6QjSSpJsg", "alias": "phils-bbq-san-diego-2", "name": "Phil's BBQ", "image_url": "https://s3-media2.fl.yelpcdn.com/bphoto/IijLAPbkYwMrvcMgNo_8vw/o.jpg", "is_closed": false, "url": "https://www.yelp.com/biz/phils-bbq-san-diego-2?adjust_creative=p8ZmzrMnEc-h1IE5NUGjPA&utm_campaign=yelp_api_v3&utm_medium=api_v3_business_search&utm_source=p8ZmzrMnEc-h1IE5NUGjPA", "review_count": 16050, "categories": [{"alias": "bbq", "title": "Barbeque"}, {"alias": "bars", "title": "Bars"}, {"alias": "tradamerican", "title": "American (Traditional)"}], "rating": 4.5, "coordinates": {"latitude": 32.7547792020658, "longitude": -117.21598848605}, "transactions": ["delivery"], "price": "$$", "location": {"address1": "3750 Sports Arena Blvd", "address2": "", "address3": "", "city": "San Diego", "zip_code": "92110", "country": "US", "state": "CA", "display_address": ["3750 Sports Arena Blvd", "San Diego, CA 92110"]}, "phone": "+16192266333", "display_phone": "(619) 226-6333", "distance": 7024.037700535082}, {"id": "K2ZjH3kVMA0JeU5Xmn-N4g", "alias": "the-lafayette-san-diego-3", "name": "The Lafayette", "image_url": "https://s3-media1.fl.yelpcdn.com/bphoto/Kbug2qrKIXC3L1V0nXtXOw/o.jpg", "is_closed": false, "url": "https://www.yelp.com/biz/the-lafayette-san-diego-3?adjust_creative=p8ZmzrMnEc-h1IE5NUGjPA&utm_campaign=yelp_api_v3&utm_medium=api_v3_business_search&utm_source=p8ZmzrMnEc-h1IE5NUGjPA", "review_count": 53, "categories": [{"alias": "diners", "title": "Diners"}], "rating": 4.0, "coordinates": {"latitude": 32.7549, "longitude": -117.14067}, "transactions": [], "location": {"address1": "2223 El Cajon Blvd", "address2": "", "address3": null, "city": "San Diego", "zip_code": "92104", "country": "US", "state": "CA", "display_address": ["2223 El Cajon Blvd", "San Diego, CA 92104"]}, "phone": "+16192962101", "display_phone": "(619) 296-2101", "distance": 4163.736673507029}, {"id": "2l9XROAwRfL4ex9hfHh6ZA", "alias": "prince-street-pizza-san-diego", "name": "Prince Street Pizza", "image_url": "https://s3-media1.fl.yelpcdn.com/bphoto/-cKZU2aVOKCZPvdlKZr53Q/o.jpg", "is_closed": false, "url": "https://www.yelp.com/biz/prince-street-pizza-san-diego?adjust_creative=p8ZmzrMnEc-h1IE5NUGjPA&utm_campaign=yelp_api_v3&utm_medium=api_v3_business_search&utm_source=p8ZmzrMnEc-h1IE5NUGjPA", "review_count": 439, "categories": [{"alias": "pizza", "title": "Pizza"}], "rating": 4.5, "coordinates": {"latitude": 32.71136289350271, "longitude": -117.1607312955522}, "transactions": [], "price": "$$", "location": {"address1": "415 Market St", "address2": "", "address3": null, "city": "San Diego", "zip_code": "92101", "country": "US", "state": "CA", "display_address": ["415 Market St", "San Diego, CA 92101"]}, "phone": "+16193321132", "display_phone": "(619) 332-1132", "distance": 8829.267444780951}, {"id": "0xCzrCPZQVVBK4zAy19Ilw", "alias": "hitokuchi-san-diego", "name": "HITOKUCHI", "image_url": "https://s3-media4.fl.yelpcdn.com/bphoto/hycbT0crJHYE98aWMQ1Cjw/o.jpg", "is_closed": false, "url": "https://www.yelp.com/biz/hitokuchi-san-diego?adjust_creative=p8ZmzrMnEc-h1IE5NUGjPA&utm_campaign=yelp_api_v3&utm_medium=api_v3_business_search&utm_source=p8ZmzrMnEc-h1IE5NUGjPA", "review_count": 57, "categories": [{"alias": "japanese", "title": "Japanese"}], "rating": 4.5, "coordinates": {"latitude": 32.828283, "longitude": -117.154022}, "transactions": [], "location": {"address1": "4764 Convoy St", "address2": "Ste B", "address3": "", "city": "San Diego", "zip_code": "92111", "country": "US", "state": "CA", "display_address": ["4764 Convoy St", "Ste B", "San Diego, CA 92111"]}, "phone": "+18583719584", "display_phone": "(858) 371-9584", "distance": 4198.3339483295795}, {"id": "10blJmGIjsgNSMmSrWsc2A", "alias": "ramen-nagi-san-diego", "name": "Ramen Nagi", "image_url": "https://s3-media2.fl.yelpcdn.com/bphoto/JxLSpaGCVGpK_hpTg8BDCQ/o.jpg", "is_closed": false, "url": "https://www.yelp.com/biz/ramen-nagi-san-diego?adjust_creative=p8ZmzrMnEc-h1IE5NUGjPA&utm_campaign=yelp_api_v3&utm_medium=api_v3_business_search&utm_source=p8ZmzrMnEc-h1IE5NUGjPA", "review_count": 177, "categories": [{"alias": "ramen", "title": "Ramen"}], "rating": 4.5, "coordinates": {"latitude": 32.87221715415399, "longitude": -117.21296193008332}, "transactions": [], "price": "$$", "location": {"address1": "4301 La Jolla Village Dr", "address2": null, "address3": "", "city": "San Diego", "zip_code": "92122", "country": "US", "state": "CA", "display_address": ["4301 La Jolla Village Dr", "San Diego, CA 92122"]}, "phone": "", "display_phone": "", "distance": 10615.481461701718}, {"id": "k2Ky5U1k0ZLYHzPDW1dMUQ", "alias": "jomaru-korean-hot-pot-san-diego", "name": "Jomaru Korean Hot Pot", "image_url": "https://s3-media3.fl.yelpcdn.com/bphoto/pun_4Lmo-v-dlKP64gXXGw/o.jpg", "is_closed": false, "url": "https://www.yelp.com/biz/jomaru-korean-hot-pot-san-diego?adjust_creative=p8ZmzrMnEc-h1IE5NUGjPA&utm_campaign=yelp_api_v3&utm_medium=api_v3_business_search&utm_source=p8ZmzrMnEc-h1IE5NUGjPA", "review_count": 179, "categories": [{"alias": "korean", "title": "Korean"}, {"alias": "hotpot", "title": "Hot Pot"}], "rating": 4.5, "coordinates": {"latitude": 32.825527, "longitude": -117.154337}, "transactions": ["delivery", "pickup"], "price": "$$", "location": {"address1": "4681 Convoy St", "address2": "Ste D", "address3": "", "city": "San Diego", "zip_code": "92111", "country": "US", "state": "CA", "display_address": ["4681 Convoy St", "Ste D", "San Diego, CA 92111"]}, "phone": "+18587374005", "display_phone": "(858) 737-4005", "distance": 3889.5761486304336}, {"id": "WGqLdKybX_X_a7xYF-xf3w", "alias": "black-plague-north-park-san-diego", "name": "Black Plague North Park", "image_url": "https://s3-media4.fl.yelpcdn.com/bphoto/Gy5njHv1BQn2hqCZW7pXcg/o.jpg", "is_closed": false, "url": "https://www.yelp.com/biz/black-plague-north-park-san-diego?adjust_creative=p8ZmzrMnEc-h1IE5NUGjPA&utm_campaign=yelp_api_v3&utm_medium=api_v3_business_search&utm_source=p8ZmzrMnEc-h1IE5NUGjPA", "review_count": 11, "categories": [{"alias": "beerbar", "title": "Beer Bar"}, {"alias": "breweries", "title": "Breweries"}], "rating": 4.5, "coordinates": {"latitude": 32.748254, "longitude": -117.131151}, "transactions": [], "location": {"address1": "2899 University Ave", "address2": null, "address3": "", "city": "San Diego", "zip_code": "92104", "country": "US", "state": "CA", "display_address": ["2899 University Ave", "San Diego, CA 92104"]}, "phone": "+16192289074", "display_phone": "(619) 228-9074", "distance": 5168.431889542925}, {"id": "ErmLdyd8jz3MHewpRUoKdA", "alias": "ichifuji-san-diego-2", "name": "Ichifuji", "image_url": "https://s3-media3.fl.yelpcdn.com/bphoto/RNPj8MSCyKEPOHiaXuNPbg/o.jpg", "is_closed": false, "url": "https://www.yelp.com/biz/ichifuji-san-diego-2?adjust_creative=p8ZmzrMnEc-h1IE5NUGjPA&utm_campaign=yelp_api_v3&utm_medium=api_v3_business_search&utm_source=p8ZmzrMnEc-h1IE5NUGjPA", "review_count": 63, "categories": [{"alias": "sushi", "title": "Sushi Bars"}, {"alias": "japanese", "title": "Japanese"}], "rating": 5.0, "coordinates": {"latitude": 32.80131013727127, "longitude": -117.15881938588224}, "transactions": [], "price": "$$$$", "location": {"address1": "7530 Mesa College Dr", "address2": "Ste B", "address3": null, "city": "San Diego", "zip_code": "92111", "country": "US", "state": "CA", "display_address": ["7530 Mesa College Dr", "Ste B", "San Diego, CA 92111"]}, "phone": "", "display_phone": "", "distance": 1273.720089359903}, {"id": "S5YI3vYuia0u44UhXnL35w", "alias": "la-pastaia-san-diego-2", "name": "La Pastaia", "image_url": "https://s3-media2.fl.yelpcdn.com/bphoto/-UTxu1iNhSqxZ6hqXRBa1g/o.jpg", "is_closed": false, "url": "https://www.yelp.com/biz/la-pastaia-san-diego-2?adjust_creative=p8ZmzrMnEc-h1IE5NUGjPA&utm_campaign=yelp_api_v3&utm_medium=api_v3_business_search&utm_source=p8ZmzrMnEc-h1IE5NUGjPA", "review_count": 163, "categories": [{"alias": "italian", "title": "Italian"}, {"alias": "breakfast_brunch", "title": "Breakfast & Brunch"}, {"alias": "pastashops", "title": "Pasta Shops"}], "rating": 4.0, "coordinates": {"latitude": 32.795, "longitude": -117.19218}, "transactions": [], "location": {"address1": "3055 Clairemont Dr", "address2": null, "address3": "", "city": "San Diego", "zip_code": "92117", "country": "US", "state": "CA", "display_address": ["3055 Clairemont Dr", "San Diego, CA 92117"]}, "phone": "+16192720157", "display_phone": "(619) 272-0157", "distance": 3696.4935074916934}, {"id": "8rhPTmKSFtKHQFJCcwJcgw", "alias": "sue-s-korean-kitchen-san-diego", "name": "Sue\u2019s Korean Kitchen", "image_url": "https://s3-media4.fl.yelpcdn.com/bphoto/kiRzrZaMa0Otj5LPdmr0zQ/o.jpg", "is_closed": false, "url": "https://www.yelp.com/biz/sue-s-korean-kitchen-san-diego?adjust_creative=p8ZmzrMnEc-h1IE5NUGjPA&utm_campaign=yelp_api_v3&utm_medium=api_v3_business_search&utm_source=p8ZmzrMnEc-h1IE5NUGjPA", "review_count": 273, "categories": [{"alias": "korean", "title": "Korean"}], "rating": 5.0, "coordinates": {"latitude": 32.906204962596696, "longitude": -117.17374027302895}, "transactions": [], "price": "$$", "location": {"address1": "6755 Mira Mesa Blvd", "address2": "Ste 109", "address3": null, "city": "San Diego", "zip_code": "92121", "country": "US", "state": "CA", "display_address": ["6755 Mira Mesa Blvd", "Ste 109", "San Diego, CA 92121"]}, "phone": "+18583526511", "display_phone": "(858) 352-6511", "distance": 12988.53251588898}, {"id": "gADjT0GBotVBNRWgHyebdg", "alias": "tasty-noodle-house-san-diego", "name": "Tasty Noodle House", "image_url": "https://s3-media2.fl.yelpcdn.com/bphoto/SDPbIVJ8N0WSx6eqmUa25w/o.jpg", "is_closed": false, "url": "https://www.yelp.com/biz/tasty-noodle-house-san-diego?adjust_creative=p8ZmzrMnEc-h1IE5NUGjPA&utm_campaign=yelp_api_v3&utm_medium=api_v3_business_search&utm_source=p8ZmzrMnEc-h1IE5NUGjPA", "review_count": 1460, "categories": [{"alias": "chinese", "title": "Chinese"}, {"alias": "noodles", "title": "Noodles"}, {"alias": "soup", "title": "Soup"}], "rating": 4.0, "coordinates": {"latitude": 32.8249206542969, "longitude": -117.155700683594}, "transactions": ["pickup", "delivery"], "price": "$$", "location": {"address1": "4646 Convoy St", "address2": "Ste 110", "address3": "", "city": "San Diego", "zip_code": "92111", "country": "US", "state": "CA", "display_address": ["4646 Convoy St", "Ste 110", "San Diego, CA 92111"]}, "phone": "+18584306876", "display_phone": "(858) 430-6876", "distance": 3816.5306971354303}, {"id": "dBtZR2CB8PVxndyF6K2wAQ", "alias": "the-taco-stand-la-jolla", "name": "The Taco Stand", "image_url": "https://s3-media4.fl.yelpcdn.com/bphoto/1ABrOLBr_clK7gOPQDHzig/o.jpg", "is_closed": false, "url": "https://www.yelp.com/biz/the-taco-stand-la-jolla?adjust_creative=p8ZmzrMnEc-h1IE5NUGjPA&utm_campaign=yelp_api_v3&utm_medium=api_v3_business_search&utm_source=p8ZmzrMnEc-h1IE5NUGjPA", "review_count": 4680, "categories": [{"alias": "foodstands", "title": "Food Stands"}, {"alias": "mexican", "title": "Mexican"}], "rating": 4.5, "coordinates": {"latitude": 32.8393664861151, "longitude": -117.276808878945}, "transactions": ["pickup", "delivery"], "price": "$", "location": {"address1": "621 Pearl St", "address2": null, "address3": "", "city": "La Jolla", "zip_code": "92037", "country": "US", "state": "CA", "display_address": ["621 Pearl St", "La Jolla, CA 92037"]}, "phone": "+18585516666", "display_phone": "(858) 551-6666", "distance": 12687.596125558744}, {"id": "SFfJpu8z_n0z2EQHFSwnCw", "alias": "facing-east-noodle-and-bar-san-diego-2", "name": "Facing East Noodle & Bar", "image_url": "https://s3-media1.fl.yelpcdn.com/bphoto/g8BcAER8tqw-64LK3caTeQ/o.jpg", "is_closed": false, "url": "https://www.yelp.com/biz/facing-east-noodle-and-bar-san-diego-2?adjust_creative=p8ZmzrMnEc-h1IE5NUGjPA&utm_campaign=yelp_api_v3&utm_medium=api_v3_business_search&utm_source=p8ZmzrMnEc-h1IE5NUGjPA", "review_count": 1446, "categories": [{"alias": "asianfusion", "title": "Asian Fusion"}, {"alias": "noodles", "title": "Noodles"}, {"alias": "ramen", "title": "Ramen"}], "rating": 4.0, "coordinates": {"latitude": 32.82506, "longitude": -117.15453}, "transactions": ["delivery", "pickup"], "price": "$$", "location": {"address1": "4647 Convoy St", "address2": "Ste 101C", "address3": "", "city": "San Diego", "zip_code": "92111", "country": "US", "state": "CA", "display_address": ["4647 Convoy St", "Ste 101C", "San Diego, CA 92111"]}, "phone": "+18587893887", "display_phone": "(858) 789-3887", "distance": 3873.6062485496327}, {"id": "_T88LJN8whEPe6uovSsb0g", "alias": "yakyudori-san-diego", "name": "Yakyudori", "image_url": "https://s3-media3.fl.yelpcdn.com/bphoto/1Ru83dIPBsE5vqlpnfMxzw/o.jpg", "is_closed": false, "url": "https://www.yelp.com/biz/yakyudori-san-diego?adjust_creative=p8ZmzrMnEc-h1IE5NUGjPA&utm_campaign=yelp_api_v3&utm_medium=api_v3_business_search&utm_source=p8ZmzrMnEc-h1IE5NUGjPA", "review_count": 2129, "categories": [{"alias": "ramen", "title": "Ramen"}], "rating": 4.0, "coordinates": {"latitude": 32.8305462783919, "longitude": -117.153696253781}, "transactions": ["pickup", "delivery"], "price": "$$", "location": {"address1": "4898 Convoy St", "address2": "Ste 101", "address3": "", "city": "San Diego", "zip_code": "92111", "country": "US", "state": "CA", "display_address": ["4898 Convoy St", "Ste 101", "San Diego, CA 92111"]}, "phone": "+18582682888", "display_phone": "(858) 268-2888", "distance": 4445.368866139292}, {"id": "a3yfBL2Nlm6Z6-1Yzl4ncw", "alias": "din-tai-fung-san-diego-3", "name": "Din Tai Fung", "image_url": "https://s3-media1.fl.yelpcdn.com/bphoto/Eky554WAxGSgpVhFVM2T1w/o.jpg", "is_closed": false, "url": "https://www.yelp.com/biz/din-tai-fung-san-diego-3?adjust_creative=p8ZmzrMnEc-h1IE5NUGjPA&utm_campaign=yelp_api_v3&utm_medium=api_v3_business_search&utm_source=p8ZmzrMnEc-h1IE5NUGjPA", "review_count": 4668, "categories": [{"alias": "taiwanese", "title": "Taiwanese"}, {"alias": "dimsum", "title": "Dim Sum"}, {"alias": "noodles", "title": "Noodles"}], "rating": 4.5, "coordinates": {"latitude": 32.8723812680163, "longitude": -117.21242234341588}, "transactions": ["delivery", "pickup"], "price": "$$$", "location": {"address1": "4301 La Jolla Village Dr", "address2": "Ste 2000", "address3": null, "city": "San Diego", "zip_code": "92122", "country": "US", "state": "CA", "display_address": ["4301 La Jolla Village Dr", "Ste 2000", "San Diego, CA 92122"]}, "phone": "+18583755988", "display_phone": "(858) 375-5988", "distance": 10605.089397176976}, {"id": "xaBeSPORuFEfUJy65OCweA", "alias": "the-pad-thai-stand-san-diego-2", "name": "The Pad Thai Stand", "image_url": "https://s3-media1.fl.yelpcdn.com/bphoto/TGdRioiA5fPUHcrRnuL2MA/o.jpg", "is_closed": false, "url": "https://www.yelp.com/biz/the-pad-thai-stand-san-diego-2?adjust_creative=p8ZmzrMnEc-h1IE5NUGjPA&utm_campaign=yelp_api_v3&utm_medium=api_v3_business_search&utm_source=p8ZmzrMnEc-h1IE5NUGjPA", "review_count": 309, "categories": [{"alias": "thai", "title": "Thai"}], "rating": 4.5, "coordinates": {"latitude": 32.8082677, "longitude": -117.1602521}, "transactions": ["pickup", "delivery"], "price": "$$", "location": {"address1": "3520 Ashford St", "address2": "Ste A-1", "address3": null, "city": "San Diego", "zip_code": "92111", "country": "US", "state": "CA", "display_address": ["3520 Ashford St", "Ste A-1", "San Diego, CA 92111"]}, "phone": "+18582767334", "display_phone": "(858) 276-7334", "distance": 2050.686597821617}, {"id": "RJf5H-eQn37jM6KzXBjBXw", "alias": "homestyle-hawaiian-pub-and-eatery-san-diego", "name": "Homestyle Hawaiian Pub & Eatery", "image_url": "https://s3-media2.fl.yelpcdn.com/bphoto/QfUzk-XFPVxHe-fqlnZh6Q/o.jpg", "is_closed": false, "url": "https://www.yelp.com/biz/homestyle-hawaiian-pub-and-eatery-san-diego?adjust_creative=p8ZmzrMnEc-h1IE5NUGjPA&utm_campaign=yelp_api_v3&utm_medium=api_v3_business_search&utm_source=p8ZmzrMnEc-h1IE5NUGjPA", "review_count": 683, "categories": [{"alias": "hawaiian", "title": "Hawaiian"}], "rating": 4.0, "coordinates": {"latitude": 32.822301345177, "longitude": -117.101922220238}, "transactions": ["pickup"], "price": "$$", "location": {"address1": "10601 Tierrasanta Blvd", "address2": "", "address3": "", "city": "San Diego", "zip_code": "92124", "country": "US", "state": "CA", "display_address": ["10601 Tierrasanta Blvd", "San Diego, CA 92124"]}, "phone": "+18588361970", "display_phone": "(858) 836-1970", "distance": 6017.895815072631}, {"id": "duh3OAGmBdL2u2Np9SBtEQ", "alias": "so-saap-san-diego-2", "name": "So Saap", "image_url": "https://s3-media1.fl.yelpcdn.com/bphoto/f8D_nvKugjMiODIVvgP3rQ/o.jpg", "is_closed": false, "url": "https://www.yelp.com/biz/so-saap-san-diego-2?adjust_creative=p8ZmzrMnEc-h1IE5NUGjPA&utm_campaign=yelp_api_v3&utm_medium=api_v3_business_search&utm_source=p8ZmzrMnEc-h1IE5NUGjPA", "review_count": 274, "categories": [{"alias": "thai", "title": "Thai"}, {"alias": "laotian", "title": "Laotian"}, {"alias": "vegan", "title": "Vegan"}], "rating": 4.5, "coordinates": {"latitude": 32.75041, "longitude": -117.10604}, "transactions": ["pickup", "delivery"], "price": "$$", "location": {"address1": "4134 University Ave", "address2": null, "address3": "", "city": "San Diego", "zip_code": "92105", "country": "US", "state": "CA", "display_address": ["4134 University Ave", "San Diego, CA 92105"]}, "phone": "+16195397635", "display_phone": "(619) 539-7635", "distance": 6326.160761736485}, {"id": "S1Ir-iP996tW4BBAv1Cahg", "alias": "malibu-farm-san-diego-san-diego", "name": "Malibu Farm San Diego", "image_url": "https://s3-media3.fl.yelpcdn.com/bphoto/VfFyxYeitfvyyvPjQLoYuw/o.jpg", "is_closed": false, "url": "https://www.yelp.com/biz/malibu-farm-san-diego-san-diego?adjust_creative=p8ZmzrMnEc-h1IE5NUGjPA&utm_campaign=yelp_api_v3&utm_medium=api_v3_business_search&utm_source=p8ZmzrMnEc-h1IE5NUGjPA", "review_count": 29, "categories": [{"alias": "breakfast_brunch", "title": "Breakfast & Brunch"}, {"alias": "desserts", "title": "Desserts"}, {"alias": "icecream", "title": "Ice Cream & Frozen Yogurt"}], "rating": 5.0, "coordinates": {"latitude": 32.70854252237632, "longitude": -117.1697179}, "transactions": [], "location": {"address1": "831 West Harbor Dr", "address2": null, "address3": "", "city": "San Diego", "zip_code": "92101", "country": "US", "state": "CA", "display_address": ["831 West Harbor Dr", "San Diego, CA 92101"]}, "phone": "+16196952300", "display_phone": "(619) 695-2300", "distance": 9237.414033590514}, {"id": "a2t8rtUvJV0Q6QIoBniBww", "alias": "quixote-san-diego", "name": "Quixote", "image_url": "https://s3-media2.fl.yelpcdn.com/bphoto/K0NHTvF4GkBAhYieY7gn7A/o.jpg", "is_closed": false, "url": "https://www.yelp.com/biz/quixote-san-diego?adjust_creative=p8ZmzrMnEc-h1IE5NUGjPA&utm_campaign=yelp_api_v3&utm_medium=api_v3_business_search&utm_source=p8ZmzrMnEc-h1IE5NUGjPA", "review_count": 102, "categories": [{"alias": "mexican", "title": "Mexican"}], "rating": 4.0, "coordinates": {"latitude": 32.75498206103602, "longitude": -117.1407246868541}, "transactions": [], "price": "$$$", "location": {"address1": "2223 El Cajon Blvd", "address2": "", "address3": null, "city": "San Diego", "zip_code": "92104", "country": "US", "state": "CA", "display_address": ["2223 El Cajon Blvd", "San Diego, CA 92104"]}, "phone": "", "display_phone": "", "distance": 4149.5490596762165}, {"id": "m5u1o8k0DDSEeo--pYd6rA", "alias": "elote-san-diego-5", "name": "Elote", "image_url": "https://s3-media2.fl.yelpcdn.com/bphoto/h2z3e2eUAOAhxS0R2IVmAA/o.jpg", "is_closed": false, "url": "https://www.yelp.com/biz/elote-san-diego-5?adjust_creative=p8ZmzrMnEc-h1IE5NUGjPA&utm_campaign=yelp_api_v3&utm_medium=api_v3_business_search&utm_source=p8ZmzrMnEc-h1IE5NUGjPA", "review_count": 71, "categories": [{"alias": "mexican", "title": "Mexican"}, {"alias": "vegetarian", "title": "Vegetarian"}], "rating": 4.5, "coordinates": {"latitude": 32.75263, "longitude": -117.19624}, "transactions": [], "price": "$", "location": {"address1": "2548 Congress St", "address2": null, "address3": "Old Town Urban Market", "city": "San Diego", "zip_code": "92110", "country": "US", "state": "CA", "display_address": ["2548 Congress St", "Old Town Urban Market", "San Diego, CA 92110"]}, "phone": "+13236013864", "display_phone": "(323) 601-3864", "distance": 5777.661568046509}, {"id": "oSvkT9bYOtJbagmkbTK4xA", "alias": "boujiemana-san-diego-3", "name": "BoujieMana", "image_url": "https://s3-media1.fl.yelpcdn.com/bphoto/oqABk1_7wSYjMrgquNOwpw/o.jpg", "is_closed": false, "url": "https://www.yelp.com/biz/boujiemana-san-diego-3?adjust_creative=p8ZmzrMnEc-h1IE5NUGjPA&utm_campaign=yelp_api_v3&utm_medium=api_v3_business_search&utm_source=p8ZmzrMnEc-h1IE5NUGjPA", "review_count": 10, "categories": [{"alias": "mediterranean", "title": "Mediterranean"}, {"alias": "salad", "title": "Salad"}, {"alias": "pizza", "title": "Pizza"}], "rating": 5.0, "coordinates": {"latitude": 32.806796, "longitude": -117.147737}, "transactions": [], "location": {"address1": "3545 Aero Ct", "address2": "Ste B", "address3": "", "city": "San Diego", "zip_code": "92123", "country": "US", "state": "CA", "display_address": ["3545 Aero Ct", "Ste B", "San Diego, CA 92123"]}, "phone": "+17608268543", "display_phone": "(760) 826-8543", "distance": 1912.7975160414765}, {"id": "Pkhyy36aOBzVSL0dewi2ug", "alias": "thang-thang-san-diego", "name": "Thang Thang", "image_url": "https://s3-media3.fl.yelpcdn.com/bphoto/uWry4DpYlUHaNGIx66gPig/o.jpg", "is_closed": false, "url": "https://www.yelp.com/biz/thang-thang-san-diego?adjust_creative=p8ZmzrMnEc-h1IE5NUGjPA&utm_campaign=yelp_api_v3&utm_medium=api_v3_business_search&utm_source=p8ZmzrMnEc-h1IE5NUGjPA", "review_count": 504, "categories": [{"alias": "korean", "title": "Korean"}], "rating": 4.0, "coordinates": {"latitude": 32.8259, "longitude": -117.15274}, "transactions": ["delivery"], "price": "$$", "location": {"address1": "7905 Engineer Rd", "address2": "", "address3": "", "city": "San Diego", "zip_code": "92111", "country": "US", "state": "CA", "display_address": ["7905 Engineer Rd", "San Diego, CA 92111"]}, "phone": "+18585691582", "display_phone": "(858) 569-1582", "distance": 3922.760809145519}], "total": 13500, "region": {"center": {"longitude": -117.15408325195312, "latitude": 32.790569394537286}}}