{"businesses": [{"id": "dQFgUq-bSGmfiSYtMo7mnQ", "alias": "hampton-inn-brooklyn-downtown-brooklyn-2", "name": "Hampton Inn Brooklyn/Downtown", "image_url": "https://s3-media4.fl.yelpcdn.com/bphoto/PV3oF1gTfsAkKcw7jrSrvQ/o.jpg", "is_closed": false, "url": "https://www.yelp.com/biz/hampton-inn-brooklyn-downtown-brooklyn-2?adjust_creative=y8ZvM3kGg52X--syYYcgfg&utm_campaign=yelp_api_v3&utm_medium=api_v3_business_search&utm_source=y8ZvM3kGg52X--syYYcgfg", "review_count": 140, "categories": [{"alias": "hotels", "title": "Hotels"}], "rating": 4.0, "coordinates": {"latitude": 40.6957059, "longitude": -73.9840267}, "transactions": [], "price": "$$", "location": {"address1": "125 Flatbush Ave Ext", "address2": "", "address3": "", "city": "Brooklyn", "zip_code": "11201", "country": "US", "state": "NY", "display_address": ["125 Flatbush Ave Ext", "Brooklyn, NY 11201"]}, "phone": "+17188758800", "display_phone": "(718) 875-8800", "distance": 1386.272501456994}, {"id": "6H427bZqS7bqAR-tU8GKDw", "alias": "1-hotel-brooklyn-bridge-brooklyn", "name": "1 Hotel Brooklyn Bridge", "image_url": "https://s3-media2.fl.yelpcdn.com/bphoto/6nf2kTxt_kweP9bU3Z4g6Q/o.jpg", "is_closed": false, "url": "https://www.yelp.com/biz/1-hotel-brooklyn-bridge-brooklyn?adjust_creative=y8ZvM3kGg52X--syYYcgfg&utm_campaign=yelp_api_v3&utm_medium=api_v3_business_search&utm_source=y8ZvM3kGg52X--syYYcgfg", "review_count": 323, "categories": [{"alias": "hotels", "title": "Hotels"}, {"alias": "venues", "title": "Venues & Event Spaces"}], "rating": 3.5, "coordinates": {"latitude": 40.70240674625475, "longitude": -73.99553367610274}, "transactions": [], "price": "$$$", "location": {"address1": "60 Furman St", "address2": null, "address3": "", "city": "Brooklyn", "zip_code": "11201", "country": "US", "state": "NY", "display_address": ["60 Furman St", "Brooklyn, NY 11201"]}, "phone": "+18778031111", "display_phone": "(877) 803-1111", "distance": 353.63585689954095}, {"id": "cUXl19vPkfd9vdqc0OT7_g", "alias": "the-ludlow-new-york-city-new-york", "name": "The Ludlow New York City", "image_url": "https://s3-media3.fl.yelpcdn.com/bphoto/WZ2hDqKCTBlgDXtQIi4xXQ/o.jpg", "is_closed": false, "url": "https://www.yelp.com/biz/the-ludlow-new-york-city-new-york?adjust_creative=y8ZvM3kGg52X--syYYcgfg&utm_campaign=yelp_api_v3&utm_medium=api_v3_business_search&utm_source=y8ZvM3kGg52X--syYYcgfg", "review_count": 165, "categories": [{"alias": "hotels", "title": "Hotels"}], "rating": 4.0, "coordinates": {"latitude": 40.72186338359647, "longitude": -73.98724148650686}, "transactions": [], "price": "$$$", "location": {"address1": "180 Ludlow St", "address2": "", "address3": "", "city": "New York", "zip_code": "10002", "country": "US", "state": "NY", "display_address": ["180 Ludlow St", "New York, NY 10002"]}, "phone": "+12124321818", "display_phone": "(212) 432-1818", "distance": 1919.9625028359085}, {"id": "GYO8lvStXGZAfFDRlOxQ1Q", "alias": "hotel-50-bowery-new-york-2", "name": "Hotel 50 Bowery", "image_url": "https://s3-media1.fl.yelpcdn.com/bphoto/wH43Y1TJowMloJ6YVzPWtg/o.jpg", "is_closed": false, "url": "https://www.yelp.com/biz/hotel-50-bowery-new-york-2?adjust_creative=y8ZvM3kGg52X--syYYcgfg&utm_campaign=yelp_api_v3&utm_medium=api_v3_business_search&utm_source=y8ZvM3kGg52X--syYYcgfg", "review_count": 245, "categories": [{"alias": "hotels", "title": "Hotels"}, {"alias": "venues", "title": "Venues & Event Spaces"}], "rating": 4.5, "coordinates": {"latitude": 40.71611960063392, "longitude": -73.99674122883555}, "transactions": [], "price": "$$", "location": {"address1": "50 Bowery", "address2": null, "address3": "", "city": "New York", "zip_code": "10013", "country": "US", "state": "NY", "display_address": ["50 Bowery", "New York, NY 10013"]}, "phone": "+12125088000", "display_phone": "(212) 508-8000", "distance": 1204.7757327840427}, {"id": "EL5j67uhlTWSFcrsEX9l_Q", "alias": "the-frederick-hotel-new-york", "name": "The Frederick Hotel", "image_url": "https://s3-media3.fl.yelpcdn.com/bphoto/b2VsOgtmkSZvOllPNfAnwg/o.jpg", "is_closed": false, "url": "https://www.yelp.com/biz/the-frederick-hotel-new-york?adjust_creative=y8ZvM3kGg52X--syYYcgfg&utm_campaign=yelp_api_v3&utm_medium=api_v3_business_search&utm_source=y8ZvM3kGg52X--syYYcgfg", "review_count": 74, "categories": [{"alias": "hotels", "title": "Hotels"}], "rating": 4.0, "coordinates": {"latitude": 40.71566, "longitude": -74.0089}, "transactions": [], "price": "$", "location": {"address1": "95 W Broadway", "address2": "", "address3": null, "city": "New York", "zip_code": "10007", "country": "US", "state": "NY", "display_address": ["95 W Broadway", "New York, NY 10007"]}, "phone": "+12125661900", "display_phone": "(212) 566-1900", "distance": 1675.5163086339792}, {"id": "0xp3lHJWVIH-dSxg-uMCUg", "alias": "crosby-street-hotel-new-york", "name": "Crosby Street Hotel", "image_url": "https://s3-media3.fl.yelpcdn.com/bphoto/dF1UQ75yKcKoGG55yyeK5w/o.jpg", "is_closed": false, "url": "https://www.yelp.com/biz/crosby-street-hotel-new-york?adjust_creative=y8ZvM3kGg52X--syYYcgfg&utm_campaign=yelp_api_v3&utm_medium=api_v3_business_search&utm_source=y8ZvM3kGg52X--syYYcgfg", "review_count": 162, "categories": [{"alias": "hotels", "title": "Hotels"}], "rating": 4.0, "coordinates": {"latitude": 40.72302838, "longitude": -73.99744294}, "transactions": [], "price": "$$$", "location": {"address1": "79 Crosby St", "address2": "", "address3": "", "city": "New York", "zip_code": "10012", "country": "US", "state": "NY", "display_address": ["79 Crosby St", "New York, NY 10012"]}, "phone": "+12122266400", "display_phone": "(212) 226-6400", "distance": 1973.1351815887697}, {"id": "3wPJT190GyZNB-Nor2Gwmw", "alias": "ace-hotel-brooklyn-brooklyn", "name": "Ace Hotel - Brooklyn", "image_url": "https://s3-media2.fl.yelpcdn.com/bphoto/lhICv_m6cjODHGoG7PlOuA/o.jpg", "is_closed": false, "url": "https://www.yelp.com/biz/ace-hotel-brooklyn-brooklyn?adjust_creative=y8ZvM3kGg52X--syYYcgfg&utm_campaign=yelp_api_v3&utm_medium=api_v3_business_search&utm_source=y8ZvM3kGg52X--syYYcgfg", "review_count": 24, "categories": [{"alias": "hotels", "title": "Hotels"}, {"alias": "venues", "title": "Venues & Event Spaces"}], "rating": 4.5, "coordinates": {"latitude": 40.68791521927802, "longitude": -73.98367856924632}, "transactions": [], "location": {"address1": "252 Schermerhorn St", "address2": "", "address3": null, "city": "Brooklyn", "zip_code": "11217", "country": "US", "state": "NY", "display_address": ["252 Schermerhorn St", "Brooklyn, NY 11217"]}, "phone": "+17183133636", "display_phone": "(718) 313-3636", "distance": 2144.804408232729}, {"id": "WQZCwbYZ5XLnmENzOv2xCQ", "alias": "the-inn-at-irving-place-new-york", "name": "The Inn At Irving Place", "image_url": "https://s3-media4.fl.yelpcdn.com/bphoto/d-KlsPZGAdoJzlXHw45--g/o.jpg", "is_closed": false, "url": "https://www.yelp.com/biz/the-inn-at-irving-place-new-york?adjust_creative=y8ZvM3kGg52X--syYYcgfg&utm_campaign=yelp_api_v3&utm_medium=api_v3_business_search&utm_source=y8ZvM3kGg52X--syYYcgfg", "review_count": 19, "categories": [{"alias": "hotels", "title": "Hotels"}, {"alias": "venues", "title": "Venues & Event Spaces"}], "rating": 4.5, "coordinates": {"latitude": 40.735958, "longitude": -73.986961}, "transactions": [], "price": "$$", "location": {"address1": "56 Irving Pl", "address2": "", "address3": "", "city": "New York", "zip_code": "10003", "country": "US", "state": "NY", "display_address": ["56 Irving Pl", "New York, NY 10003"]}, "phone": "+12125334600", "display_phone": "(212) 533-4600", "distance": 3444.0768258597886}, {"id": "4J0EXzWaF-N5B-kltP0pMg", "alias": "walker-hotel-greenwich-village-new-york-2", "name": "Walker Hotel Greenwich Village", "image_url": "https://s3-media2.fl.yelpcdn.com/bphoto/SpIFI2ykJW_p1CtFsktusg/o.jpg", "is_closed": false, "url": "https://www.yelp.com/biz/walker-hotel-greenwich-village-new-york-2?adjust_creative=y8ZvM3kGg52X--syYYcgfg&utm_campaign=yelp_api_v3&utm_medium=api_v3_business_search&utm_source=y8ZvM3kGg52X--syYYcgfg", "review_count": 146, "categories": [{"alias": "hotels", "title": "Hotels"}], "rating": 4.0, "coordinates": {"latitude": 40.73618, "longitude": -73.9966}, "transactions": [], "price": "$$", "location": {"address1": "52 W 13th St", "address2": "", "address3": "", "city": "New York", "zip_code": "10011", "country": "US", "state": "NY", "display_address": ["52 W 13th St", "New York, NY 10011"]}, "phone": "+12123751300", "display_phone": "(212) 375-1300", "distance": 3423.1119972449787}, {"id": "_3zTT9xeMFwvkqtMPJeLPg", "alias": "courtyard-new-york-manhattan-soho-new-york", "name": "Courtyard by Marriott New York Manhattan/SoHo", "image_url": "https://s3-media1.fl.yelpcdn.com/bphoto/hgGfMBiqLvWuCyHMiqynkg/o.jpg", "is_closed": false, "url": "https://www.yelp.com/biz/courtyard-new-york-manhattan-soho-new-york?adjust_creative=y8ZvM3kGg52X--syYYcgfg&utm_campaign=yelp_api_v3&utm_medium=api_v3_business_search&utm_source=y8ZvM3kGg52X--syYYcgfg", "review_count": 95, "categories": [{"alias": "hotels", "title": "Hotels"}, {"alias": "venues", "title": "Venues & Event Spaces"}], "rating": 4.0, "coordinates": {"latitude": 40.7275586084056, "longitude": -74.0057217632294}, "transactions": [], "price": "$$", "location": {"address1": "181 Varick St", "address2": "", "address3": "", "city": "New York", "zip_code": "10014", "country": "US", "state": "NY", "display_address": ["181 Varick St", "New York, NY 10014"]}, "phone": "+12124148282", "display_phone": "(212) 414-8282", "distance": 2640.8517448412313}, {"id": "jVAAy1KrvskicNnLcn8ylw", "alias": "nobleden-new-york", "name": "NobleDEN", "image_url": "https://s3-media1.fl.yelpcdn.com/bphoto/itI1r5CTf_xKE_Nq1vELkQ/o.jpg", "is_closed": false, "url": "https://www.yelp.com/biz/nobleden-new-york?adjust_creative=y8ZvM3kGg52X--syYYcgfg&utm_campaign=yelp_api_v3&utm_medium=api_v3_business_search&utm_source=y8ZvM3kGg52X--syYYcgfg", "review_count": 122, "categories": [{"alias": "hotels", "title": "Hotels"}], "rating": 4.5, "coordinates": {"latitude": 40.71929, "longitude": -73.99686}, "transactions": [], "price": "$$", "location": {"address1": "196 Grand St", "address2": null, "address3": "", "city": "New York", "zip_code": "10013", "country": "US", "state": "NY", "display_address": ["196 Grand St", "New York, NY 10013"]}, "phone": "+12123908988", "display_phone": "(212) 390-8988", "distance": 1559.7020419479775}, {"id": "vEGyBSEqvWrU_uz0yuRydQ", "alias": "the-mercer-hotel-new-york", "name": "The Mercer Hotel", "image_url": "https://s3-media1.fl.yelpcdn.com/bphoto/hvVA0In9_yr9alTFksRA6w/o.jpg", "is_closed": false, "url": "https://www.yelp.com/biz/the-mercer-hotel-new-york?adjust_creative=y8ZvM3kGg52X--syYYcgfg&utm_campaign=yelp_api_v3&utm_medium=api_v3_business_search&utm_source=y8ZvM3kGg52X--syYYcgfg", "review_count": 69, "categories": [{"alias": "hotels", "title": "Hotels"}], "rating": 4.0, "coordinates": {"latitude": 40.7245521, "longitude": -73.9988299}, "transactions": [], "price": "$$$$", "location": {"address1": "147 Mercer St", "address2": "", "address3": "", "city": "New York", "zip_code": "10012", "country": "US", "state": "NY", "display_address": ["147 Mercer St", "New York, NY 10012"]}, "phone": "+12129666060", "display_phone": "(212) 966-6060", "distance": 2202.3376816841464}, {"id": "SoSQhqqOaS10aUuxDr1YtA", "alias": "citizenm-new-york-times-square-hotel-new-york", "name": "citizenM New York Times Square Hotel", "image_url": "https://s3-media1.fl.yelpcdn.com/bphoto/EgR49nnvKbIMY3RU3VgV0Q/o.jpg", "is_closed": false, "url": "https://www.yelp.com/biz/citizenm-new-york-times-square-hotel-new-york?adjust_creative=y8ZvM3kGg52X--syYYcgfg&utm_campaign=yelp_api_v3&utm_medium=api_v3_business_search&utm_source=y8ZvM3kGg52X--syYYcgfg", "review_count": 252, "categories": [{"alias": "hotels", "title": "Hotels"}], "rating": 4.0, "coordinates": {"latitude": 40.76157679275397, "longitude": -73.98495063720071}, "transactions": [], "price": "$$", "location": {"address1": "218 W 50th St", "address2": "", "address3": "", "city": "New York", "zip_code": "10019", "country": "US", "state": "NY", "display_address": ["218 W 50th St", "New York, NY 10019"]}, "phone": "+12124613638", "display_phone": "(212) 461-3638", "distance": 6291.023000789978}, {"id": "LSO3Ql7e_Y9nFJmnWdbTPg", "alias": "the-broome-nyc-new-york", "name": "The Broome Hotel New York", "image_url": "https://s3-media3.fl.yelpcdn.com/bphoto/KHiFPd7uUOQZUeBAi-4pkQ/o.jpg", "is_closed": false, "url": "https://www.yelp.com/biz/the-broome-nyc-new-york?adjust_creative=y8ZvM3kGg52X--syYYcgfg&utm_campaign=yelp_api_v3&utm_medium=api_v3_business_search&utm_source=y8ZvM3kGg52X--syYYcgfg", "review_count": 24, "categories": [{"alias": "hotels", "title": "Hotels"}], "rating": 4.5, "coordinates": {"latitude": 40.721297, "longitude": -73.9993957}, "transactions": [], "price": "$$$", "location": {"address1": "431 Broome St", "address2": "", "address3": "", "city": "New York", "zip_code": "10013", "country": "US", "state": "NY", "display_address": ["431 Broome St", "New York, NY 10013"]}, "phone": "+12124312929", "display_phone": "(212) 431-2929", "distance": 1814.3792224584138}, {"id": "V9wA_1IcHvhpLfuBEpBTeQ", "alias": "st-marks-hotel-new-york-3", "name": "St Marks Hotel", "image_url": "https://s3-media2.fl.yelpcdn.com/bphoto/XeAI2E2FrO77eS-n8N4Ssw/o.jpg", "is_closed": false, "url": "https://www.yelp.com/biz/st-marks-hotel-new-york-3?adjust_creative=y8ZvM3kGg52X--syYYcgfg&utm_campaign=yelp_api_v3&utm_medium=api_v3_business_search&utm_source=y8ZvM3kGg52X--syYYcgfg", "review_count": 89, "categories": [{"alias": "hotels", "title": "Hotels"}], "rating": 3.0, "coordinates": {"latitude": 40.7294565439224, "longitude": -73.9897911250591}, "transactions": [], "price": "$", "location": {"address1": "2 Saint Marks Pl", "address2": "", "address3": null, "city": "New York", "zip_code": "10003", "country": "US", "state": "NY", "display_address": ["2 Saint Marks Pl", "New York, NY 10003"]}, "phone": "+12126740100", "display_phone": "(212) 674-0100", "distance": 2684.2675108961803}, {"id": "jq9WOcjuFe595Rf8I87Y0Q", "alias": "casablanca-hotel-new-york-2", "name": "Casablanca Hotel", "image_url": "https://s3-media2.fl.yelpcdn.com/bphoto/13FVjaNzJTx99bNyzpNqJA/o.jpg", "is_closed": false, "url": "https://www.yelp.com/biz/casablanca-hotel-new-york-2?adjust_creative=y8ZvM3kGg52X--syYYcgfg&utm_campaign=yelp_api_v3&utm_medium=api_v3_business_search&utm_source=y8ZvM3kGg52X--syYYcgfg", "review_count": 110, "categories": [{"alias": "hotels", "title": "Hotels"}], "rating": 4.5, "coordinates": {"latitude": 40.75641, "longitude": -73.98547}, "transactions": [], "price": "$$", "location": {"address1": "147 W 43rd St", "address2": "", "address3": "", "city": "New York", "zip_code": "10036", "country": "US", "state": "NY", "display_address": ["147 W 43rd St", "New York, NY 10036"]}, "phone": "+12128691212", "display_phone": "(212) 869-1212", "distance": 5724.255233853066}, {"id": "EPt4kS2XVMhvyoxdyzNeLQ", "alias": "moxy-nyc-east-village-new-york", "name": "Moxy NYC East Village", "image_url": "https://s3-media2.fl.yelpcdn.com/bphoto/0KDddsOx6v8-2fb2lsl-CQ/o.jpg", "is_closed": false, "url": "https://www.yelp.com/biz/moxy-nyc-east-village-new-york?adjust_creative=y8ZvM3kGg52X--syYYcgfg&utm_campaign=yelp_api_v3&utm_medium=api_v3_business_search&utm_source=y8ZvM3kGg52X--syYYcgfg", "review_count": 98, "categories": [{"alias": "hotels", "title": "Hotels"}], "rating": 3.5, "coordinates": {"latitude": 40.731601, "longitude": -73.989509}, "transactions": [], "location": {"address1": "112 E 11th St", "address2": null, "address3": null, "city": "New York", "zip_code": "10003", "country": "US", "state": "NY", "display_address": ["112 E 11th St", "New York, NY 10003"]}, "phone": "+12122886699", "display_phone": "(212) 288-6699", "distance": 2936.2414624766216}, {"id": "J0bkcxkGKZuaghjiPUc4MA", "alias": "hilton-garden-inn-new-york-tribeca-new-york-2", "name": "Hilton Garden Inn New York/Tribeca", "image_url": "https://s3-media4.fl.yelpcdn.com/bphoto/kcBqYTWIUdZfY17IePWNMw/o.jpg", "is_closed": false, "url": "https://www.yelp.com/biz/hilton-garden-inn-new-york-tribeca-new-york-2?adjust_creative=y8ZvM3kGg52X--syYYcgfg&utm_campaign=yelp_api_v3&utm_medium=api_v3_business_search&utm_source=y8ZvM3kGg52X--syYYcgfg", "review_count": 153, "categories": [{"alias": "hotels", "title": "Hotels"}], "rating": 4.0, "coordinates": {"latitude": 40.7209583, "longitude": -74.0054276}, "transactions": [], "price": "$$", "location": {"address1": "39 Avenue Of The Americas", "address2": "", "address3": "", "city": "New York", "zip_code": "10013", "country": "US", "state": "NY", "display_address": ["39 Avenue Of The Americas", "New York, NY 10013"]}, "phone": "+12129664091", "display_phone": "(212) 966-4091", "distance": 1963.7613476450401}, {"id": "pgzc-qFzOW1q16tk17IhYg", "alias": "nine-orchard-hotel-new-york", "name": "Nine Orchard Hotel", "image_url": "https://s3-media4.fl.yelpcdn.com/bphoto/hO57DHPZm5kvf0GNjQw0CQ/o.jpg", "is_closed": false, "url": "https://www.yelp.com/biz/nine-orchard-hotel-new-york?adjust_creative=y8ZvM3kGg52X--syYYcgfg&utm_campaign=yelp_api_v3&utm_medium=api_v3_business_search&utm_source=y8ZvM3kGg52X--syYYcgfg", "review_count": 7, "categories": [{"alias": "hotels", "title": "Hotels"}], "rating": 4.5, "coordinates": {"latitude": 40.71478, "longitude": -73.99206}, "transactions": [], "location": {"address1": "9 Orchard St", "address2": "", "address3": null, "city": "New York", "zip_code": "10002", "country": "US", "state": "NY", "display_address": ["9 Orchard St", "New York, NY 10002"]}, "phone": "+12128049900", "display_phone": "(212) 804-9900", "distance": 1046.0671322158491}, {"id": "A2ANsF7wzLqjYpc2AGORcQ", "alias": "the-hotel-chelsea-new-york", "name": "The Hotel Chelsea", "image_url": "https://s3-media2.fl.yelpcdn.com/bphoto/ixbS_68jHc7J9ufCSEQsHg/o.jpg", "is_closed": false, "url": "https://www.yelp.com/biz/the-hotel-chelsea-new-york?adjust_creative=y8ZvM3kGg52X--syYYcgfg&utm_campaign=yelp_api_v3&utm_medium=api_v3_business_search&utm_source=y8ZvM3kGg52X--syYYcgfg", "review_count": 23, "categories": [{"alias": "hotels", "title": "Hotels"}], "rating": 4.0, "coordinates": {"latitude": 40.74441, "longitude": -73.99679}, "transactions": [], "location": {"address1": "222 W 23rd St", "address2": "", "address3": null, "city": "New York", "zip_code": "10011", "country": "US", "state": "NY", "display_address": ["222 W 23rd St", "New York, NY 10011"]}, "phone": "+12124831010", "display_phone": "(212) 483-1010", "distance": 4329.74165267814}, {"id": "VMGinfrQm6JQfGMUsDFBfg", "alias": "the-standard-east-village-new-york", "name": "The Standard, East Village", "image_url": "https://s3-media1.fl.yelpcdn.com/bphoto/ouXKAhidUkiLjmfET3ebOg/o.jpg", "is_closed": false, "url": "https://www.yelp.com/biz/the-standard-east-village-new-york?adjust_creative=y8ZvM3kGg52X--syYYcgfg&utm_campaign=yelp_api_v3&utm_medium=api_v3_business_search&utm_source=y8ZvM3kGg52X--syYYcgfg", "review_count": 237, "categories": [{"alias": "hotels", "title": "Hotels"}], "rating": 3.5, "coordinates": {"latitude": 40.7278523436442, "longitude": -73.9907492250947}, "transactions": [], "price": "$$", "location": {"address1": "25 Cooper Sq", "address2": "", "address3": "", "city": "New York", "zip_code": "10003", "country": "US", "state": "NY", "display_address": ["25 Cooper Sq", "New York, NY 10003"]}, "phone": "+12124755700", "display_phone": "(212) 475-5700", "distance": 2509.4341874268853}, {"id": "9LqjNHKYyDAE8wwe5sBJWw", "alias": "the-marlton-hotel-new-york", "name": "The Marlton Hotel", "image_url": "https://s3-media4.fl.yelpcdn.com/bphoto/VRxbFD1ZfDrEyLWyv4E_GQ/o.jpg", "is_closed": false, "url": "https://www.yelp.com/biz/the-marlton-hotel-new-york?adjust_creative=y8ZvM3kGg52X--syYYcgfg&utm_campaign=yelp_api_v3&utm_medium=api_v3_business_search&utm_source=y8ZvM3kGg52X--syYYcgfg", "review_count": 164, "categories": [{"alias": "hotels", "title": "Hotels"}], "rating": 3.5, "coordinates": {"latitude": 40.73257, "longitude": -73.99685}, "transactions": [], "price": "$$$", "location": {"address1": "5 W 8th St", "address2": "", "address3": "Between 5th & 6th Aves", "city": "New York", "zip_code": "10011", "country": "US", "state": "NY", "display_address": ["5 W 8th St", "Between 5th & 6th Aves", "New York, NY 10011"]}, "phone": "+12123210100", "display_phone": "(212) 321-0100", "distance": 3032.0538844850703}, {"id": "_BwrVzhkCh8oYMQW4P3ebQ", "alias": "crown-motor-inn-flushing", "name": "Crown Motor Inn", "image_url": "https://s3-media2.fl.yelpcdn.com/bphoto/FhjnGCe-k9H_hiVGlcKe_w/o.jpg", "is_closed": false, "url": "https://www.yelp.com/biz/crown-motor-inn-flushing?adjust_creative=y8ZvM3kGg52X--syYYcgfg&utm_campaign=yelp_api_v3&utm_medium=api_v3_business_search&utm_source=y8ZvM3kGg52X--syYYcgfg", "review_count": 22, "categories": [{"alias": "hotels", "title": "Hotels"}], "rating": 2.5, "coordinates": {"latitude": 40.7394117, "longitude": -73.8896648}, "transactions": [], "price": "$", "location": {"address1": "7401 Queens Blvd", "address2": "", "address3": "", "city": "Flushing", "zip_code": "11373", "country": "US", "state": "NY", "display_address": ["7401 Queens Blvd", "Flushing, NY 11373"]}, "phone": "+17184461414", "display_phone": "(718) 446-1414", "distance": 9588.214918275515}, {"id": "ks299naLzw8CYdVlLnqPXQ", "alias": "the-bowery-hotel-new-york-3", "name": "The Bowery Hotel", "image_url": "https://s3-media4.fl.yelpcdn.com/bphoto/TZKntesn1Ro0lvrMJ3HrCQ/o.jpg", "is_closed": false, "url": "https://www.yelp.com/biz/the-bowery-hotel-new-york-3?adjust_creative=y8ZvM3kGg52X--syYYcgfg&utm_campaign=yelp_api_v3&utm_medium=api_v3_business_search&utm_source=y8ZvM3kGg52X--syYYcgfg", "review_count": 332, "categories": [{"alias": "hotels", "title": "Hotels"}], "rating": 3.5, "coordinates": {"latitude": 40.7260093149249, "longitude": -73.9915595677216}, "transactions": [], "price": "$$$", "location": {"address1": "335 Bowery", "address2": "", "address3": "", "city": "New York", "zip_code": "10003", "country": "US", "state": "NY", "display_address": ["335 Bowery", "New York, NY 10003"]}, "phone": "+12125059100", "display_phone": "(212) 505-9100", "distance": 2298.237420730232}, {"id": "ndFfq-ZjPbR-X8YCpQOS1g", "alias": "the-one-boutique-hotel-flushing", "name": "The One Boutique Hotel", "image_url": "https://s3-media3.fl.yelpcdn.com/bphoto/ZGGMQBWOb3WNbsdTa-ORGQ/o.jpg", "is_closed": false, "url": "https://www.yelp.com/biz/the-one-boutique-hotel-flushing?adjust_creative=y8ZvM3kGg52X--syYYcgfg&utm_campaign=yelp_api_v3&utm_medium=api_v3_business_search&utm_source=y8ZvM3kGg52X--syYYcgfg", "review_count": 96, "categories": [{"alias": "hotels", "title": "Hotels"}], "rating": 2.5, "coordinates": {"latitude": 40.7635219, "longitude": -73.8283762}, "transactions": [], "price": "$$", "location": {"address1": "137-72 Northern Blvd", "address2": null, "address3": "", "city": "Flushing", "zip_code": "11354", "country": "US", "state": "NY", "display_address": ["137-72 Northern Blvd", "Flushing, NY 11354"]}, "phone": "+17188863555", "display_phone": "(718) 886-3555", "distance": 15399.181958868565}, {"id": "xsrzs3lSD2-xG889sLqAXA", "alias": "the-williamsburg-hotel-brooklyn-2", "name": "The Williamsburg Hotel", "image_url": "https://s3-media3.fl.yelpcdn.com/bphoto/7DHVByKOjCRvXiXiGrqEAA/o.jpg", "is_closed": false, "url": "https://www.yelp.com/biz/the-williamsburg-hotel-brooklyn-2?adjust_creative=y8ZvM3kGg52X--syYYcgfg&utm_campaign=yelp_api_v3&utm_medium=api_v3_business_search&utm_source=y8ZvM3kGg52X--syYYcgfg", "review_count": 419, "categories": [{"alias": "hotels", "title": "Hotels"}, {"alias": "venues", "title": "Venues & Event Spaces"}], "rating": 3.0, "coordinates": {"latitude": 40.7215137888895, "longitude": -73.9587011987419}, "transactions": [], "price": "$$", "location": {"address1": "96 Wythe Ave", "address2": null, "address3": "", "city": "Brooklyn", "zip_code": "11249", "country": "US", "state": "NY", "display_address": ["96 Wythe Ave", "Brooklyn, NY 11249"]}, "phone": "+17183628100", "display_phone": "(718) 362-8100", "distance": 3491.6344065379108}, {"id": "xgffqu1zaczjueqz371gzA", "alias": "hotel-barri\u00e8re-fouquets-new-york-new-york", "name": "Hotel Barri\u00e8re Fouquet's New York", "image_url": "https://s3-media4.fl.yelpcdn.com/bphoto/zO7AGsWNx3ALtxKGKEFRRA/o.jpg", "is_closed": false, "url": "https://www.yelp.com/biz/hotel-barri%C3%A8re-fouquets-new-york-new-york?adjust_creative=y8ZvM3kGg52X--syYYcgfg&utm_campaign=yelp_api_v3&utm_medium=api_v3_business_search&utm_source=y8ZvM3kGg52X--syYYcgfg", "review_count": 5, "categories": [{"alias": "hotels", "title": "Hotels"}], "rating": 5.0, "coordinates": {"latitude": 40.7236168, "longitude": -74.0097526}, "transactions": [], "location": {"address1": "456 Greenwich St", "address2": "", "address3": null, "city": "New York", "zip_code": "10013", "country": "US", "state": "NY", "display_address": ["456 Greenwich St", "New York, NY 10013"]}, "phone": "+19179652600", "display_phone": "(917) 965-2600", "distance": 2404.2891889167195}, {"id": "ehoEBRfrwzd5WG2MX4UZiQ", "alias": "the-modernist-hotel-new-york", "name": "The Modernist Hotel", "image_url": "https://s3-media2.fl.yelpcdn.com/bphoto/yCHZ8F6yjZa9xrA3gfpDsw/o.jpg", "is_closed": false, "url": "https://www.yelp.com/biz/the-modernist-hotel-new-york?adjust_creative=y8ZvM3kGg52X--syYYcgfg&utm_campaign=yelp_api_v3&utm_medium=api_v3_business_search&utm_source=y8ZvM3kGg52X--syYYcgfg", "review_count": 14, "categories": [{"alias": "hotels", "title": "Hotels"}], "rating": 4.0, "coordinates": {"latitude": 40.75437, "longitude": -73.93517}, "transactions": [], "location": {"address1": "3830 28th St", "address2": null, "address3": "", "city": "New York", "zip_code": "11101", "country": "US", "state": "NY", "display_address": ["3830 28th St", "New York, NY 11101"]}, "phone": "+17186839200", "display_phone": "(718) 683-9200", "distance": 7377.173645543077}, {"id": "8gWw3lMOqi3xe8d0nKUiKw", "alias": "hyatt-union-square-new-york-new-york", "name": "Hyatt Union Square New York", "image_url": "https://s3-media3.fl.yelpcdn.com/bphoto/IaHZogIl2EJSch8BXbkekQ/o.jpg", "is_closed": false, "url": "https://www.yelp.com/biz/hyatt-union-square-new-york-new-york?adjust_creative=y8ZvM3kGg52X--syYYcgfg&utm_campaign=yelp_api_v3&utm_medium=api_v3_business_search&utm_source=y8ZvM3kGg52X--syYYcgfg", "review_count": 139, "categories": [{"alias": "hotels", "title": "Hotels"}, {"alias": "venues", "title": "Venues & Event Spaces"}], "rating": 3.5, "coordinates": {"latitude": 40.7334389395744, "longitude": -73.9900782372587}, "transactions": [], "price": "$$$", "location": {"address1": "134 Fourth Ave", "address2": "", "address3": "", "city": "New York", "zip_code": "10003", "country": "US", "state": "NY", "display_address": ["134 Fourth Ave", "New York, NY 10003"]}, "phone": "+12122531234", "display_phone": "(212) 253-1234", "distance": 3132.998412742251}, {"id": "NVsI5DRm1CszltskWJvvZQ", "alias": "hotel-giraffe-new-york", "name": "Hotel Giraffe", "image_url": "https://s3-media4.fl.yelpcdn.com/bphoto/ZH_gtQS504Hwc8AksuI1ng/o.jpg", "is_closed": false, "url": "https://www.yelp.com/biz/hotel-giraffe-new-york?adjust_creative=y8ZvM3kGg52X--syYYcgfg&utm_campaign=yelp_api_v3&utm_medium=api_v3_business_search&utm_source=y8ZvM3kGg52X--syYYcgfg", "review_count": 213, "categories": [{"alias": "hotels", "title": "Hotels"}], "rating": 4.5, "coordinates": {"latitude": 40.742169623078134, "longitude": -73.98473105310612}, "transactions": [], "price": "$$$", "location": {"address1": "365 Park Ave S", "address2": "", "address3": "", "city": "New York", "zip_code": "10016", "country": "US", "state": "NY", "display_address": ["365 Park Ave S", "New York, NY 10016"]}, "phone": "+12126857700", "display_phone": "(212) 685-7700", "distance": 4162.347139038386}, {"id": "SZTBP6Xj7ER4d3NSbgOA-A", "alias": "four-seasons-hotel-new-york-4", "name": "Four Seasons Hotel", "image_url": "https://s3-media1.fl.yelpcdn.com/bphoto/7QOMVR818Vme4D8RS1ozgg/o.jpg", "is_closed": false, "url": "https://www.yelp.com/biz/four-seasons-hotel-new-york-4?adjust_creative=y8ZvM3kGg52X--syYYcgfg&utm_campaign=yelp_api_v3&utm_medium=api_v3_business_search&utm_source=y8ZvM3kGg52X--syYYcgfg", "review_count": 64, "categories": [{"alias": "hotels", "title": "Hotels"}], "rating": 4.5, "coordinates": {"latitude": 40.71264339026144, "longitude": -74.0091883883457}, "transactions": [], "price": "$$$$", "location": {"address1": "27 Barclay St", "address2": "", "address3": null, "city": "New York", "zip_code": "10007", "country": "US", "state": "NY", "display_address": ["27 Barclay St", "New York, NY 10007"]}, "phone": "+16468801999", "display_phone": "(646) 880-1999", "distance": 1488.954857600927}, {"id": "DxBjx1Bug34P6_kCdkg2Zg", "alias": "new-york-marriott-at-the-brooklyn-bridge-brooklyn", "name": "New York Marriott at the Brooklyn Bridge", "image_url": "https://s3-media2.fl.yelpcdn.com/bphoto/c9nemDGYFRedr_Oi-dlELA/o.jpg", "is_closed": false, "url": "https://www.yelp.com/biz/new-york-marriott-at-the-brooklyn-bridge-brooklyn?adjust_creative=y8ZvM3kGg52X--syYYcgfg&utm_campaign=yelp_api_v3&utm_medium=api_v3_business_search&utm_source=y8ZvM3kGg52X--syYYcgfg", "review_count": 284, "categories": [{"alias": "hotels", "title": "Hotels"}], "rating": 3.0, "coordinates": {"latitude": 40.693708, "longitude": -73.98818}, "transactions": [], "price": "$$$", "location": {"address1": "333 Adams St", "address2": "", "address3": "", "city": "Brooklyn", "zip_code": "11201", "country": "US", "state": "NY", "display_address": ["333 Adams St", "Brooklyn, NY 11201"]}, "phone": "+17182467000", "display_phone": "(718) 246-7000", "distance": 1380.8524014024283}, {"id": "HsfNLFKADPZUNXsRVx9_dA", "alias": "citizenm-new-york-bowery-hotel-new-york-2", "name": "citizenM New York Bowery Hotel", "image_url": "https://s3-media2.fl.yelpcdn.com/bphoto/46j1iBqwyeyeBB6WFPgZmw/o.jpg", "is_closed": false, "url": "https://www.yelp.com/biz/citizenm-new-york-bowery-hotel-new-york-2?adjust_creative=y8ZvM3kGg52X--syYYcgfg&utm_campaign=yelp_api_v3&utm_medium=api_v3_business_search&utm_source=y8ZvM3kGg52X--syYYcgfg", "review_count": 163, "categories": [{"alias": "hotels", "title": "Hotels"}], "rating": 4.0, "coordinates": {"latitude": 40.72069, "longitude": -73.99366}, "transactions": [], "price": "$", "location": {"address1": "189 Bowery", "address2": "", "address3": null, "city": "New York", "zip_code": "10002", "country": "US", "state": "NY", "display_address": ["189 Bowery", "New York, NY 10002"]}, "phone": "+12123727274", "display_phone": "(212) 372-7274", "distance": 1696.0197677157246}, {"id": "gWr63olCeO83ADYV6odX2Q", "alias": "moxy-williamsburg-brooklyn", "name": "Moxy Williamsburg", "image_url": "https://s3-media3.fl.yelpcdn.com/bphoto/ybiskSz7lLY60sjqQN0TmQ/o.jpg", "is_closed": false, "url": "https://www.yelp.com/biz/moxy-williamsburg-brooklyn?adjust_creative=y8ZvM3kGg52X--syYYcgfg&utm_campaign=yelp_api_v3&utm_medium=api_v3_business_search&utm_source=y8ZvM3kGg52X--syYYcgfg", "review_count": 20, "categories": [{"alias": "hotels", "title": "Hotels"}], "rating": 3.5, "coordinates": {"latitude": 40.7117, "longitude": -73.96294}, "transactions": [], "location": {"address1": "353 Bedford Ave", "address2": null, "address3": "", "city": "Brooklyn", "zip_code": "11211", "country": "US", "state": "NY", "display_address": ["353 Bedford Ave", "Brooklyn, NY 11211"]}, "phone": "+17187826699", "display_phone": "(718) 782-6699", "distance": 2737.9639010744477}, {"id": "BnqsLvT7IaPZIibgj35t_Q", "alias": "the-harlem-flop-house-new-york", "name": "The Harlem Flop House", "image_url": "https://s3-media3.fl.yelpcdn.com/bphoto/iwBBB1bDQZrriYvR5se4hQ/o.jpg", "is_closed": false, "url": "https://www.yelp.com/biz/the-harlem-flop-house-new-york?adjust_creative=y8ZvM3kGg52X--syYYcgfg&utm_campaign=yelp_api_v3&utm_medium=api_v3_business_search&utm_source=y8ZvM3kGg52X--syYYcgfg", "review_count": 14, "categories": [{"alias": "hotels", "title": "Hotels"}], "rating": 5.0, "coordinates": {"latitude": 40.80815, "longitude": -73.9509999}, "transactions": [], "price": "$", "location": {"address1": "242 West 123rd", "address2": "", "address3": "", "city": "New York", "zip_code": "10027", "country": "US", "state": "NY", "display_address": ["242 West 123rd", "New York, NY 10027"]}, "phone": "+19172708488", "display_phone": "(917) 270-8488", "distance": 11994.82108373471}, {"id": "0SrF_WcRetbGWlps7ZhJNw", "alias": "east-village-hotel-new-york", "name": "East Village Hotel", "image_url": "https://s3-media2.fl.yelpcdn.com/bphoto/i3zFWn-ZIN5NB0W7WT2yig/o.jpg", "is_closed": false, "url": "https://www.yelp.com/biz/east-village-hotel-new-york?adjust_creative=y8ZvM3kGg52X--syYYcgfg&utm_campaign=yelp_api_v3&utm_medium=api_v3_business_search&utm_source=y8ZvM3kGg52X--syYYcgfg", "review_count": 24, "categories": [{"alias": "hotels", "title": "Hotels"}], "rating": 4.0, "coordinates": {"latitude": 40.72836, "longitude": -73.98497}, "transactions": [], "price": "$$$", "location": {"address1": "147 1st Ave", "address2": "", "address3": "", "city": "New York", "zip_code": "10003", "country": "US", "state": "NY", "display_address": ["147 1st Ave", "New York, NY 10003"]}, "phone": "+19176357757", "display_phone": "(917) 635-7757", "distance": 2666.5381231458055}, {"id": "wVVpqD__PLyaep7ND4GA8g", "alias": "oasis-motel-bronx", "name": "Oasis Motel", "image_url": "https://s3-media1.fl.yelpcdn.com/bphoto/p5e06xvTr61uDFB-h6YGAQ/o.jpg", "is_closed": false, "url": "https://www.yelp.com/biz/oasis-motel-bronx?adjust_creative=y8ZvM3kGg52X--syYYcgfg&utm_campaign=yelp_api_v3&utm_medium=api_v3_business_search&utm_source=y8ZvM3kGg52X--syYYcgfg", "review_count": 13, "categories": [{"alias": "hotels", "title": "Hotels"}], "rating": 3.5, "coordinates": {"latitude": 40.88164, "longitude": -73.83856}, "transactions": [], "price": "$$$", "location": {"address1": "3801 Boston Rd", "address2": "", "address3": "", "city": "Bronx", "zip_code": "10466", "country": "US", "state": "NY", "display_address": ["3801 Boston Rd", "Bronx, NY 10466"]}, "phone": "+17182313300", "display_phone": "(718) 231-3300", "distance": 23560.430901934826}, {"id": "zuMUWAduEq4COEcbnZ3XCA", "alias": "park-hyatt-new-york-new-york-city", "name": "Park Hyatt New York", "image_url": "https://s3-media2.fl.yelpcdn.com/bphoto/pY5ST6F6KXCRgPbfGH2ROg/o.jpg", "is_closed": false, "url": "https://www.yelp.com/biz/park-hyatt-new-york-new-york-city?adjust_creative=y8ZvM3kGg52X--syYYcgfg&utm_campaign=yelp_api_v3&utm_medium=api_v3_business_search&utm_source=y8ZvM3kGg52X--syYYcgfg", "review_count": 167, "categories": [{"alias": "hotels", "title": "Hotels"}], "rating": 4.5, "coordinates": {"latitude": 40.76538, "longitude": -73.97895}, "transactions": [], "price": "$$$$", "location": {"address1": "153 West 57th St", "address2": null, "address3": null, "city": "New York City", "zip_code": "10019", "country": "US", "state": "NY", "display_address": ["153 West 57th St", "New York City, NY 10019"]}, "phone": "+16467741234", "display_phone": "(646) 774-1234", "distance": 6803.977690887442}, {"id": "lGM-mjoG5ivxJqmEedFukA", "alias": "nomo-soho-new-york-3", "name": "NOMO SOHO", "image_url": "https://s3-media3.fl.yelpcdn.com/bphoto/y7zvBlgaO6YPcl3bRK3TSw/o.jpg", "is_closed": false, "url": "https://www.yelp.com/biz/nomo-soho-new-york-3?adjust_creative=y8ZvM3kGg52X--syYYcgfg&utm_campaign=yelp_api_v3&utm_medium=api_v3_business_search&utm_source=y8ZvM3kGg52X--syYYcgfg", "review_count": 320, "categories": [{"alias": "hotels", "title": "Hotels"}, {"alias": "venues", "title": "Venues & Event Spaces"}], "rating": 3.0, "coordinates": {"latitude": 40.71991, "longitude": -74.00021}, "transactions": [], "price": "$$$", "location": {"address1": "9 Crosby St", "address2": "", "address3": "", "city": "New York", "zip_code": "10013", "country": "US", "state": "NY", "display_address": ["9 Crosby St", "New York, NY 10013"]}, "phone": "+16462186400", "display_phone": "(646) 218-6400", "distance": 1679.5370824703728}, {"id": "0LdrjL5Yt3vliH0OiglSHg", "alias": "the-hoxton-williamsburg-brooklyn-5", "name": "The Hoxton - Williamsburg", "image_url": "https://s3-media4.fl.yelpcdn.com/bphoto/DY9ZN1Y8VbwsBpaReRvncA/o.jpg", "is_closed": false, "url": "https://www.yelp.com/biz/the-hoxton-williamsburg-brooklyn-5?adjust_creative=y8ZvM3kGg52X--syYYcgfg&utm_campaign=yelp_api_v3&utm_medium=api_v3_business_search&utm_source=y8ZvM3kGg52X--syYYcgfg", "review_count": 96, "categories": [{"alias": "hotels", "title": "Hotels"}, {"alias": "venues", "title": "Venues & Event Spaces"}], "rating": 3.5, "coordinates": {"latitude": 40.720831, "longitude": -73.9587603}, "transactions": [], "location": {"address1": "97 Wythe Ave", "address2": "", "address3": null, "city": "Brooklyn", "zip_code": "11249", "country": "US", "state": "NY", "display_address": ["97 Wythe Ave", "Brooklyn, NY 11249"]}, "phone": "+17182157100", "display_phone": "(718) 215-7100", "distance": 3449.085685156969}], "total": 1500, "region": {"center": {"longitude": -73.99429321289062, "latitude": 40.70544486444615}}}