{"businesses": [{"id": "AkxajgbDyzswEUQvT60UrQ", "alias": "kimber-modern-austin", "name": "Kimber Modern", "image_url": "https://s3-media2.fl.yelpcdn.com/bphoto/wjDbkkV-jels5RyAgRG6WQ/o.jpg", "is_closed": false, "url": "https://www.yelp.com/biz/kimber-modern-austin?adjust_creative=XXt1Nge7yivmjq1WyN0Lzw&utm_campaign=yelp_api_v3&utm_medium=api_v3_business_search&utm_source=XXt1Nge7yivmjq1WyN0Lzw", "review_count": 158, "categories": [{"alias": "hotels", "title": "Hotels"}], "rating": 5.0, "coordinates": {"latitude": 30.250104, "longitude": -97.748397}, "transactions": [], "price": "$$$", "location": {"address1": "110 The Cir", "address2": null, "address3": "", "city": "Austin", "zip_code": "78704", "country": "US", "state": "TX", "display_address": ["110 The Cir", "Austin, TX 78704"]}, "phone": "+15129859990", "display_phone": "(512) 985-9990", "distance": 6186.663065848849}, {"id": "6arn-THdlXiQJ7-FAGFjEg", "alias": "jw-marriott-austin-austin", "name": "JW Marriott Austin", "image_url": "https://s3-media2.fl.yelpcdn.com/bphoto/ACYmXYh05gpA_mtwtcD3zA/o.jpg", "is_closed": false, "url": "https://www.yelp.com/biz/jw-marriott-austin-austin?adjust_creative=XXt1Nge7yivmjq1WyN0Lzw&utm_campaign=yelp_api_v3&utm_medium=api_v3_business_search&utm_source=XXt1Nge7yivmjq1WyN0Lzw", "review_count": 580, "categories": [{"alias": "hotels", "title": "Hotels"}, {"alias": "venues", "title": "Venues & Event Spaces"}], "rating": 4.0, "coordinates": {"latitude": 30.264551, "longitude": -97.743317}, "transactions": [], "price": "$$$", "location": {"address1": "110 East 2nd Street", "address2": "", "address3": "", "city": "Austin", "zip_code": "78701", "country": "US", "state": "TX", "display_address": ["110 East 2nd Street", "Austin, TX 78701"]}, "phone": "+15124744777", "display_phone": "(512) 474-4777", "distance": 4722.181738230017}, {"id": "gnTdUlBX2HiAWDFycmSuqw", "alias": "hotel-san-jos\u00e9-austin-2", "name": "Hotel San Jos\u00e9", "image_url": "https://s3-media3.fl.yelpcdn.com/bphoto/G7nop8i-i2LoIvDRS89oxg/o.jpg", "is_closed": false, "url": "https://www.yelp.com/biz/hotel-san-jos%C3%A9-austin-2?adjust_creative=XXt1Nge7yivmjq1WyN0Lzw&utm_campaign=yelp_api_v3&utm_medium=api_v3_business_search&utm_source=XXt1Nge7yivmjq1WyN0Lzw", "review_count": 415, "categories": [{"alias": "hotels", "title": "Hotels"}], "rating": 4.0, "coordinates": {"latitude": 30.25066, "longitude": -97.74966}, "transactions": [], "price": "$$", "location": {"address1": "1316 S Congress Ave", "address2": "", "address3": "", "city": "Austin", "zip_code": "78704", "country": "US", "state": "TX", "display_address": ["1316 S Congress Ave", "Austin, TX 78704"]}, "phone": "+15128522350", "display_phone": "(512) 852-2350", "distance": 6116.563727867099}, {"id": "a43PmVFOpldKhUIDfO8zwQ", "alias": "hyatt-place-austin-downtown-austin", "name": "Hyatt Place Austin Downtown", "image_url": "https://s3-media4.fl.yelpcdn.com/bphoto/R_jvycCNTz6T1MfB5NVVog/o.jpg", "is_closed": false, "url": "https://www.yelp.com/biz/hyatt-place-austin-downtown-austin?adjust_creative=XXt1Nge7yivmjq1WyN0Lzw&utm_campaign=yelp_api_v3&utm_medium=api_v3_business_search&utm_source=XXt1Nge7yivmjq1WyN0Lzw", "review_count": 230, "categories": [{"alias": "hotels", "title": "Hotels"}, {"alias": "venues", "title": "Venues & Event Spaces"}], "rating": 4.0, "coordinates": {"latitude": 30.26455, "longitude": -97.741781}, "transactions": [], "price": "$$", "location": {"address1": "211 E 3rd St", "address2": "", "address3": "", "city": "Austin", "zip_code": "78701", "country": "US", "state": "TX", "display_address": ["211 E 3rd St", "Austin, TX 78701"]}, "phone": "+15124764440", "display_phone": "(512) 476-4440", "distance": 4767.5700498751185}, {"id": "eT1vtal-J3bWHnIk6ovBEw", "alias": "hampton-inn-and-suites-austin-the-university-capitol-austin-2", "name": "Hampton Inn & Suites Austin @ The University/Capitol", "image_url": "https://s3-media1.fl.yelpcdn.com/bphoto/IY-x33D-4-WqUO649k4OFQ/o.jpg", "is_closed": false, "url": "https://www.yelp.com/biz/hampton-inn-and-suites-austin-the-university-capitol-austin-2?adjust_creative=XXt1Nge7yivmjq1WyN0Lzw&utm_campaign=yelp_api_v3&utm_medium=api_v3_business_search&utm_source=XXt1Nge7yivmjq1WyN0Lzw", "review_count": 133, "categories": [{"alias": "hotels", "title": "Hotels"}], "rating": 4.5, "coordinates": {"latitude": 30.279580089737, "longitude": -97.7409088611603}, "transactions": [], "price": "$$", "location": {"address1": "1701 Lavaca St", "address2": "", "address3": "", "city": "Austin", "zip_code": "78701", "country": "US", "state": "TX", "display_address": ["1701 Lavaca St", "Austin, TX 78701"]}, "phone": "+15124998881", "display_phone": "(512) 499-8881", "distance": 3270.101555171643}, {"id": "EKX0N6LCJW9XmiOCJFjPPQ", "alias": "the-otis-hotel-austin-autograph-collection-austin", "name": "The Otis Hotel Austin, Autograph Collection", "image_url": "https://s3-media3.fl.yelpcdn.com/bphoto/nikr8QPSOCSQw9dMp3MpwA/o.jpg", "is_closed": false, "url": "https://www.yelp.com/biz/the-otis-hotel-austin-autograph-collection-austin?adjust_creative=XXt1Nge7yivmjq1WyN0Lzw&utm_campaign=yelp_api_v3&utm_medium=api_v3_business_search&utm_source=XXt1Nge7yivmjq1WyN0Lzw", "review_count": 55, "categories": [{"alias": "hotels", "title": "Hotels"}, {"alias": "venues", "title": "Venues & Event Spaces"}], "rating": 4.0, "coordinates": {"latitude": 30.28223, "longitude": -97.74291}, "transactions": [], "location": {"address1": "1901 San Antonio St", "address2": null, "address3": null, "city": "Austin", "zip_code": "78705", "country": "US", "state": "TX", "display_address": ["1901 San Antonio St", "Austin, TX 78705"]}, "phone": "+15124738900", "display_phone": "(512) 473-8900", "distance": 2904.190278582762}, {"id": "3KMXIbGBMMMGB2dZQaMR4w", "alias": "the-driskill-austin-4", "name": "The Driskill", "image_url": "https://s3-media2.fl.yelpcdn.com/bphoto/L5fSgCTWkwSzebLXcdYY7w/o.jpg", "is_closed": false, "url": "https://www.yelp.com/biz/the-driskill-austin-4?adjust_creative=XXt1Nge7yivmjq1WyN0Lzw&utm_campaign=yelp_api_v3&utm_medium=api_v3_business_search&utm_source=XXt1Nge7yivmjq1WyN0Lzw", "review_count": 610, "categories": [{"alias": "hotels", "title": "Hotels"}, {"alias": "venues", "title": "Venues & Event Spaces"}], "rating": 4.0, "coordinates": {"latitude": 30.26816569330237, "longitude": -97.74175793799918}, "transactions": [], "price": "$$$", "location": {"address1": "604 Brazos St", "address2": null, "address3": "", "city": "Austin", "zip_code": "78701", "country": "US", "state": "TX", "display_address": ["604 Brazos St", "Austin, TX 78701"]}, "phone": "+15124391234", "display_phone": "(512) 439-1234", "distance": 4389.466283259805}, {"id": "SVKNNaX5wCZvc8P4X8obfg", "alias": "archer-hotel-austin-austin", "name": "Archer Hotel Austin", "image_url": "https://s3-media1.fl.yelpcdn.com/bphoto/C_ShFceQ65OkbKCmgm7DGg/o.jpg", "is_closed": false, "url": "https://www.yelp.com/biz/archer-hotel-austin-austin?adjust_creative=XXt1Nge7yivmjq1WyN0Lzw&utm_campaign=yelp_api_v3&utm_medium=api_v3_business_search&utm_source=XXt1Nge7yivmjq1WyN0Lzw", "review_count": 192, "categories": [{"alias": "hotels", "title": "Hotels"}, {"alias": "venues", "title": "Venues & Event Spaces"}], "rating": 4.5, "coordinates": {"latitude": 30.40231238422933, "longitude": -97.72117808086062}, "transactions": [], "price": "$$$", "location": {"address1": "3121 Palm Way", "address2": null, "address3": null, "city": "Austin", "zip_code": "78758", "country": "US", "state": "TX", "display_address": ["3121 Palm Way", "Austin, TX 78758"]}, "phone": "+15128365700", "display_phone": "(512) 836-5700", "distance": 11358.031696399012}, {"id": "qNG33lYD-kvKm55a6dPmSA", "alias": "hotel-zaza-austin-austin-3", "name": "Hotel ZaZa - Austin", "image_url": "https://s3-media4.fl.yelpcdn.com/bphoto/-C-vsnDThYdEHEDyg7keIA/o.jpg", "is_closed": false, "url": "https://www.yelp.com/biz/hotel-zaza-austin-austin-3?adjust_creative=XXt1Nge7yivmjq1WyN0Lzw&utm_campaign=yelp_api_v3&utm_medium=api_v3_business_search&utm_source=XXt1Nge7yivmjq1WyN0Lzw", "review_count": 98, "categories": [{"alias": "hotels", "title": "Hotels"}, {"alias": "venues", "title": "Venues & Event Spaces"}], "rating": 4.0, "coordinates": {"latitude": 30.267108, "longitude": -97.745613}, "transactions": [], "location": {"address1": "400 Lavaca St", "address2": "", "address3": null, "city": "Austin", "zip_code": "78701", "country": "US", "state": "TX", "display_address": ["400 Lavaca St", "Austin, TX 78701"]}, "phone": "+15125429292", "display_phone": "(512) 542-9292", "distance": 4387.604173588445}, {"id": "BEs5bZRl7oe8gApqGQiGzA", "alias": "reserve-at-lake-travis-spicewood", "name": "Reserve at Lake Travis", "image_url": "https://s3-media3.fl.yelpcdn.com/bphoto/UGeXWzuXJibn_S9y2otABQ/o.jpg", "is_closed": false, "url": "https://www.yelp.com/biz/reserve-at-lake-travis-spicewood?adjust_creative=XXt1Nge7yivmjq1WyN0Lzw&utm_campaign=yelp_api_v3&utm_medium=api_v3_business_search&utm_source=XXt1Nge7yivmjq1WyN0Lzw", "review_count": 17, "categories": [{"alias": "resorts", "title": "Resorts"}], "rating": 4.5, "coordinates": {"latitude": 30.409252, "longitude": -97.992741}, "transactions": [], "location": {"address1": "2208 Sea Biscuit Cv", "address2": "Ste 132", "address3": "", "city": "Spicewood", "zip_code": "78669", "country": "US", "state": "TX", "display_address": ["2208 Sea Biscuit Cv", "Ste 132", "Spicewood, TX 78669"]}, "phone": "+15125356981", "display_phone": "(512) 535-6981", "distance": 25346.02261366263}, {"id": "aMCi0z9oKaKyvz_hAaDrsw", "alias": "the-ruby-hotel-and-bar-round-rock-3", "name": "The Ruby Hotel & Bar", "image_url": "https://s3-media1.fl.yelpcdn.com/bphoto/q1KPnEjElhA0E3W507aBBg/o.jpg", "is_closed": false, "url": "https://www.yelp.com/biz/the-ruby-hotel-and-bar-round-rock-3?adjust_creative=XXt1Nge7yivmjq1WyN0Lzw&utm_campaign=yelp_api_v3&utm_medium=api_v3_business_search&utm_source=XXt1Nge7yivmjq1WyN0Lzw", "review_count": 138, "categories": [{"alias": "hotels", "title": "Hotels"}, {"alias": "venues", "title": "Venues & Event Spaces"}, {"alias": "cocktailbars", "title": "Cocktail Bars"}], "rating": 4.5, "coordinates": {"latitude": 30.51386807573701, "longitude": -97.67796839401622}, "transactions": [], "price": "$$", "location": {"address1": "400 Fannin Ave", "address2": null, "address3": "", "city": "Round Rock", "zip_code": "78664", "country": "US", "state": "TX", "display_address": ["400 Fannin Ave", "Round Rock, TX 78664"]}, "phone": "+15126007997", "display_phone": "(512) 600-7997", "distance": 24435.39873316041}, {"id": "MWfRjSmy2s_AnOCKljUBVA", "alias": "colton-house-austin", "name": "Colton House", "image_url": "https://s3-media2.fl.yelpcdn.com/bphoto/kpAMcO45R0e2EVLS2JuGSA/o.jpg", "is_closed": false, "url": "https://www.yelp.com/biz/colton-house-austin?adjust_creative=XXt1Nge7yivmjq1WyN0Lzw&utm_campaign=yelp_api_v3&utm_medium=api_v3_business_search&utm_source=XXt1Nge7yivmjq1WyN0Lzw", "review_count": 22, "categories": [{"alias": "hotels", "title": "Hotels"}], "rating": 4.5, "coordinates": {"latitude": 30.237482, "longitude": -97.755212}, "transactions": [], "location": {"address1": "2510 S Congress Ave", "address2": "", "address3": null, "city": "Austin", "zip_code": "78704", "country": "US", "state": "TX", "display_address": ["2510 S Congress Ave", "Austin, TX 78704"]}, "phone": "+15122201795", "display_phone": "(512) 220-1795", "distance": 7527.015068327909}, {"id": "ObL06JtR47jUwgj07rEBGQ", "alias": "omni-barton-creek-resort-and-spa-austin", "name": "Omni Barton Creek Resort & Spa", "image_url": "https://s3-media3.fl.yelpcdn.com/bphoto/PWsdIuB2DC9Xg2Q6SlODrw/o.jpg", "is_closed": false, "url": "https://www.yelp.com/biz/omni-barton-creek-resort-and-spa-austin?adjust_creative=XXt1Nge7yivmjq1WyN0Lzw&utm_campaign=yelp_api_v3&utm_medium=api_v3_business_search&utm_source=XXt1Nge7yivmjq1WyN0Lzw", "review_count": 284, "categories": [{"alias": "hotels", "title": "Hotels"}, {"alias": "resorts", "title": "Resorts"}, {"alias": "golf", "title": "Golf"}], "rating": 3.5, "coordinates": {"latitude": 30.291437, "longitude": -97.858354}, "transactions": [], "price": "$$$", "location": {"address1": "8212 Barton Club Dr", "address2": "", "address3": "", "city": "Austin", "zip_code": "78735", "country": "US", "state": "TX", "display_address": ["8212 Barton Club Dr", "Austin, TX 78735"]}, "phone": "+15123294000", "display_phone": "(512) 329-4000", "distance": 9781.149562822855}, {"id": "UzRMRRb3Vc6edXIIWCLaJw", "alias": "fairmont-austin-austin", "name": "Fairmont Austin", "image_url": "https://s3-media3.fl.yelpcdn.com/bphoto/xuYCajm-Z_HOfC0fdKv1rw/o.jpg", "is_closed": false, "url": "https://www.yelp.com/biz/fairmont-austin-austin?adjust_creative=XXt1Nge7yivmjq1WyN0Lzw&utm_campaign=yelp_api_v3&utm_medium=api_v3_business_search&utm_source=XXt1Nge7yivmjq1WyN0Lzw", "review_count": 560, "categories": [{"alias": "hotels", "title": "Hotels"}, {"alias": "venues", "title": "Venues & Event Spaces"}], "rating": 4.0, "coordinates": {"latitude": 30.26198, "longitude": -97.73862}, "transactions": [], "price": "$$$", "location": {"address1": "101 Red River St", "address2": "", "address3": null, "city": "Austin", "zip_code": "78701", "country": "US", "state": "TX", "display_address": ["101 Red River St", "Austin, TX 78701"]}, "phone": "+15126002000", "display_phone": "(512) 600-2000", "distance": 5138.651715106342}, {"id": "FtDcQq6m5yzaXTNw2YgW9Q", "alias": "the-westin-austin-downtown-austin", "name": "The Westin Austin Downtown", "image_url": "https://s3-media3.fl.yelpcdn.com/bphoto/GXFpcSZKD1qiTNZuJCweqg/o.jpg", "is_closed": false, "url": "https://www.yelp.com/biz/the-westin-austin-downtown-austin?adjust_creative=XXt1Nge7yivmjq1WyN0Lzw&utm_campaign=yelp_api_v3&utm_medium=api_v3_business_search&utm_source=XXt1Nge7yivmjq1WyN0Lzw", "review_count": 264, "categories": [{"alias": "hotels", "title": "Hotels"}, {"alias": "venues", "title": "Venues & Event Spaces"}], "rating": 3.5, "coordinates": {"latitude": 30.266605694875, "longitude": -97.7403616905212}, "transactions": [], "price": "$$$", "location": {"address1": "310 E 5th St", "address2": null, "address3": null, "city": "Austin", "zip_code": "78701", "country": "US", "state": "TX", "display_address": ["310 E 5th St", "Austin, TX 78701"]}, "phone": "+15123912333", "display_phone": "(512) 391-2333", "distance": 4599.289603794244}, {"id": "d3vs99txCZrUT6Jbc-jptA", "alias": "hotel-van-zandt-austin", "name": "Hotel Van Zandt", "image_url": "https://s3-media4.fl.yelpcdn.com/bphoto/3BV7I5S7SZkWJ03JetOLtg/o.jpg", "is_closed": false, "url": "https://www.yelp.com/biz/hotel-van-zandt-austin?adjust_creative=XXt1Nge7yivmjq1WyN0Lzw&utm_campaign=yelp_api_v3&utm_medium=api_v3_business_search&utm_source=XXt1Nge7yivmjq1WyN0Lzw", "review_count": 408, "categories": [{"alias": "hotels", "title": "Hotels"}, {"alias": "venues", "title": "Venues & Event Spaces"}, {"alias": "wedding_planning", "title": "Wedding Planning"}], "rating": 3.5, "coordinates": {"latitude": 30.2601536042207, "longitude": -97.7389892523869}, "transactions": [], "price": "$$$", "location": {"address1": "605 Davis St", "address2": "", "address3": "", "city": "Austin", "zip_code": "78701", "country": "US", "state": "TX", "display_address": ["605 Davis St", "Austin, TX 78701"]}, "phone": "+15125425300", "display_phone": "(512) 542-5300", "distance": 5317.504804850363}, {"id": "vI93999w5UBLHTOVmGERXw", "alias": "the-carpenter-hotel-austin", "name": "The Carpenter Hotel", "image_url": "https://s3-media2.fl.yelpcdn.com/bphoto/FboIIlF1GJytbgXACP3RtQ/o.jpg", "is_closed": false, "url": "https://www.yelp.com/biz/the-carpenter-hotel-austin?adjust_creative=XXt1Nge7yivmjq1WyN0Lzw&utm_campaign=yelp_api_v3&utm_medium=api_v3_business_search&utm_source=XXt1Nge7yivmjq1WyN0Lzw", "review_count": 71, "categories": [{"alias": "hotels", "title": "Hotels"}, {"alias": "venues", "title": "Venues & Event Spaces"}], "rating": 4.0, "coordinates": {"latitude": 30.26215, "longitude": -97.75871}, "transactions": [], "location": {"address1": "400 Josephine St", "address2": null, "address3": "", "city": "Austin", "zip_code": "78704", "country": "US", "state": "TX", "display_address": ["400 Josephine St", "Austin, TX 78704"]}, "phone": "+15126825300", "display_phone": "(512) 682-5300", "distance": 4770.9206891033145}, {"id": "xj9Pb1TKKAlyIwxe0lZNzg", "alias": "lone-star-court-austin-2", "name": "Lone Star Court", "image_url": "https://s3-media4.fl.yelpcdn.com/bphoto/MlE3yPKosElAfensjM2MCw/o.jpg", "is_closed": false, "url": "https://www.yelp.com/biz/lone-star-court-austin-2?adjust_creative=XXt1Nge7yivmjq1WyN0Lzw&utm_campaign=yelp_api_v3&utm_medium=api_v3_business_search&utm_source=XXt1Nge7yivmjq1WyN0Lzw", "review_count": 272, "categories": [{"alias": "hotels", "title": "Hotels"}, {"alias": "venues", "title": "Venues & Event Spaces"}], "rating": 4.0, "coordinates": {"latitude": 30.3951084, "longitude": -97.7263371}, "transactions": [], "price": "$$", "location": {"address1": "10901 Domain Dr", "address2": null, "address3": "", "city": "Austin", "zip_code": "78758", "country": "US", "state": "TX", "display_address": ["10901 Domain Dr", "Austin, TX 78758"]}, "phone": "+15128142625", "display_phone": "(512) 814-2625", "distance": 10445.717988943077}, {"id": "r-dSoC1rlwBaQ_qmo2pL1Q", "alias": "cypress-valley-spicewood", "name": "Cypress Valley", "image_url": "https://s3-media1.fl.yelpcdn.com/bphoto/_4kaQj_mqDHbGvF-n1odDQ/o.jpg", "is_closed": false, "url": "https://www.yelp.com/biz/cypress-valley-spicewood?adjust_creative=XXt1Nge7yivmjq1WyN0Lzw&utm_campaign=yelp_api_v3&utm_medium=api_v3_business_search&utm_source=XXt1Nge7yivmjq1WyN0Lzw", "review_count": 90, "categories": [{"alias": "venues", "title": "Venues & Event Spaces"}, {"alias": "hotels", "title": "Hotels"}], "rating": 4.5, "coordinates": {"latitude": 30.422132, "longitude": -98.107251}, "transactions": [], "location": {"address1": "1223 S Paleface Ranch Rd", "address2": "", "address3": "", "city": "Spicewood", "zip_code": "78669", "country": "US", "state": "TX", "display_address": ["1223 S Paleface Ranch Rd", "Spicewood, TX 78669"]}, "phone": "+15122648880", "display_phone": "(512) 264-8880", "distance": 35771.17344534538}, {"id": "d8Jew-WdDySj1NkgFa1Ufw", "alias": "residence-inn-by-marriott-austin-lake-austin-river-place-austin", "name": "Residence Inn by Marriott Austin Lake Austin/River Place", "image_url": "https://s3-media1.fl.yelpcdn.com/bphoto/brmHB_WsuLIlgLIjZBrodA/o.jpg", "is_closed": false, "url": "https://www.yelp.com/biz/residence-inn-by-marriott-austin-lake-austin-river-place-austin?adjust_creative=XXt1Nge7yivmjq1WyN0Lzw&utm_campaign=yelp_api_v3&utm_medium=api_v3_business_search&utm_source=XXt1Nge7yivmjq1WyN0Lzw", "review_count": 40, "categories": [{"alias": "hotels", "title": "Hotels"}, {"alias": "venues", "title": "Venues & Event Spaces"}], "rating": 4.5, "coordinates": {"latitude": 30.39264, "longitude": -97.84737}, "transactions": [], "price": "$$", "location": {"address1": "6608 River Place", "address2": null, "address3": "", "city": "Austin", "zip_code": "78730", "country": "US", "state": "TX", "display_address": ["6608 River Place", "Austin, TX 78730"]}, "phone": "+15127359300", "display_phone": "(512) 735-9300", "distance": 13085.086673120231}, {"id": "vr_K7skTjak95JKF-owDuQ", "alias": "hancock-guest-cottages-austin", "name": "Hancock Guest Cottages", "image_url": "https://s3-media3.fl.yelpcdn.com/bphoto/NqSQmDu_OHSogSqowQ_rUg/o.jpg", "is_closed": false, "url": "https://www.yelp.com/biz/hancock-guest-cottages-austin?adjust_creative=XXt1Nge7yivmjq1WyN0Lzw&utm_campaign=yelp_api_v3&utm_medium=api_v3_business_search&utm_source=XXt1Nge7yivmjq1WyN0Lzw", "review_count": 9, "categories": [{"alias": "hotels", "title": "Hotels"}, {"alias": "guesthouses", "title": "Guest Houses"}, {"alias": "vacation_rentals", "title": "Vacation Rentals"}], "rating": 5.0, "coordinates": {"latitude": 30.301672, "longitude": -97.71944}, "transactions": [], "price": "$$", "location": {"address1": "1007 E 43rd St", "address2": "", "address3": "", "city": "Austin", "zip_code": "78751", "country": "US", "state": "TX", "display_address": ["1007 E 43rd St", "Austin, TX 78751"]}, "phone": "+15125145458", "display_phone": "(512) 514-5458", "distance": 3695.404336568822}, {"id": "X_YvQIJYO3jhv21Qconb3Q", "alias": "arrive-austin-austin", "name": "ARRIVE Austin", "image_url": "https://s3-media1.fl.yelpcdn.com/bphoto/y3OQ5cNJyDed7qt2UXr3iA/o.jpg", "is_closed": false, "url": "https://www.yelp.com/biz/arrive-austin-austin?adjust_creative=XXt1Nge7yivmjq1WyN0Lzw&utm_campaign=yelp_api_v3&utm_medium=api_v3_business_search&utm_source=XXt1Nge7yivmjq1WyN0Lzw", "review_count": 47, "categories": [{"alias": "hotels", "title": "Hotels"}], "rating": 4.0, "coordinates": {"latitude": 30.26169, "longitude": -97.72284}, "transactions": [], "location": {"address1": "1813 E 6th St", "address2": null, "address3": "", "city": "Austin", "zip_code": "78702", "country": "US", "state": "TX", "display_address": ["1813 E 6th St", "Austin, TX 78702"]}, "phone": "+17372428080", "display_phone": "(737) 242-8080", "distance": 5875.858200027127}, {"id": "Hsqq-bwHO-oSd2KZb2bp3w", "alias": "drury-inn-and-suites-austin-north-austin", "name": "Drury Inn & Suites Austin North", "image_url": "https://s3-media1.fl.yelpcdn.com/bphoto/LISeITcdzMkVkk4Z2STeCg/o.jpg", "is_closed": false, "url": "https://www.yelp.com/biz/drury-inn-and-suites-austin-north-austin?adjust_creative=XXt1Nge7yivmjq1WyN0Lzw&utm_campaign=yelp_api_v3&utm_medium=api_v3_business_search&utm_source=XXt1Nge7yivmjq1WyN0Lzw", "review_count": 95, "categories": [{"alias": "hotels", "title": "Hotels"}], "rating": 4.5, "coordinates": {"latitude": 30.328485, "longitude": -97.704602}, "transactions": [], "price": "$$", "location": {"address1": "6711 I 35 N", "address2": "", "address3": "", "city": "Austin", "zip_code": "78752", "country": "US", "state": "TX", "display_address": ["6711 I 35 N", "Austin, TX 78752"]}, "phone": "+15124679500", "display_phone": "(512) 467-9500", "distance": 5720.742385508301}, {"id": "AJ8YIwOsJAltZ_nhxxEYfA", "alias": "hotel-viata-austin-austin", "name": "Hotel Viata Austin", "image_url": "https://s3-media2.fl.yelpcdn.com/bphoto/JaRAKWxR9umRgjv-I3fesg/o.jpg", "is_closed": false, "url": "https://www.yelp.com/biz/hotel-viata-austin-austin?adjust_creative=XXt1Nge7yivmjq1WyN0Lzw&utm_campaign=yelp_api_v3&utm_medium=api_v3_business_search&utm_source=XXt1Nge7yivmjq1WyN0Lzw", "review_count": 200, "categories": [{"alias": "hotels", "title": "Hotels"}], "rating": 3.5, "coordinates": {"latitude": 30.30098947767521, "longitude": -97.82954777172354}, "transactions": [], "price": "$$$", "location": {"address1": "320 S Capital Of Texas Hwy", "address2": "Bldg B", "address3": "", "city": "Austin", "zip_code": "78746", "country": "US", "state": "TX", "display_address": ["320 S Capital Of Texas Hwy", "Bldg B", "Austin, TX 78746"]}, "phone": "+15123066400", "display_phone": "(512) 306-6400", "distance": 6911.073864240241}, {"id": "wWDY1WQWIAb6d3sjMhWrCQ", "alias": "east-austin-hotel-austin", "name": "East Austin Hotel", "image_url": "https://s3-media3.fl.yelpcdn.com/bphoto/gAD5JHPLJcFdEnblV4UjXQ/o.jpg", "is_closed": false, "url": "https://www.yelp.com/biz/east-austin-hotel-austin?adjust_creative=XXt1Nge7yivmjq1WyN0Lzw&utm_campaign=yelp_api_v3&utm_medium=api_v3_business_search&utm_source=XXt1Nge7yivmjq1WyN0Lzw", "review_count": 65, "categories": [{"alias": "hotels", "title": "Hotels"}], "rating": 4.0, "coordinates": {"latitude": 30.264653, "longitude": -97.730712}, "transactions": [], "price": "$$", "location": {"address1": "1108 E 6th St", "address2": null, "address3": "", "city": "Austin", "zip_code": "78702", "country": "US", "state": "TX", "display_address": ["1108 E 6th St", "Austin, TX 78702"]}, "phone": "+17372058888", "display_phone": "(737) 205-8888", "distance": 5197.0702674368595}, {"id": "JLNdM-QiHHRRIAZO1NbIMQ", "alias": "courtyard-by-marriott-austin-downtown-convention-center-austin", "name": "Courtyard by Marriott Austin Downtown/Convention Center", "image_url": "https://s3-media3.fl.yelpcdn.com/bphoto/LzEFQY3DuBhq1Pr58dIjfA/o.jpg", "is_closed": false, "url": "https://www.yelp.com/biz/courtyard-by-marriott-austin-downtown-convention-center-austin?adjust_creative=XXt1Nge7yivmjq1WyN0Lzw&utm_campaign=yelp_api_v3&utm_medium=api_v3_business_search&utm_source=XXt1Nge7yivmjq1WyN0Lzw", "review_count": 161, "categories": [{"alias": "hotels", "title": "Hotels"}, {"alias": "venues", "title": "Venues & Event Spaces"}], "rating": 3.5, "coordinates": {"latitude": 30.2656890909179, "longitude": -97.7404866367851}, "transactions": [], "price": "$$", "location": {"address1": "300 East 4th Street", "address2": "", "address3": "", "city": "Austin", "zip_code": "78701", "country": "US", "state": "TX", "display_address": ["300 East 4th Street", "Austin, TX 78701"]}, "phone": "+15122368008", "display_phone": "(512) 236-8008", "distance": 4690.184237193727}, {"id": "T9DNNE2Lbk6kqR_jcJ2E6Q", "alias": "hampton-inn-austin-oak-hill-austin", "name": "Hampton Inn Austin/Oak Hill", "image_url": "https://s3-media1.fl.yelpcdn.com/bphoto/Ab77L1AJu-9x20rsHIc2JQ/o.jpg", "is_closed": false, "url": "https://www.yelp.com/biz/hampton-inn-austin-oak-hill-austin?adjust_creative=XXt1Nge7yivmjq1WyN0Lzw&utm_campaign=yelp_api_v3&utm_medium=api_v3_business_search&utm_source=XXt1Nge7yivmjq1WyN0Lzw", "review_count": 35, "categories": [{"alias": "hotels", "title": "Hotels"}], "rating": 4.0, "coordinates": {"latitude": 30.23382503003931, "longitude": -97.86070704460144}, "transactions": [], "price": "$$", "location": {"address1": "6401 W US Hwy 290", "address2": "", "address3": "", "city": "Austin", "zip_code": "78735", "country": "US", "state": "TX", "display_address": ["6401 W US Hwy 290", "Austin, TX 78735"]}, "phone": "+15128917474", "display_phone": "(512) 891-7474", "distance": 12677.881604223381}, {"id": "G14mP1CA5Sv_fBAfFKoPvA", "alias": "hyatt-regency-lost-pines-resort-and-spa-cedar-creek-2", "name": "Hyatt Regency Lost Pines Resort and Spa", "image_url": "https://s3-media1.fl.yelpcdn.com/bphoto/xIaLkYfxKD3YAALLi06wHw/o.jpg", "is_closed": false, "url": "https://www.yelp.com/biz/hyatt-regency-lost-pines-resort-and-spa-cedar-creek-2?adjust_creative=XXt1Nge7yivmjq1WyN0Lzw&utm_campaign=yelp_api_v3&utm_medium=api_v3_business_search&utm_source=XXt1Nge7yivmjq1WyN0Lzw", "review_count": 396, "categories": [{"alias": "hotels", "title": "Hotels"}, {"alias": "venues", "title": "Venues & Event Spaces"}], "rating": 3.5, "coordinates": {"latitude": 30.164762141102, "longitude": -97.445275780433}, "transactions": [], "price": "$$$", "location": {"address1": "575 Hyatt Lost Pines Rd", "address2": "", "address3": "", "city": "Cedar Creek", "zip_code": "78612", "country": "US", "state": "TX", "display_address": ["575 Hyatt Lost Pines Rd", "Cedar Creek, TX 78612"]}, "phone": "+15123081234", "display_phone": "(512) 308-1234", "distance": 33833.086824566184}, {"id": "n2ijrloYye25BI5iiKOscw", "alias": "hotel-saint-cecilia-austin", "name": "Hotel Saint Cecilia", "image_url": "https://s3-media1.fl.yelpcdn.com/bphoto/kFrGIdnSloTqHpSfvudGcw/o.jpg", "is_closed": false, "url": "https://www.yelp.com/biz/hotel-saint-cecilia-austin?adjust_creative=XXt1Nge7yivmjq1WyN0Lzw&utm_campaign=yelp_api_v3&utm_medium=api_v3_business_search&utm_source=XXt1Nge7yivmjq1WyN0Lzw", "review_count": 73, "categories": [{"alias": "hotels", "title": "Hotels"}], "rating": 4.0, "coordinates": {"latitude": 30.251877567228487, "longitude": -97.74691598452664}, "transactions": [], "price": "$$$$", "location": {"address1": "112 Academy Dr", "address2": "", "address3": "", "city": "Austin", "zip_code": "78704", "country": "US", "state": "TX", "display_address": ["112 Academy Dr", "Austin, TX 78704"]}, "phone": "+15128522400", "display_phone": "(512) 852-2400", "distance": 6014.490440988476}, {"id": "0juZIev8gu_lD_tzN8n_VQ", "alias": "element-austin-downtown-austin", "name": "Element Austin Downtown", "image_url": "https://s3-media2.fl.yelpcdn.com/bphoto/y2eEQKbTdOZauCdpUB02TA/o.jpg", "is_closed": false, "url": "https://www.yelp.com/biz/element-austin-downtown-austin?adjust_creative=XXt1Nge7yivmjq1WyN0Lzw&utm_campaign=yelp_api_v3&utm_medium=api_v3_business_search&utm_source=XXt1Nge7yivmjq1WyN0Lzw", "review_count": 86, "categories": [{"alias": "hotels", "title": "Hotels"}, {"alias": "venues", "title": "Venues & Event Spaces"}], "rating": 4.0, "coordinates": {"latitude": 30.26872, "longitude": -97.74208}, "transactions": [], "price": "$$", "location": {"address1": "109 E 7th St", "address2": null, "address3": null, "city": "Austin", "zip_code": "78701", "country": "US", "state": "TX", "display_address": ["109 E 7th St", "Austin, TX 78701"]}, "phone": "+15124730000", "display_phone": "(512) 473-0000", "distance": 4327.1717399517875}, {"id": "mp0sS2TDdFH1uYsux76-xg", "alias": "the-westin-austin-at-the-domain-austin", "name": "The Westin Austin at The Domain", "image_url": "https://s3-media2.fl.yelpcdn.com/bphoto/LehiXg_zAh9rRgzcQwv9gA/o.jpg", "is_closed": false, "url": "https://www.yelp.com/biz/the-westin-austin-at-the-domain-austin?adjust_creative=XXt1Nge7yivmjq1WyN0Lzw&utm_campaign=yelp_api_v3&utm_medium=api_v3_business_search&utm_source=XXt1Nge7yivmjq1WyN0Lzw", "review_count": 251, "categories": [{"alias": "hotels", "title": "Hotels"}, {"alias": "venues", "title": "Venues & Event Spaces"}], "rating": 3.5, "coordinates": {"latitude": 30.39910436014582, "longitude": -97.72458209797476}, "transactions": [], "price": "$$$", "location": {"address1": "11301 Domain Dr", "address2": "", "address3": "", "city": "Austin", "zip_code": "78758", "country": "US", "state": "TX", "display_address": ["11301 Domain Dr", "Austin, TX 78758"]}, "phone": "+15128324197", "display_phone": "(512) 832-4197", "distance": 10919.76364742366}, {"id": "sROriMU-pCDFCZC-iO85Rg", "alias": "residence-inn-by-marriott-austin-northwest-the-domain-area-austin", "name": "Residence Inn by Marriott Austin Northwest/The Domain Area", "image_url": "https://s3-media3.fl.yelpcdn.com/bphoto/dLHs_DsZ_OuK9N9_Ti0W0Q/o.jpg", "is_closed": false, "url": "https://www.yelp.com/biz/residence-inn-by-marriott-austin-northwest-the-domain-area-austin?adjust_creative=XXt1Nge7yivmjq1WyN0Lzw&utm_campaign=yelp_api_v3&utm_medium=api_v3_business_search&utm_source=XXt1Nge7yivmjq1WyN0Lzw", "review_count": 26, "categories": [{"alias": "hotels", "title": "Hotels"}, {"alias": "venues", "title": "Venues & Event Spaces"}], "rating": 4.5, "coordinates": {"latitude": 30.398, "longitude": -97.71896}, "transactions": [], "price": "$$", "location": {"address1": "11301 Burnet Rd", "address2": "", "address3": null, "city": "Austin", "zip_code": "78758", "country": "US", "state": "TX", "display_address": ["11301 Burnet Rd", "Austin, TX 78758"]}, "phone": "+15127197055", "display_phone": "(512) 719-7055", "distance": 10981.799212021086}, {"id": "X0aMbuVBW6fCATS-ZFyhrA", "alias": "la-villa-vista-austin-3", "name": "La Villa Vista", "image_url": "https://s3-media3.fl.yelpcdn.com/bphoto/_xcOdotQ6BWuMOzcjyQOyw/o.jpg", "is_closed": false, "url": "https://www.yelp.com/biz/la-villa-vista-austin-3?adjust_creative=XXt1Nge7yivmjq1WyN0Lzw&utm_campaign=yelp_api_v3&utm_medium=api_v3_business_search&utm_source=XXt1Nge7yivmjq1WyN0Lzw", "review_count": 30, "categories": [{"alias": "bedbreakfast", "title": "Bed & Breakfast"}], "rating": 3.5, "coordinates": {"latitude": 30.4093740833986, "longitude": -97.874903346627}, "transactions": [], "location": {"address1": "6701 Oasis Pass", "address2": "", "address3": "", "city": "Austin", "zip_code": "78732", "country": "US", "state": "TX", "display_address": ["6701 Oasis Pass", "Austin, TX 78732"]}, "phone": "+15122666000", "display_phone": "(512) 266-6000", "distance": 16146.505968549758}, {"id": "X_NxjFgMOOcNwvJArM-OBw", "alias": "the-famous-floathouse-leander", "name": "The Famous Floathouse", "image_url": "https://s3-media2.fl.yelpcdn.com/bphoto/TocKu09B-9Ub98jlb7eHJw/o.jpg", "is_closed": false, "url": "https://www.yelp.com/biz/the-famous-floathouse-leander?adjust_creative=XXt1Nge7yivmjq1WyN0Lzw&utm_campaign=yelp_api_v3&utm_medium=api_v3_business_search&utm_source=XXt1Nge7yivmjq1WyN0Lzw", "review_count": 6, "categories": [{"alias": "guesthouses", "title": "Guest Houses"}], "rating": 5.0, "coordinates": {"latitude": 30.474485845707164, "longitude": -97.90876744463436}, "transactions": [], "location": {"address1": "9907 10 Trails End Rd", "address2": "", "address3": "", "city": "Leander", "zip_code": "78641", "country": "US", "state": "TX", "display_address": ["9907 10 Trails End Rd", "Leander, TX 78641"]}, "phone": "+15124314734", "display_phone": "(512) 431-4734", "distance": 23757.412318508927}, {"id": "-iCylmVN2t346RH8G1SDEg", "alias": "austin-motel-austin-2", "name": "Austin Motel", "image_url": "https://s3-media2.fl.yelpcdn.com/bphoto/ph1UCBFHuSKqfu6OGMoKGg/o.jpg", "is_closed": false, "url": "https://www.yelp.com/biz/austin-motel-austin-2?adjust_creative=XXt1Nge7yivmjq1WyN0Lzw&utm_campaign=yelp_api_v3&utm_medium=api_v3_business_search&utm_source=XXt1Nge7yivmjq1WyN0Lzw", "review_count": 187, "categories": [{"alias": "hotels", "title": "Hotels"}], "rating": 3.5, "coordinates": {"latitude": 30.25175, "longitude": -97.7491}, "transactions": [], "price": "$$", "location": {"address1": "1220 S Congress Ave", "address2": "", "address3": "", "city": "Austin", "zip_code": "78704", "country": "US", "state": "TX", "display_address": ["1220 S Congress Ave", "Austin, TX 78704"]}, "phone": "+15124411157", "display_phone": "(512) 441-1157", "distance": 6001.374294747429}, {"id": "GmkpP_IzcBUe4adgU9RghA", "alias": "ac-hotel-austin-hill-country-austin", "name": "AC Hotel Austin Hill Country", "image_url": "https://s3-media2.fl.yelpcdn.com/bphoto/qNuVUiZCSs-PEiQ0lbuqDQ/o.jpg", "is_closed": false, "url": "https://www.yelp.com/biz/ac-hotel-austin-hill-country-austin?adjust_creative=XXt1Nge7yivmjq1WyN0Lzw&utm_campaign=yelp_api_v3&utm_medium=api_v3_business_search&utm_source=XXt1Nge7yivmjq1WyN0Lzw", "review_count": 16, "categories": [{"alias": "hotels", "title": "Hotels"}], "rating": 4.5, "coordinates": {"latitude": 30.256370037294825, "longitude": -97.87040345516316}, "transactions": [], "location": {"address1": "7415 Southwest Pkwy", "address2": "Bldg 8 Ste 100", "address3": null, "city": "Austin", "zip_code": "78735", "country": "US", "state": "TX", "display_address": ["7415 Southwest Pkwy", "Bldg 8 Ste 100", "Austin, TX 78735"]}, "phone": "+15125514009", "display_phone": "(512) 551-4009", "distance": 12103.938177520833}, {"id": "KZXZNi0yn8gKA__p0p7Xew", "alias": "aloft-austin-at-the-domain-austin", "name": "Aloft Austin at The Domain", "image_url": "https://s3-media3.fl.yelpcdn.com/bphoto/ipdp0vMjkPZzVskyiT8wMA/o.jpg", "is_closed": false, "url": "https://www.yelp.com/biz/aloft-austin-at-the-domain-austin?adjust_creative=XXt1Nge7yivmjq1WyN0Lzw&utm_campaign=yelp_api_v3&utm_medium=api_v3_business_search&utm_source=XXt1Nge7yivmjq1WyN0Lzw", "review_count": 168, "categories": [{"alias": "hotels", "title": "Hotels"}, {"alias": "venues", "title": "Venues & Event Spaces"}], "rating": 3.5, "coordinates": {"latitude": 30.4028518655146, "longitude": -97.7236890792847}, "transactions": [], "price": "$$", "location": {"address1": "11601 Domain Dr", "address2": "", "address3": "", "city": "Austin", "zip_code": "78758", "country": "US", "state": "TX", "display_address": ["11601 Domain Dr", "Austin, TX 78758"]}, "phone": "+15124910777", "display_phone": "(512) 491-0777", "distance": 11343.410731436783}, {"id": "tXkYZcIziQqyFT1iMQ1xww", "alias": "heywood-hotel-austin", "name": "Heywood Hotel", "image_url": "https://s3-media1.fl.yelpcdn.com/bphoto/0GZgsPNb7bE_wkquWKNEbw/o.jpg", "is_closed": false, "url": "https://www.yelp.com/biz/heywood-hotel-austin?adjust_creative=XXt1Nge7yivmjq1WyN0Lzw&utm_campaign=yelp_api_v3&utm_medium=api_v3_business_search&utm_source=XXt1Nge7yivmjq1WyN0Lzw", "review_count": 80, "categories": [{"alias": "hotels", "title": "Hotels"}], "rating": 4.5, "coordinates": {"latitude": 30.2579898834229, "longitude": -97.7279357910156}, "transactions": [], "price": "$$", "location": {"address1": "1609 E Cesar Chavez St", "address2": "", "address3": "", "city": "Austin", "zip_code": "78702", "country": "US", "state": "TX", "display_address": ["1609 E Cesar Chavez St", "Austin, TX 78702"]}, "phone": "+15122715522", "display_phone": "(512) 271-5522", "distance": 5973.602896169927}, {"id": "roNHKwzJImBvBpwssp3N0w", "alias": "miraval-austin-resort-and-spa-austin", "name": "Miraval Austin Resort & Spa", "image_url": "https://s3-media1.fl.yelpcdn.com/bphoto/f85bNze0E612o8_pAlU7RQ/o.jpg", "is_closed": false, "url": "https://www.yelp.com/biz/miraval-austin-resort-and-spa-austin?adjust_creative=XXt1Nge7yivmjq1WyN0Lzw&utm_campaign=yelp_api_v3&utm_medium=api_v3_business_search&utm_source=XXt1Nge7yivmjq1WyN0Lzw", "review_count": 70, "categories": [{"alias": "resorts", "title": "Resorts"}], "rating": 4.0, "coordinates": {"latitude": 30.443733, "longitude": -97.865087}, "transactions": [], "location": {"address1": "13500 Fm2769", "address2": null, "address3": null, "city": "Austin", "zip_code": "78726", "country": "US", "state": "TX", "display_address": ["13500 Fm2769", "Austin, TX 78726"]}, "phone": "+18552341672", "display_phone": "(855) 234-1672", "distance": 18534.410494241187}, {"id": "fRwSMco0ng2vp6MDbWuA7Q", "alias": "the-yurtopian-wimberley", "name": "The Yurtopian", "image_url": "https://s3-media3.fl.yelpcdn.com/bphoto/0UeNIDd9Cno9dZJqRKHZ7Q/o.jpg", "is_closed": false, "url": "https://www.yelp.com/biz/the-yurtopian-wimberley?adjust_creative=XXt1Nge7yivmjq1WyN0Lzw&utm_campaign=yelp_api_v3&utm_medium=api_v3_business_search&utm_source=XXt1Nge7yivmjq1WyN0Lzw", "review_count": 14, "categories": [{"alias": "resorts", "title": "Resorts"}], "rating": 5.0, "coordinates": {"latitude": 29.974562, "longitude": -98.109566}, "transactions": [], "location": {"address1": "135 Winn Ranch Rd", "address2": "", "address3": null, "city": "Wimberley", "zip_code": "78676", "country": "US", "state": "TX", "display_address": ["135 Winn Ranch Rd", "Wimberley, TX 78676"]}, "phone": "+15123332202", "display_phone": "(512) 333-2202", "distance": 49960.52563084334}], "total": 479, "region": {"center": {"longitude": -97.75772094726562, "latitude": 30.305156315977833}}}