{"businesses": [{"id": "Rba9Ol4jnTiov6_iAuoF5g", "alias": "1618-asian-fusion-austin", "name": "1618 Asian Fusion", "image_url": "https://s3-media1.fl.yelpcdn.com/bphoto/2ccKwbEuUBX94BzVXPgo2A/o.jpg", "is_closed": false, "url": "https://www.yelp.com/biz/1618-asian-fusion-austin?adjust_creative=XXt1Nge7yivmjq1WyN0Lzw&utm_campaign=yelp_api_v3&utm_medium=api_v3_business_search&utm_source=XXt1Nge7yivmjq1WyN0Lzw", "review_count": 2653, "categories": [{"alias": "vietnamese", "title": "Vietnamese"}, {"alias": "thai", "title": "Thai"}, {"alias": "dimsum", "title": "Dim Sum"}], "rating": 4.5, "coordinates": {"latitude": 30.24523, "longitude": -97.73036}, "transactions": ["delivery", "pickup", "restaurant_reservation"], "price": "$$", "location": {"address1": "1618 East Riverside Dr", "address2": null, "address3": "", "city": "Austin", "zip_code": "78741", "country": "US", "state": "TX", "display_address": ["1618 East Riverside Dr", "Austin, TX 78741"]}, "phone": "+15124629999", "display_phone": "(512) 462-9999", "distance": 7141.10066177562}, {"id": "GwAFL29gpnEIjAG9MauMig", "alias": "aba-austin-austin", "name": "Aba - Austin", "image_url": "https://s3-media2.fl.yelpcdn.com/bphoto/TMmte3ddWYVWSh9H03Ccvg/o.jpg", "is_closed": false, "url": "https://www.yelp.com/biz/aba-austin-austin?adjust_creative=XXt1Nge7yivmjq1WyN0Lzw&utm_campaign=yelp_api_v3&utm_medium=api_v3_business_search&utm_source=XXt1Nge7yivmjq1WyN0Lzw", "review_count": 1173, "categories": [{"alias": "mediterranean", "title": "Mediterranean"}, {"alias": "bars", "title": "Bars"}, {"alias": "seafood", "title": "Seafood"}], "rating": 4.5, "coordinates": {"latitude": 30.25357, "longitude": -97.74803}, "transactions": ["delivery", "pickup"], "location": {"address1": "1011 S Congress Ave", "address2": "Bldg 2, Ste 180", "address3": null, "city": "Austin", "zip_code": "78704", "country": "US", "state": "TX", "display_address": ["1011 S Congress Ave", "Bldg 2, Ste 180", "Austin, TX 78704"]}, "phone": "+17372730199", "display_phone": "(737) 273-0199", "distance": 5823.542901319293}, {"id": "f9P2wj2vRv6I3P4g3jjpfQ", "alias": "yuki-handroll-bar-austin-2", "name": "Yuki Handroll Bar", "image_url": "https://s3-media4.fl.yelpcdn.com/bphoto/-mhs5cg_eT9Fts_BLpoMog/o.jpg", "is_closed": false, "url": "https://www.yelp.com/biz/yuki-handroll-bar-austin-2?adjust_creative=XXt1Nge7yivmjq1WyN0Lzw&utm_campaign=yelp_api_v3&utm_medium=api_v3_business_search&utm_source=XXt1Nge7yivmjq1WyN0Lzw", "review_count": 21, "categories": [{"alias": "sushi", "title": "Sushi Bars"}, {"alias": "japanese", "title": "Japanese"}], "rating": 4.5, "coordinates": {"latitude": 30.295587429816702, "longitude": -97.83178287848878}, "transactions": [], "location": {"address1": "6317-3 FM2244", "address2": "Ste 330", "address3": null, "city": "Austin", "zip_code": "78746", "country": "US", "state": "TX", "display_address": ["6317-3 FM2244", "Ste 330", "Austin, TX 78746"]}, "phone": "+15123449797", "display_phone": "(512) 344-9797", "distance": 7189.466306150404}, {"id": "cs6HfZNykLVitm09jWFqWg", "alias": "moonshine-patio-bar-and-grill-austin", "name": "Moonshine Patio Bar & Grill", "image_url": "https://s3-media3.fl.yelpcdn.com/bphoto/TfpTZFNSxyHCQroQ0z4o3w/o.jpg", "is_closed": false, "url": "https://www.yelp.com/biz/moonshine-patio-bar-and-grill-austin?adjust_creative=XXt1Nge7yivmjq1WyN0Lzw&utm_campaign=yelp_api_v3&utm_medium=api_v3_business_search&utm_source=XXt1Nge7yivmjq1WyN0Lzw", "review_count": 5855, "categories": [{"alias": "southern", "title": "Southern"}, {"alias": "breakfast_brunch", "title": "Breakfast & Brunch"}, {"alias": "cocktailbars", "title": "Cocktail Bars"}], "rating": 4.5, "coordinates": {"latitude": 30.26375388334444, "longitude": -97.738076861816}, "transactions": ["delivery"], "price": "$$", "location": {"address1": "303 Red River St", "address2": "", "address3": "", "city": "Austin", "zip_code": "78701", "country": "US", "state": "TX", "display_address": ["303 Red River St", "Austin, TX 78701"]}, "phone": "+15122369599", "display_phone": "(512) 236-9599", "distance": 4975.163046861979}, {"id": "fTpp8kuKOITj1KSEz9UG2Q", "alias": "qi-austin-austin-2", "name": "Qi Austin", "image_url": "https://s3-media3.fl.yelpcdn.com/bphoto/PjiyGaMn4vhIYKQzEcUbTA/o.jpg", "is_closed": false, "url": "https://www.yelp.com/biz/qi-austin-austin-2?adjust_creative=XXt1Nge7yivmjq1WyN0Lzw&utm_campaign=yelp_api_v3&utm_medium=api_v3_business_search&utm_source=XXt1Nge7yivmjq1WyN0Lzw", "review_count": 590, "categories": [{"alias": "dimsum", "title": "Dim Sum"}], "rating": 4.5, "coordinates": {"latitude": 30.270622597024683, "longitude": -97.75243621593856}, "transactions": ["delivery"], "price": "$$", "location": {"address1": "835 West 6th St", "address2": "Unit 114", "address3": null, "city": "Austin", "zip_code": "78703", "country": "US", "state": "TX", "display_address": ["835 West 6th St", "Unit 114", "Austin, TX 78703"]}, "phone": "+15124742777", "display_phone": "(512) 474-2777", "distance": 3873.351155142764}, {"id": "YZs1gNSh_sN8JmN_nrpxeA", "alias": "terry-blacks-barbecue-austin", "name": "Terry Black's Barbecue", "image_url": "https://s3-media2.fl.yelpcdn.com/bphoto/jUh-UQ_WkzDsLZ-9AsK5Aw/o.jpg", "is_closed": false, "url": "https://www.yelp.com/biz/terry-blacks-barbecue-austin?adjust_creative=XXt1Nge7yivmjq1WyN0Lzw&utm_campaign=yelp_api_v3&utm_medium=api_v3_business_search&utm_source=XXt1Nge7yivmjq1WyN0Lzw", "review_count": 6348, "categories": [{"alias": "bbq", "title": "Barbeque"}, {"alias": "sandwiches", "title": "Sandwiches"}, {"alias": "southern", "title": "Southern"}], "rating": 4.5, "coordinates": {"latitude": 30.2596915716907, "longitude": -97.7548013627529}, "transactions": ["delivery"], "price": "$$", "location": {"address1": "1003 Barton Springs Rd", "address2": "", "address3": "", "city": "Austin", "zip_code": "78704", "country": "US", "state": "TX", "display_address": ["1003 Barton Springs Rd", "Austin, TX 78704"]}, "phone": "+15123945899", "display_phone": "(512) 394-5899", "distance": 5063.210482313279}, {"id": "-b8Rt2z847RCSdvrbuf-qQ", "alias": "pocha-is-back-austin", "name": "POCHA IS BACK", "image_url": "https://s3-media3.fl.yelpcdn.com/bphoto/YGNYRULtsFX40cgIfz0iTg/o.jpg", "is_closed": false, "url": "https://www.yelp.com/biz/pocha-is-back-austin?adjust_creative=XXt1Nge7yivmjq1WyN0Lzw&utm_campaign=yelp_api_v3&utm_medium=api_v3_business_search&utm_source=XXt1Nge7yivmjq1WyN0Lzw", "review_count": 33, "categories": [{"alias": "pubs", "title": "Pubs"}, {"alias": "korean", "title": "Korean"}], "rating": 4.5, "coordinates": {"latitude": 30.336184, "longitude": -97.720611}, "transactions": ["delivery", "pickup"], "location": {"address1": "6808N N Lamar Blvd", "address2": "Ste B-110", "address3": null, "city": "Austin", "zip_code": "78752", "country": "US", "state": "TX", "display_address": ["6808N N Lamar Blvd", "Ste B-110", "Austin, TX 78752"]}, "phone": "+15123230153", "display_phone": "(512) 323-0153", "distance": 4958.9415281939555}, {"id": "P2fi7qugfLPOFSxscpaAxg", "alias": "anthem-austin-4", "name": "Anthem", "image_url": "https://s3-media2.fl.yelpcdn.com/bphoto/mhkY4e8_BV9Mq0Q0r-8gfw/o.jpg", "is_closed": false, "url": "https://www.yelp.com/biz/anthem-austin-4?adjust_creative=XXt1Nge7yivmjq1WyN0Lzw&utm_campaign=yelp_api_v3&utm_medium=api_v3_business_search&utm_source=XXt1Nge7yivmjq1WyN0Lzw", "review_count": 621, "categories": [{"alias": "tradamerican", "title": "American (Traditional)"}, {"alias": "beerbar", "title": "Beer Bar"}, {"alias": "cocktailbars", "title": "Cocktail Bars"}], "rating": 4.5, "coordinates": {"latitude": 30.260499502500732, "longitude": -97.7379465429382}, "transactions": ["delivery", "pickup"], "price": "$$", "location": {"address1": "91 Rainey St", "address2": "Ste 120", "address3": null, "city": "Austin", "zip_code": "78701", "country": "US", "state": "TX", "display_address": ["91 Rainey St", "Ste 120", "Austin, TX 78701"]}, "phone": "+15127311411", "display_phone": "(512) 731-1411", "distance": 5316.257042417958}, {"id": "v1UzkU8lEWdjxq8byWFOKg", "alias": "guss-world-famous-fried-chicken-austin-austin", "name": "Gus's World Famous Fried Chicken - Austin", "image_url": "https://s3-media2.fl.yelpcdn.com/bphoto/cC25QkhlJA7XSnUnKxznqA/o.jpg", "is_closed": false, "url": "https://www.yelp.com/biz/guss-world-famous-fried-chicken-austin-austin?adjust_creative=XXt1Nge7yivmjq1WyN0Lzw&utm_campaign=yelp_api_v3&utm_medium=api_v3_business_search&utm_source=XXt1Nge7yivmjq1WyN0Lzw", "review_count": 3134, "categories": [{"alias": "southern", "title": "Southern"}, {"alias": "chickenshop", "title": "Chicken Shop"}, {"alias": "comfortfood", "title": "Comfort Food"}], "rating": 4.5, "coordinates": {"latitude": 30.2634862, "longitude": -97.7417305}, "transactions": ["delivery"], "price": "$$", "location": {"address1": "117 San Jacinto Blvd", "address2": "", "address3": "", "city": "Austin", "zip_code": "78701", "country": "US", "state": "TX", "display_address": ["117 San Jacinto Blvd", "Austin, TX 78701"]}, "phone": "+15124744877", "display_phone": "(512) 474-4877", "distance": 4881.271228514894}, {"id": "5ufHVEdJNPypB4v_UhUUUQ", "alias": "patrizis-austin", "name": "Patrizi's", "image_url": "https://s3-media3.fl.yelpcdn.com/bphoto/IaN4HXVNA5hGTjHAbhejsw/o.jpg", "is_closed": false, "url": "https://www.yelp.com/biz/patrizis-austin?adjust_creative=XXt1Nge7yivmjq1WyN0Lzw&utm_campaign=yelp_api_v3&utm_medium=api_v3_business_search&utm_source=XXt1Nge7yivmjq1WyN0Lzw", "review_count": 977, "categories": [{"alias": "italian", "title": "Italian"}], "rating": 4.5, "coordinates": {"latitude": 30.2839715080976, "longitude": -97.7172101465576}, "transactions": ["delivery"], "price": "$$", "location": {"address1": "2307 Manor Rd", "address2": "", "address3": "", "city": "Austin", "zip_code": "78722", "country": "US", "state": "TX", "display_address": ["2307 Manor Rd", "Austin, TX 78722"]}, "phone": "+15125224834", "display_phone": "(512) 522-4834", "distance": 4547.189608574625}, {"id": "BL9A9LSR3bOGwZHdm0lk0g", "alias": "daiboku-austin-2", "name": "Daiboku", "image_url": "https://s3-media4.fl.yelpcdn.com/bphoto/w0-zmcYKMIZopqHaEasMdA/o.jpg", "is_closed": false, "url": "https://www.yelp.com/biz/daiboku-austin-2?adjust_creative=XXt1Nge7yivmjq1WyN0Lzw&utm_campaign=yelp_api_v3&utm_medium=api_v3_business_search&utm_source=XXt1Nge7yivmjq1WyN0Lzw", "review_count": 26, "categories": [{"alias": "ramen", "title": "Ramen"}, {"alias": "cocktailbars", "title": "Cocktail Bars"}, {"alias": "noodles", "title": "Noodles"}], "rating": 4.5, "coordinates": {"latitude": 30.295437573552423, "longitude": -97.743651419878}, "transactions": ["delivery", "pickup"], "location": {"address1": "609 W 29th St", "address2": "", "address3": null, "city": "Austin", "zip_code": "78705", "country": "US", "state": "TX", "display_address": ["609 W 29th St", "Austin, TX 78705"]}, "phone": "+15123502789", "display_phone": "(512) 350-2789", "distance": 1729.8439856680668}, {"id": "MGzro82Fi4LYvc86acoONQ", "alias": "franklin-barbecue-austin", "name": "Franklin Barbecue", "image_url": "https://s3-media1.fl.yelpcdn.com/bphoto/MsXhN-6ehWVBsykS3TP5ng/o.jpg", "is_closed": false, "url": "https://www.yelp.com/biz/franklin-barbecue-austin?adjust_creative=XXt1Nge7yivmjq1WyN0Lzw&utm_campaign=yelp_api_v3&utm_medium=api_v3_business_search&utm_source=XXt1Nge7yivmjq1WyN0Lzw", "review_count": 5882, "categories": [{"alias": "bbq", "title": "Barbeque"}], "rating": 4.5, "coordinates": {"latitude": 30.2701348, "longitude": -97.7313451068641}, "transactions": ["delivery"], "price": "$$", "location": {"address1": "900 E 11th St", "address2": "", "address3": "", "city": "Austin", "zip_code": "78702", "country": "US", "state": "TX", "display_address": ["900 E 11th St", "Austin, TX 78702"]}, "phone": "+15126531187", "display_phone": "(512) 653-1187", "distance": 4645.277696597739}, {"id": "AcFt364BrHyMu3VrSCKMOw", "alias": "salty-sow-austin", "name": "Salty Sow", "image_url": "https://s3-media2.fl.yelpcdn.com/bphoto/-thmBtu1fhKvgEb4i813Cg/o.jpg", "is_closed": false, "url": "https://www.yelp.com/biz/salty-sow-austin?adjust_creative=XXt1Nge7yivmjq1WyN0Lzw&utm_campaign=yelp_api_v3&utm_medium=api_v3_business_search&utm_source=XXt1Nge7yivmjq1WyN0Lzw", "review_count": 3223, "categories": [{"alias": "tradamerican", "title": "American (Traditional)"}, {"alias": "gastropubs", "title": "Gastropubs"}], "rating": 4.5, "coordinates": {"latitude": 30.2836497259461, "longitude": -97.7213180065155}, "transactions": ["delivery"], "price": "$$", "location": {"address1": "1917 Manor Rd", "address2": "", "address3": "", "city": "Austin", "zip_code": "78722", "country": "US", "state": "TX", "display_address": ["1917 Manor Rd", "Austin, TX 78722"]}, "phone": "+15123912337", "display_phone": "(512) 391-2337", "distance": 4234.901451292925}, {"id": "wniQHieUw3zE21BmSoBugg", "alias": "usta-kababgy-austin", "name": "USTA KABABGY", "image_url": "https://s3-media2.fl.yelpcdn.com/bphoto/GZ73VSzpap8cflWGi8RcPg/o.jpg", "is_closed": false, "url": "https://www.yelp.com/biz/usta-kababgy-austin?adjust_creative=XXt1Nge7yivmjq1WyN0Lzw&utm_campaign=yelp_api_v3&utm_medium=api_v3_business_search&utm_source=XXt1Nge7yivmjq1WyN0Lzw", "review_count": 192, "categories": [{"alias": "kebab", "title": "Kebab"}, {"alias": "mediterranean", "title": "Mediterranean"}, {"alias": "halal", "title": "Halal"}], "rating": 4.5, "coordinates": {"latitude": 30.3625187, "longitude": -97.6984345}, "transactions": ["delivery", "pickup"], "price": "$$", "location": {"address1": "9310 North Lamar Blvd", "address2": "", "address3": "", "city": "Austin", "zip_code": "78753", "country": "US", "state": "TX", "display_address": ["9310 North Lamar Blvd", "Austin, TX 78753"]}, "phone": "+15124652720", "display_phone": "(512) 465-2720", "distance": 8547.409010447484}, {"id": "Uf-lNowqa8XMZyHRrLquMg", "alias": "la-plancha-austin", "name": "La Plancha", "image_url": "https://s3-media4.fl.yelpcdn.com/bphoto/WAsmrj_2Q9vfkObSU9twEA/o.jpg", "is_closed": false, "url": "https://www.yelp.com/biz/la-plancha-austin?adjust_creative=XXt1Nge7yivmjq1WyN0Lzw&utm_campaign=yelp_api_v3&utm_medium=api_v3_business_search&utm_source=XXt1Nge7yivmjq1WyN0Lzw", "review_count": 126, "categories": [{"alias": "mexican", "title": "Mexican"}, {"alias": "breakfast_brunch", "title": "Breakfast & Brunch"}, {"alias": "newamerican", "title": "American (New)"}], "rating": 4.5, "coordinates": {"latitude": 30.27927, "longitude": -97.72297}, "transactions": ["delivery", "pickup"], "price": "$$", "location": {"address1": "1701 E Martin Luther King Jr Blvd", "address2": "", "address3": null, "city": "Austin", "zip_code": "78702", "country": "US", "state": "TX", "display_address": ["1701 E Martin Luther King Jr Blvd", "Austin, TX 78702"]}, "phone": "+15125512569", "display_phone": "(512) 551-2569", "distance": 4421.86562936783}, {"id": "iuy7Wk41ZlSzk2DhNv0ymQ", "alias": "tenten-austin-2", "name": "TenTen", "image_url": "https://s3-media4.fl.yelpcdn.com/bphoto/OObeXFXDx-Qvp1pcOuvNDA/o.jpg", "is_closed": false, "url": "https://www.yelp.com/biz/tenten-austin-2?adjust_creative=XXt1Nge7yivmjq1WyN0Lzw&utm_campaign=yelp_api_v3&utm_medium=api_v3_business_search&utm_source=XXt1Nge7yivmjq1WyN0Lzw", "review_count": 402, "categories": [{"alias": "japanese", "title": "Japanese"}, {"alias": "sushi", "title": "Sushi Bars"}, {"alias": "cocktailbars", "title": "Cocktail Bars"}], "rating": 4.5, "coordinates": {"latitude": 30.26916, "longitude": -97.74771}, "transactions": ["delivery"], "price": "$$$", "location": {"address1": "501 W 6th St", "address2": null, "address3": "", "city": "Austin", "zip_code": "78701", "country": "US", "state": "TX", "display_address": ["501 W 6th St", "Austin, TX 78701"]}, "phone": "+17372439147", "display_phone": "(737) 243-9147", "distance": 4114.490420654624}, {"id": "7mbQP-ZMu5NeMKa1L14eOQ", "alias": "l-and-l-hawaiian-barbecue-austin", "name": "L&L Hawaiian Barbecue", "image_url": "https://s3-media3.fl.yelpcdn.com/bphoto/roUAArigHjnIbsT02YLgNw/o.jpg", "is_closed": false, "url": "https://www.yelp.com/biz/l-and-l-hawaiian-barbecue-austin?adjust_creative=XXt1Nge7yivmjq1WyN0Lzw&utm_campaign=yelp_api_v3&utm_medium=api_v3_business_search&utm_source=XXt1Nge7yivmjq1WyN0Lzw", "review_count": 16, "categories": [{"alias": "hawaiian", "title": "Hawaiian"}, {"alias": "bbq", "title": "Barbeque"}], "rating": 4.0, "coordinates": {"latitude": 30.215628356303615, "longitude": -97.83396225665416}, "transactions": [], "location": {"address1": "3601 W William Cannon Dr", "address2": "Ste 300", "address3": "", "city": "Austin", "zip_code": "78749", "country": "US", "state": "TX", "display_address": ["3601 W William Cannon Dr", "Ste 300", "Austin, TX 78749"]}, "phone": "+15129920404", "display_phone": "(512) 992-0404", "distance": 12358.075037498213}, {"id": "nXtn29mTWlYeHxvHSz4dfA", "alias": "koriente-austin", "name": "Koriente", "image_url": "https://s3-media1.fl.yelpcdn.com/bphoto/CRcjYv-bFwX6LazWytj43w/o.jpg", "is_closed": false, "url": "https://www.yelp.com/biz/koriente-austin?adjust_creative=XXt1Nge7yivmjq1WyN0Lzw&utm_campaign=yelp_api_v3&utm_medium=api_v3_business_search&utm_source=XXt1Nge7yivmjq1WyN0Lzw", "review_count": 1881, "categories": [{"alias": "asianfusion", "title": "Asian Fusion"}, {"alias": "gluten_free", "title": "Gluten-Free"}, {"alias": "salad", "title": "Salad"}], "rating": 4.5, "coordinates": {"latitude": 30.267, "longitude": -97.73597}, "transactions": ["delivery", "pickup"], "price": "$$", "location": {"address1": "621 E 7th St", "address2": null, "address3": "", "city": "Austin", "zip_code": "78701", "country": "US", "state": "TX", "display_address": ["621 E 7th St", "Austin, TX 78701"]}, "phone": "+15122750852", "display_phone": "(512) 275-0852", "distance": 4728.040698854352}, {"id": "-mnthpC--HoFLdh88sfNBw", "alias": "bat-city-pies-austin", "name": "Bat City Pies", "image_url": "https://s3-media3.fl.yelpcdn.com/bphoto/98ludBodo4SVlEZLZ2frQw/o.jpg", "is_closed": false, "url": "https://www.yelp.com/biz/bat-city-pies-austin?adjust_creative=XXt1Nge7yivmjq1WyN0Lzw&utm_campaign=yelp_api_v3&utm_medium=api_v3_business_search&utm_source=XXt1Nge7yivmjq1WyN0Lzw", "review_count": 22, "categories": [{"alias": "pizza", "title": "Pizza"}, {"alias": "foodtrucks", "title": "Food Trucks"}], "rating": 5.0, "coordinates": {"latitude": 30.241716, "longitude": -97.726887}, "transactions": ["delivery", "pickup"], "price": "$$", "location": {"address1": "1505 Town Creek Dr", "address2": null, "address3": "", "city": "Austin", "zip_code": "78741", "country": "US", "state": "TX", "display_address": ["1505 Town Creek Dr", "Austin, TX 78741"]}, "phone": "+17377429137", "display_phone": "(737) 742-9137", "distance": 7655.303710299296}, {"id": "cyD2wGtrOpy8Fr2HMc7SLQ", "alias": "ftg-atx-austin", "name": "FTG ATX", "image_url": "https://s3-media2.fl.yelpcdn.com/bphoto/vOtldnGAG0XSXelTKWReAg/o.jpg", "is_closed": false, "url": "https://www.yelp.com/biz/ftg-atx-austin?adjust_creative=XXt1Nge7yivmjq1WyN0Lzw&utm_campaign=yelp_api_v3&utm_medium=api_v3_business_search&utm_source=XXt1Nge7yivmjq1WyN0Lzw", "review_count": 48, "categories": [{"alias": "foodtrucks", "title": "Food Trucks"}, {"alias": "newamerican", "title": "American (New)"}], "rating": 5.0, "coordinates": {"latitude": 30.3047766206252, "longitude": -97.7257366}, "transactions": ["delivery", "pickup"], "price": "$$", "location": {"address1": "4301 Duval St", "address2": null, "address3": "", "city": "Austin", "zip_code": "78751", "country": "US", "state": "TX", "display_address": ["4301 Duval St", "Austin, TX 78751"]}, "phone": "+18302215796", "display_phone": "(830) 221-5796", "distance": 3070.795104245292}, {"id": "vKgpIIl98_EUtpZBcnkbQg", "alias": "bacalar-austin", "name": "Bacalar", "image_url": "https://s3-media3.fl.yelpcdn.com/bphoto/JZIpgMuzzIqlC9fJDpgBpw/o.jpg", "is_closed": false, "url": "https://www.yelp.com/biz/bacalar-austin?adjust_creative=XXt1Nge7yivmjq1WyN0Lzw&utm_campaign=yelp_api_v3&utm_medium=api_v3_business_search&utm_source=XXt1Nge7yivmjq1WyN0Lzw", "review_count": 14, "categories": [{"alias": "mexican", "title": "Mexican"}, {"alias": "cocktailbars", "title": "Cocktail Bars"}, {"alias": "desserts", "title": "Desserts"}], "rating": 4.5, "coordinates": {"latitude": 30.25575297481797, "longitude": -97.73899576584786}, "transactions": [], "location": {"address1": "44 East Ave", "address2": "Ste 100", "address3": null, "city": "Austin", "zip_code": "78701", "country": "US", "state": "TX", "display_address": ["44 East Ave", "Ste 100", "Austin, TX 78701"]}, "phone": "", "display_phone": "", "distance": 5780.17697587699}, {"id": "mKX28z-6g-XoChGATQ6F9Q", "alias": "khon-thai-kitchen-by-seeda-austin", "name": "Khon Thai Kitchen By Seeda", "image_url": "https://s3-media2.fl.yelpcdn.com/bphoto/U_ycgTXcMkBSd2Y-suLF2w/o.jpg", "is_closed": false, "url": "https://www.yelp.com/biz/khon-thai-kitchen-by-seeda-austin?adjust_creative=XXt1Nge7yivmjq1WyN0Lzw&utm_campaign=yelp_api_v3&utm_medium=api_v3_business_search&utm_source=XXt1Nge7yivmjq1WyN0Lzw", "review_count": 60, "categories": [{"alias": "thai", "title": "Thai"}], "rating": 4.5, "coordinates": {"latitude": 30.3334, "longitude": -97.74101}, "transactions": ["delivery", "pickup"], "location": {"address1": "5800 Burnet Rd", "address2": "Ste 400", "address3": "", "city": "Austin", "zip_code": "78756", "country": "US", "state": "TX", "display_address": ["5800 Burnet Rd", "Ste 400", "Austin, TX 78756"]}, "phone": "+15123349632", "display_phone": "(512) 334-9632", "distance": 3541.8512745322796}, {"id": "kS9kFxQ41e45z7O3kXKRhA", "alias": "rice-ball-austin", "name": "Rice Ball", "image_url": "https://s3-media1.fl.yelpcdn.com/bphoto/VmaUeKklsSQ8wN-I6NIabw/o.jpg", "is_closed": false, "url": "https://www.yelp.com/biz/rice-ball-austin?adjust_creative=XXt1Nge7yivmjq1WyN0Lzw&utm_campaign=yelp_api_v3&utm_medium=api_v3_business_search&utm_source=XXt1Nge7yivmjq1WyN0Lzw", "review_count": 103, "categories": [{"alias": "japanese", "title": "Japanese"}], "rating": 4.0, "coordinates": {"latitude": 30.33866555957456, "longitude": -97.71820023558227}, "transactions": ["delivery", "pickup"], "location": {"address1": "6929 Airport Blvd", "address2": null, "address3": "", "city": "Austin", "zip_code": "78752", "country": "US", "state": "TX", "display_address": ["6929 Airport Blvd", "Austin, TX 78752"]}, "phone": "+15124336872", "display_phone": "(512) 433-6872", "distance": 5317.228276201411}, {"id": "Wpgp078KhheKaPFFhN8doA", "alias": "whip-my-soul-austin", "name": "Whip My Soul", "image_url": "https://s3-media4.fl.yelpcdn.com/bphoto/jkgVGrR-1W6grT_9BIZiHw/o.jpg", "is_closed": false, "url": "https://www.yelp.com/biz/whip-my-soul-austin?adjust_creative=XXt1Nge7yivmjq1WyN0Lzw&utm_campaign=yelp_api_v3&utm_medium=api_v3_business_search&utm_source=XXt1Nge7yivmjq1WyN0Lzw", "review_count": 423, "categories": [{"alias": "southern", "title": "Southern"}, {"alias": "chickenshop", "title": "Chicken Shop"}], "rating": 5.0, "coordinates": {"latitude": 30.453784388868776, "longitude": -97.8290617}, "transactions": ["delivery", "pickup"], "price": "$$", "location": {"address1": "11416 N Fm 620", "address2": null, "address3": "", "city": "Austin", "zip_code": "78726", "country": "US", "state": "TX", "display_address": ["11416 N Fm 620", "Austin, TX 78726"]}, "phone": "+15125140103", "display_phone": "(512) 514-0103", "distance": 17887.55112498767}, {"id": "9IMQahrfpRztwo1GmIi5cw", "alias": "bussinbuns-austin", "name": "BussinBuns", "image_url": "https://s3-media1.fl.yelpcdn.com/bphoto/ZAj0S89COtmp3gh0aBniLA/o.jpg", "is_closed": false, "url": "https://www.yelp.com/biz/bussinbuns-austin?adjust_creative=XXt1Nge7yivmjq1WyN0Lzw&utm_campaign=yelp_api_v3&utm_medium=api_v3_business_search&utm_source=XXt1Nge7yivmjq1WyN0Lzw", "review_count": 22, "categories": [{"alias": "foodtrucks", "title": "Food Trucks"}], "rating": 4.5, "coordinates": {"latitude": 30.281516, "longitude": -97.702813}, "transactions": [], "location": {"address1": "1805 Airport Blvd", "address2": null, "address3": "", "city": "Austin", "zip_code": "78702", "country": "US", "state": "TX", "display_address": ["1805 Airport Blvd", "Austin, TX 78702"]}, "phone": "", "display_phone": "", "distance": 5888.60864897552}, {"id": "gclXP335bUo6w6dCtcd6-A", "alias": "wees-cozy-kitchen-austin", "name": "Wee's Cozy Kitchen", "image_url": "https://s3-media1.fl.yelpcdn.com/bphoto/_YxIayenVrin7k35c--z2A/o.jpg", "is_closed": false, "url": "https://www.yelp.com/biz/wees-cozy-kitchen-austin?adjust_creative=XXt1Nge7yivmjq1WyN0Lzw&utm_campaign=yelp_api_v3&utm_medium=api_v3_business_search&utm_source=XXt1Nge7yivmjq1WyN0Lzw", "review_count": 24, "categories": [{"alias": "panasian", "title": "Pan Asian"}, {"alias": "malaysian", "title": "Malaysian"}], "rating": 5.0, "coordinates": {"latitude": 30.288233365622222, "longitude": -97.7450037141726}, "transactions": ["delivery", "pickup"], "location": {"address1": "2400 Rio Grande St", "address2": "", "address3": null, "city": "Austin", "zip_code": "78705", "country": "US", "state": "TX", "display_address": ["2400 Rio Grande St", "Austin, TX 78705"]}, "phone": "+15125778626", "display_phone": "(512) 577-8626", "distance": 2243.146271046123}, {"id": "He2KYtXXfaIR0nkCXH5xiQ", "alias": "loro-austin", "name": "Loro", "image_url": "https://s3-media3.fl.yelpcdn.com/bphoto/USf-lPJ2J19V048MTO-vIg/o.jpg", "is_closed": false, "url": "https://www.yelp.com/biz/loro-austin?adjust_creative=XXt1Nge7yivmjq1WyN0Lzw&utm_campaign=yelp_api_v3&utm_medium=api_v3_business_search&utm_source=XXt1Nge7yivmjq1WyN0Lzw", "review_count": 2015, "categories": [{"alias": "smokehouse", "title": "Smokehouse"}, {"alias": "asianfusion", "title": "Asian Fusion"}, {"alias": "cocktailbars", "title": "Cocktail Bars"}], "rating": 4.5, "coordinates": {"latitude": 30.24775, "longitude": -97.77127}, "transactions": ["delivery"], "price": "$$", "location": {"address1": "2115 S Lamar Blvd", "address2": "", "address3": null, "city": "Austin", "zip_code": "78704", "country": "US", "state": "TX", "display_address": ["2115 S Lamar Blvd", "Austin, TX 78704"]}, "phone": "+15129164858", "display_phone": "(512) 916-4858", "distance": 6510.320908431616}, {"id": "wB1qckz9iC0aq5XuWRmCIA", "alias": "jewboy-burgers-austin", "name": "Jewboy Burgers", "image_url": "https://s3-media4.fl.yelpcdn.com/bphoto/EChIxT0p7cb71gVZqoz_rQ/o.jpg", "is_closed": false, "url": "https://www.yelp.com/biz/jewboy-burgers-austin?adjust_creative=XXt1Nge7yivmjq1WyN0Lzw&utm_campaign=yelp_api_v3&utm_medium=api_v3_business_search&utm_source=XXt1Nge7yivmjq1WyN0Lzw", "review_count": 1328, "categories": [{"alias": "burgers", "title": "Burgers"}, {"alias": "diners", "title": "Diners"}], "rating": 4.5, "coordinates": {"latitude": 30.3127408, "longitude": -97.71508227214272}, "transactions": ["delivery"], "price": "$$", "location": {"address1": "5111 Airport Blvd", "address2": null, "address3": null, "city": "Austin", "zip_code": "78751", "country": "US", "state": "TX", "display_address": ["5111 Airport Blvd", "Austin, TX 78751"]}, "phone": "+15122913358", "display_phone": "(512) 291-3358", "distance": 4179.136076759416}, {"id": "KIHoGUfCOLhBFQVSAN4QSg", "alias": "suerte-austin", "name": "Suerte", "image_url": "https://s3-media1.fl.yelpcdn.com/bphoto/PXdLHU-cChtQ_ZUKEUcSNA/o.jpg", "is_closed": false, "url": "https://www.yelp.com/biz/suerte-austin?adjust_creative=XXt1Nge7yivmjq1WyN0Lzw&utm_campaign=yelp_api_v3&utm_medium=api_v3_business_search&utm_source=XXt1Nge7yivmjq1WyN0Lzw", "review_count": 999, "categories": [{"alias": "mexican", "title": "Mexican"}], "rating": 4.5, "coordinates": {"latitude": 30.26228, "longitude": -97.72331}, "transactions": ["delivery"], "price": "$$$", "location": {"address1": "1800 E 6th St", "address2": "", "address3": "", "city": "Austin", "zip_code": "78702", "country": "US", "state": "TX", "display_address": ["1800 E 6th St", "Austin, TX 78702"]}, "phone": "+15129530092", "display_phone": "(512) 953-0092", "distance": 5808.930679995454}, {"id": "HyAzD1a0MmXga-GYaTpQtA", "alias": "spicy-boys-fried-chicken-east-6th-austin-2", "name": "Spicy Boys Fried Chicken - East 6th", "image_url": "https://s3-media3.fl.yelpcdn.com/bphoto/ymxZgaGcFWmrVEdXdVcgRQ/o.jpg", "is_closed": false, "url": "https://www.yelp.com/biz/spicy-boys-fried-chicken-east-6th-austin-2?adjust_creative=XXt1Nge7yivmjq1WyN0Lzw&utm_campaign=yelp_api_v3&utm_medium=api_v3_business_search&utm_source=XXt1Nge7yivmjq1WyN0Lzw", "review_count": 242, "categories": [{"alias": "chickenshop", "title": "Chicken Shop"}, {"alias": "panasian", "title": "Pan Asian"}, {"alias": "foodtrucks", "title": "Food Trucks"}], "rating": 4.5, "coordinates": {"latitude": 30.2621200840611, "longitude": -97.724519893527}, "transactions": ["delivery"], "price": "$$", "location": {"address1": "1701 E 6th St", "address2": "", "address3": null, "city": "Austin", "zip_code": "78702", "country": "US", "state": "TX", "display_address": ["1701 E 6th St", "Austin, TX 78702"]}, "phone": "", "display_phone": "", "distance": 5750.083590993062}, {"id": "Unl62KlI0kwF8pToy7QjSA", "alias": "vic-and-als-austin", "name": "Vic & Al's", "image_url": "https://s3-media3.fl.yelpcdn.com/bphoto/e8t3X8f76JsrHaP0HSU87Q/o.jpg", "is_closed": false, "url": "https://www.yelp.com/biz/vic-and-als-austin?adjust_creative=XXt1Nge7yivmjq1WyN0Lzw&utm_campaign=yelp_api_v3&utm_medium=api_v3_business_search&utm_source=XXt1Nge7yivmjq1WyN0Lzw", "review_count": 417, "categories": [{"alias": "cajun", "title": "Cajun/Creole"}, {"alias": "bars", "title": "Bars"}, {"alias": "comfortfood", "title": "Comfort Food"}], "rating": 4.5, "coordinates": {"latitude": 30.2849835, "longitude": -97.7168484}, "transactions": ["delivery"], "price": "$$", "location": {"address1": "2406 Manor Rd", "address2": "Ste D", "address3": "", "city": "Austin", "zip_code": "78722", "country": "US", "state": "TX", "display_address": ["2406 Manor Rd", "Ste D", "Austin, TX 78722"]}, "phone": "+15123875875", "display_phone": "(512) 387-5875", "distance": 4520.02922304772}, {"id": "JfSFcZjRfUKpjSq9s42jYA", "alias": "velvet-taco-austin-5", "name": "Velvet Taco", "image_url": "https://s3-media4.fl.yelpcdn.com/bphoto/AD1VDQbPt4TOquRnpkskkQ/o.jpg", "is_closed": false, "url": "https://www.yelp.com/biz/velvet-taco-austin-5?adjust_creative=XXt1Nge7yivmjq1WyN0Lzw&utm_campaign=yelp_api_v3&utm_medium=api_v3_business_search&utm_source=XXt1Nge7yivmjq1WyN0Lzw", "review_count": 501, "categories": [{"alias": "newamerican", "title": "American (New)"}, {"alias": "tacos", "title": "Tacos"}, {"alias": "vegetarian", "title": "Vegetarian"}], "rating": 4.5, "coordinates": {"latitude": 30.267972960323647, "longitude": -97.74317242}, "transactions": ["delivery", "pickup"], "price": "$$", "location": {"address1": "522 Congress Ave", "address2": "Ste 100", "address3": null, "city": "Austin", "zip_code": "78701", "country": "US", "state": "TX", "display_address": ["522 Congress Ave", "Ste 100", "Austin, TX 78701"]}, "phone": "+15122985223", "display_phone": "(512) 298-5223", "distance": 4364.204432442568}, {"id": "g23A-0NiWi8OkEf6mynjAg", "alias": "domo-alley-gato-tatsu-ya-austin", "name": "Domo Alley Gato Tatsu-Ya", "image_url": "https://s3-media3.fl.yelpcdn.com/bphoto/F-ywEWhX1h_yqGLpwA5Wcw/o.jpg", "is_closed": false, "url": "https://www.yelp.com/biz/domo-alley-gato-tatsu-ya-austin?adjust_creative=XXt1Nge7yivmjq1WyN0Lzw&utm_campaign=yelp_api_v3&utm_medium=api_v3_business_search&utm_source=XXt1Nge7yivmjq1WyN0Lzw", "review_count": 121, "categories": [{"alias": "japanese", "title": "Japanese"}], "rating": 4.0, "coordinates": {"latitude": 30.263105516749416, "longitude": -97.7262606294488}, "transactions": ["delivery"], "price": "$$", "location": {"address1": "1606 E 6th St", "address2": "", "address3": null, "city": "Austin", "zip_code": "78702", "country": "US", "state": "TX", "display_address": ["1606 E 6th St", "Austin, TX 78702"]}, "phone": "+15123609770", "display_phone": "(512) 360-9770", "distance": 5566.7639275706015}, {"id": "jmmzYxurOoA_K_RtanzQow", "alias": "paperboy-austin", "name": "Paperboy", "image_url": "https://s3-media4.fl.yelpcdn.com/bphoto/LwboBnmRZiRyAKwhg9e1Ow/o.jpg", "is_closed": false, "url": "https://www.yelp.com/biz/paperboy-austin?adjust_creative=XXt1Nge7yivmjq1WyN0Lzw&utm_campaign=yelp_api_v3&utm_medium=api_v3_business_search&utm_source=XXt1Nge7yivmjq1WyN0Lzw", "review_count": 979, "categories": [{"alias": "coffee", "title": "Coffee & Tea"}, {"alias": "breakfast_brunch", "title": "Breakfast & Brunch"}, {"alias": "newamerican", "title": "American (New)"}], "rating": 4.5, "coordinates": {"latitude": 30.2684012, "longitude": -97.7275558531846}, "transactions": ["delivery"], "price": "$$", "location": {"address1": "1203 E 11th St", "address2": null, "address3": null, "city": "Austin", "zip_code": "78702", "country": "US", "state": "TX", "display_address": ["1203 E 11th St", "Austin, TX 78702"]}, "phone": "+15122709980", "display_phone": "(512) 270-9980", "distance": 5009.239615820726}, {"id": "n2gW29PS20YLdVckye2Fvg", "alias": "mighty-mo-s-austin", "name": "Mighty Mo\u2019s", "image_url": "https://s3-media4.fl.yelpcdn.com/bphoto/syHq5WUohEmvCa8iVyzJRA/o.jpg", "is_closed": false, "url": "https://www.yelp.com/biz/mighty-mo-s-austin?adjust_creative=XXt1Nge7yivmjq1WyN0Lzw&utm_campaign=yelp_api_v3&utm_medium=api_v3_business_search&utm_source=XXt1Nge7yivmjq1WyN0Lzw", "review_count": 18, "categories": [{"alias": "burgers", "title": "Burgers"}], "rating": 4.0, "coordinates": {"latitude": 30.29284, "longitude": -97.741746}, "transactions": ["delivery", "pickup"], "location": {"address1": "2716 1/2 Guadalupe St", "address2": "", "address3": null, "city": "Austin", "zip_code": "78705", "country": "US", "state": "TX", "display_address": ["2716 1/2 Guadalupe St", "Austin, TX 78705"]}, "phone": "", "display_phone": "", "distance": 2051.219563409847}, {"id": "PGDcRlMJPHzVTFq_JhldzQ", "alias": "chicha-san-chen-austin", "name": "Chicha San Chen", "image_url": "https://s3-media3.fl.yelpcdn.com/bphoto/Ud3A3tuJ8TseMnrPcPkZKg/o.jpg", "is_closed": false, "url": "https://www.yelp.com/biz/chicha-san-chen-austin?adjust_creative=XXt1Nge7yivmjq1WyN0Lzw&utm_campaign=yelp_api_v3&utm_medium=api_v3_business_search&utm_source=XXt1Nge7yivmjq1WyN0Lzw", "review_count": 123, "categories": [{"alias": "bubbletea", "title": "Bubble Tea"}], "rating": 4.5, "coordinates": {"latitude": 30.329482557333872, "longitude": -97.7152714434334}, "transactions": [], "price": "$$$", "location": {"address1": "6501 Airport Blvd", "address2": "Ste 100", "address3": "", "city": "Austin", "zip_code": "78752", "country": "US", "state": "TX", "display_address": ["6501 Airport Blvd", "Ste 100", "Austin, TX 78752"]}, "phone": "+15126956868", "display_phone": "(512) 695-6868", "distance": 4890.759136627997}, {"id": "fDKbXHlYKZsI02j6_qBSAA", "alias": "austin-rotisserie-austin", "name": "Austin Rotisserie", "image_url": "https://s3-media2.fl.yelpcdn.com/bphoto/srH2Wh44SOuN2WfI4l6bzQ/o.jpg", "is_closed": false, "url": "https://www.yelp.com/biz/austin-rotisserie-austin?adjust_creative=XXt1Nge7yivmjq1WyN0Lzw&utm_campaign=yelp_api_v3&utm_medium=api_v3_business_search&utm_source=XXt1Nge7yivmjq1WyN0Lzw", "review_count": 166, "categories": [{"alias": "comfortfood", "title": "Comfort Food"}, {"alias": "french", "title": "French"}, {"alias": "sandwiches", "title": "Sandwiches"}], "rating": 4.5, "coordinates": {"latitude": 30.263536, "longitude": -97.7435761}, "transactions": ["delivery", "pickup"], "price": "$", "location": {"address1": "111 Congress Ave", "address2": "P400", "address3": "", "city": "Austin", "zip_code": "78701", "country": "US", "state": "TX", "display_address": ["111 Congress Ave", "P400", "Austin, TX 78701"]}, "phone": "+15123584009", "display_phone": "(512) 358-4009", "distance": 4823.145391791902}, {"id": "3AGDyk6AdnCAxY8Am2XqAw", "alias": "golden-tiger-austin", "name": "Golden Tiger", "image_url": "https://s3-media1.fl.yelpcdn.com/bphoto/KtbW0Z_lbcgEPsq_ympOSQ/o.jpg", "is_closed": false, "url": "https://www.yelp.com/biz/golden-tiger-austin?adjust_creative=XXt1Nge7yivmjq1WyN0Lzw&utm_campaign=yelp_api_v3&utm_medium=api_v3_business_search&utm_source=XXt1Nge7yivmjq1WyN0Lzw", "review_count": 156, "categories": [{"alias": "foodtrucks", "title": "Food Trucks"}, {"alias": "comfortfood", "title": "Comfort Food"}, {"alias": "sandwiches", "title": "Sandwiches"}], "rating": 4.0, "coordinates": {"latitude": 30.261993, "longitude": -97.7226715}, "transactions": ["delivery", "pickup"], "price": "$$", "location": {"address1": "1816 E 6th St", "address2": null, "address3": "", "city": "Austin", "zip_code": "78702", "country": "US", "state": "TX", "display_address": ["1816 E 6th St", "Austin, TX 78702"]}, "phone": "", "display_phone": "", "distance": 5871.193690538522}, {"id": "1Eq16r_MSnvPsnIykBdy9w", "alias": "home-slice-pizza-austin", "name": "Home Slice Pizza", "image_url": "https://s3-media4.fl.yelpcdn.com/bphoto/dO07ENrULZkBnXabnbkQ_g/o.jpg", "is_closed": false, "url": "https://www.yelp.com/biz/home-slice-pizza-austin?adjust_creative=XXt1Nge7yivmjq1WyN0Lzw&utm_campaign=yelp_api_v3&utm_medium=api_v3_business_search&utm_source=XXt1Nge7yivmjq1WyN0Lzw", "review_count": 4600, "categories": [{"alias": "pizza", "title": "Pizza"}, {"alias": "sandwiches", "title": "Sandwiches"}], "rating": 4.5, "coordinates": {"latitude": 30.2492254, "longitude": -97.74955321609524}, "transactions": ["delivery", "pickup"], "price": "$$", "location": {"address1": "1415 S Congress St", "address2": null, "address3": "", "city": "Austin", "zip_code": "78704", "country": "US", "state": "TX", "display_address": ["1415 S Congress St", "Austin, TX 78704"]}, "phone": "+15124447437", "display_phone": "(512) 444-7437", "distance": 6268.4890087128915}, {"id": "P45NurIP2ekDgQDBIyP9IQ", "alias": "sawyer-and-co-austin-2", "name": "Sawyer & Co", "image_url": "https://s3-media3.fl.yelpcdn.com/bphoto/2digKZxjlhAS37M2w3Lqpw/o.jpg", "is_closed": false, "url": "https://www.yelp.com/biz/sawyer-and-co-austin-2?adjust_creative=XXt1Nge7yivmjq1WyN0Lzw&utm_campaign=yelp_api_v3&utm_medium=api_v3_business_search&utm_source=XXt1Nge7yivmjq1WyN0Lzw", "review_count": 929, "categories": [{"alias": "cajun", "title": "Cajun/Creole"}, {"alias": "diners", "title": "Diners"}, {"alias": "seafood", "title": "Seafood"}], "rating": 4.0, "coordinates": {"latitude": 30.2513332366943, "longitude": -97.7017822265625}, "transactions": ["delivery", "pickup", "restaurant_reservation"], "price": "$$", "location": {"address1": "4827 E Cesar Chavez St", "address2": null, "address3": "", "city": "Austin", "zip_code": "78702", "country": "US", "state": "TX", "display_address": ["4827 E Cesar Chavez St", "Austin, TX 78702"]}, "phone": "+15125319033", "display_phone": "(512) 531-9033", "distance": 8034.2069538681735}], "total": 8300, "region": {"center": {"longitude": -97.75772094726562, "latitude": 30.305156315977833}}}