{"businesses": [{"id": "k69U-UwdHLtY_cZW3FldHg", "alias": "virgin-hotels-chicago-chicago-2", "name": "Virgin Hotels Chicago", "image_url": "https://s3-media1.fl.yelpcdn.com/bphoto/g8oyFWa-lIIipuGq7Hos5A/o.jpg", "is_closed": false, "url": "https://www.yelp.com/biz/virgin-hotels-chicago-chicago-2?adjust_creative=pbWTcU6Cnh6ec5O1K-PUAQ&utm_campaign=yelp_api_v3&utm_medium=api_v3_business_search&utm_source=pbWTcU6Cnh6ec5O1K-PUAQ", "review_count": 419, "categories": [{"alias": "hotels", "title": "Hotels"}], "rating": 4.5, "coordinates": {"latitude": 41.88607, "longitude": -87.62603}, "transactions": [], "price": "$$", "location": {"address1": "203 N Wabash Ave", "address2": "", "address3": "", "city": "Chicago", "zip_code": "60601", "country": "US", "state": "IL", "display_address": ["203 N Wabash Ave", "Chicago, IL 60601"]}, "phone": "+13129404400", "display_phone": "(312) 940-4400", "distance": 4781.534459026369}, {"id": "qxBvxtTRxYSvSeMQeus36w", "alias": "wicker-park-inn-chicago", "name": "Wicker Park Inn", "image_url": "https://s3-media1.fl.yelpcdn.com/bphoto/dtYyTTjrya6naRyPKj52aQ/o.jpg", "is_closed": false, "url": "https://www.yelp.com/biz/wicker-park-inn-chicago?adjust_creative=pbWTcU6Cnh6ec5O1K-PUAQ&utm_campaign=yelp_api_v3&utm_medium=api_v3_business_search&utm_source=pbWTcU6Cnh6ec5O1K-PUAQ", "review_count": 99, "categories": [{"alias": "bedbreakfast", "title": "Bed & Breakfast"}], "rating": 4.5, "coordinates": {"latitude": 41.9065904, "longitude": -87.6729054}, "transactions": [], "location": {"address1": "1331 N Wicker Park Ave", "address2": null, "address3": null, "city": "Chicago", "zip_code": "60622", "country": "US", "state": "IL", "display_address": ["1331 N Wicker Park Ave", "Chicago, IL 60622"]}, "phone": "+17734862743", "display_phone": "(773) 486-2743", "distance": 432.4932410117788}, {"id": "kKgcIKF3n8upWsk_LFgm-A", "alias": "fullerton-hotel-chicago", "name": "Fullerton Hotel", "image_url": "https://s3-media2.fl.yelpcdn.com/bphoto/lrX_acuA8rRJ4Y69FyaA3A/o.jpg", "is_closed": false, "url": "https://www.yelp.com/biz/fullerton-hotel-chicago?adjust_creative=pbWTcU6Cnh6ec5O1K-PUAQ&utm_campaign=yelp_api_v3&utm_medium=api_v3_business_search&utm_source=pbWTcU6Cnh6ec5O1K-PUAQ", "review_count": 8, "categories": [{"alias": "hotels", "title": "Hotels"}], "rating": 2.0, "coordinates": {"latitude": 41.9241981506348, "longitude": -87.7251205444336}, "transactions": [], "price": "$$", "location": {"address1": "3919 W Fullerton Ave", "address2": "", "address3": "", "city": "Chicago", "zip_code": "60647", "country": "US", "state": "IL", "display_address": ["3919 W Fullerton Ave", "Chicago, IL 60647"]}, "phone": "+17732272100", "display_phone": "(773) 227-2100", "distance": 4455.130312640663}, {"id": "KpiYA2QRxzVZlvvExWNlTg", "alias": "the-robey-chicago-2", "name": "The Robey", "image_url": "https://s3-media2.fl.yelpcdn.com/bphoto/uHnwGRTUszLcWUGxHaqLQg/o.jpg", "is_closed": false, "url": "https://www.yelp.com/biz/the-robey-chicago-2?adjust_creative=pbWTcU6Cnh6ec5O1K-PUAQ&utm_campaign=yelp_api_v3&utm_medium=api_v3_business_search&utm_source=pbWTcU6Cnh6ec5O1K-PUAQ", "review_count": 175, "categories": [{"alias": "hotels", "title": "Hotels"}], "rating": 3.5, "coordinates": {"latitude": 41.9104848057032, "longitude": -87.6782999932766}, "transactions": [], "price": "$$", "location": {"address1": "2018 W North Ave", "address2": null, "address3": "", "city": "Chicago", "zip_code": "60647", "country": "US", "state": "IL", "display_address": ["2018 W North Ave", "Chicago, IL 60647"]}, "phone": "+18723153050", "display_phone": "(872) 315-3050", "distance": 607.0455080749222}, {"id": "eGHfnQ_KMurxx-PTTdan3g", "alias": "hyatt-place-chicago-wicker-park-chicago", "name": "Hyatt Place Chicago/Wicker Park", "image_url": "https://s3-media4.fl.yelpcdn.com/bphoto/dP9ze9qW1tjrIECCqPo9Ng/o.jpg", "is_closed": false, "url": "https://www.yelp.com/biz/hyatt-place-chicago-wicker-park-chicago?adjust_creative=pbWTcU6Cnh6ec5O1K-PUAQ&utm_campaign=yelp_api_v3&utm_medium=api_v3_business_search&utm_source=pbWTcU6Cnh6ec5O1K-PUAQ", "review_count": 20, "categories": [{"alias": "hotels", "title": "Hotels"}], "rating": 3.5, "coordinates": {"latitude": 41.910385, "longitude": -87.667303}, "transactions": [], "location": {"address1": "1551 W North Ave", "address2": null, "address3": "", "city": "Chicago", "zip_code": "60622", "country": "US", "state": "IL", "display_address": ["1551 W North Ave", "Chicago, IL 60622"]}, "phone": "+17733848280", "display_phone": "(773) 384-8280", "distance": 1043.2947845890083}, {"id": "Z4DStDWFZ7UTnk69rNZ_dA", "alias": "aura-midlothian", "name": "Aura", "image_url": "https://s3-media1.fl.yelpcdn.com/bphoto/X0uLh5NzJ64l0c1pkniAPg/o.jpg", "is_closed": false, "url": "https://www.yelp.com/biz/aura-midlothian?adjust_creative=pbWTcU6Cnh6ec5O1K-PUAQ&utm_campaign=yelp_api_v3&utm_medium=api_v3_business_search&utm_source=pbWTcU6Cnh6ec5O1K-PUAQ", "review_count": 46, "categories": [{"alias": "hotels", "title": "Hotels"}], "rating": 3.5, "coordinates": {"latitude": 41.63018, "longitude": -87.7381}, "transactions": [], "price": "$$", "location": {"address1": "14400 S Cicero Ave", "address2": "", "address3": "", "city": "Midlothian", "zip_code": "60445", "country": "US", "state": "IL", "display_address": ["14400 S Cicero Ave", "Midlothian, IL 60445"]}, "phone": "+17082726000", "display_phone": "(708) 272-6000", "distance": 30979.580984012642}, {"id": "OuGM6kbgZM8eM5LpzKmS0Q", "alias": "moxy-chicago-downtown-chicago", "name": "Moxy Chicago Downtown", "image_url": "https://s3-media4.fl.yelpcdn.com/bphoto/cSzPGdaXipwK3AP9XTgfwA/o.jpg", "is_closed": false, "url": "https://www.yelp.com/biz/moxy-chicago-downtown-chicago?adjust_creative=pbWTcU6Cnh6ec5O1K-PUAQ&utm_campaign=yelp_api_v3&utm_medium=api_v3_business_search&utm_source=pbWTcU6Cnh6ec5O1K-PUAQ", "review_count": 187, "categories": [{"alias": "hotels", "title": "Hotels"}, {"alias": "lounges", "title": "Lounges"}], "rating": 4.5, "coordinates": {"latitude": 41.8917, "longitude": -87.632967}, "transactions": [], "price": "$$", "location": {"address1": "530 North LaSalle Drive", "address2": null, "address3": null, "city": "Chicago", "zip_code": "60654", "country": "US", "state": "IL", "display_address": ["530 North LaSalle Drive", "Chicago, IL 60654"]}, "phone": "+13125277200", "display_phone": "(312) 527-7200", "distance": 3998.378855310825}, {"id": "9zyVPStnDbZS2bP7w7sizw", "alias": "the-peninsula-chicago-chicago", "name": "The Peninsula Chicago", "image_url": "https://s3-media1.fl.yelpcdn.com/bphoto/5O_Ogl_03WNv5gurwq_2kA/o.jpg", "is_closed": false, "url": "https://www.yelp.com/biz/the-peninsula-chicago-chicago?adjust_creative=pbWTcU6Cnh6ec5O1K-PUAQ&utm_campaign=yelp_api_v3&utm_medium=api_v3_business_search&utm_source=pbWTcU6Cnh6ec5O1K-PUAQ", "review_count": 415, "categories": [{"alias": "hotels", "title": "Hotels"}], "rating": 4.5, "coordinates": {"latitude": 41.8962097167969, "longitude": -87.6249465942383}, "transactions": [], "price": "$$$$", "location": {"address1": "108 E Superior St", "address2": "", "address3": "", "city": "Chicago", "zip_code": "60611", "country": "US", "state": "IL", "display_address": ["108 E Superior St", "Chicago, IL 60611"]}, "phone": "+13123372888", "display_phone": "(312) 337-2888", "distance": 4465.584699219231}, {"id": "yThR-_zCYvgZWwEyVEbOWA", "alias": "hampton-inn-majestic-chicago-theatre-district-chicago-2", "name": "Hampton Inn Majestic Chicago Theatre District", "image_url": "https://s3-media4.fl.yelpcdn.com/bphoto/kP4Wt-5-hn_G5W612Bzvtw/o.jpg", "is_closed": false, "url": "https://www.yelp.com/biz/hampton-inn-majestic-chicago-theatre-district-chicago-2?adjust_creative=pbWTcU6Cnh6ec5O1K-PUAQ&utm_campaign=yelp_api_v3&utm_medium=api_v3_business_search&utm_source=pbWTcU6Cnh6ec5O1K-PUAQ", "review_count": 116, "categories": [{"alias": "hotels", "title": "Hotels"}], "rating": 4.0, "coordinates": {"latitude": 41.8808618356457, "longitude": -87.6285865902901}, "transactions": [], "price": "$$", "location": {"address1": "22 W Monroe", "address2": "", "address3": "", "city": "Chicago", "zip_code": "60603", "country": "US", "state": "IL", "display_address": ["22 W Monroe", "Chicago, IL 60603"]}, "phone": "+13123325052", "display_phone": "(312) 332-5052", "distance": 4885.628195152392}, {"id": "NvcPkHTgEKxYIf15QTGvOw", "alias": "sybaris-pool-suites-northbrook", "name": "Sybaris Pool Suites", "image_url": "https://s3-media2.fl.yelpcdn.com/bphoto/EsbNxR4NyOQBEreUPab7pw/o.jpg", "is_closed": false, "url": "https://www.yelp.com/biz/sybaris-pool-suites-northbrook?adjust_creative=pbWTcU6Cnh6ec5O1K-PUAQ&utm_campaign=yelp_api_v3&utm_medium=api_v3_business_search&utm_source=pbWTcU6Cnh6ec5O1K-PUAQ", "review_count": 118, "categories": [{"alias": "hotels", "title": "Hotels"}], "rating": 4.0, "coordinates": {"latitude": 42.092081542434656, "longitude": -87.8761093805528}, "transactions": [], "price": "$$$", "location": {"address1": "3350 Milwaukee Ave", "address2": "", "address3": "", "city": "Northbrook", "zip_code": "60062", "country": "US", "state": "IL", "display_address": ["3350 Milwaukee Ave", "Northbrook, IL 60062"]}, "phone": "+18472985000", "display_phone": "(847) 298-5000", "distance": 26469.777111597163}, {"id": "Y-Oe9v5bztN-CF521NapDQ", "alias": "fairfield-inn-and-suites-by-marriott-chicago-downtown-river-north-chicago", "name": "Fairfield Inn & Suites by Marriott Chicago Downtown/River North", "image_url": "https://s3-media2.fl.yelpcdn.com/bphoto/8IWG9xllJVR4Z34wjS8Y7Q/o.jpg", "is_closed": false, "url": "https://www.yelp.com/biz/fairfield-inn-and-suites-by-marriott-chicago-downtown-river-north-chicago?adjust_creative=pbWTcU6Cnh6ec5O1K-PUAQ&utm_campaign=yelp_api_v3&utm_medium=api_v3_business_search&utm_source=pbWTcU6Cnh6ec5O1K-PUAQ", "review_count": 150, "categories": [{"alias": "hotels", "title": "Hotels"}, {"alias": "venues", "title": "Venues & Event Spaces"}], "rating": 4.5, "coordinates": {"latitude": 41.8910057769053, "longitude": -87.6307229697704}, "transactions": [], "price": "$$", "location": {"address1": "60 West Illinois St", "address2": "", "address3": "", "city": "Chicago", "zip_code": "60654", "country": "US", "state": "IL", "display_address": ["60 West Illinois St", "Chicago, IL 60654"]}, "phone": "+13128361700", "display_phone": "(312) 836-1700", "distance": 4199.520183495521}, {"id": "LB6_v-zTx9VUuY5EkRV6Bw", "alias": "the-guesthouse-hotel-chicago-4", "name": "The Guesthouse Hotel", "image_url": "https://s3-media4.fl.yelpcdn.com/bphoto/1SkE9xgGrmm13jnFA1T2TQ/o.jpg", "is_closed": false, "url": "https://www.yelp.com/biz/the-guesthouse-hotel-chicago-4?adjust_creative=pbWTcU6Cnh6ec5O1K-PUAQ&utm_campaign=yelp_api_v3&utm_medium=api_v3_business_search&utm_source=pbWTcU6Cnh6ec5O1K-PUAQ", "review_count": 51, "categories": [{"alias": "hotels", "title": "Hotels"}], "rating": 5.0, "coordinates": {"latitude": 41.9709396, "longitude": -87.6679077}, "transactions": [], "price": "$$$", "location": {"address1": "4872 N Clark St", "address2": "", "address3": "", "city": "Chicago", "zip_code": "60640", "country": "US", "state": "IL", "display_address": ["4872 N Clark St", "Chicago, IL 60640"]}, "phone": "+17735649568", "display_phone": "(773) 564-9568", "distance": 7359.956921573217}, {"id": "zx8Y6GI_YiIo4xQSbHblEA", "alias": "palmer-house-a-hilton-hotel-chicago-3", "name": "Palmer House a Hilton Hotel", "image_url": "https://s3-media2.fl.yelpcdn.com/bphoto/CRhSeohaE2P5eo6Qag2J6Q/o.jpg", "is_closed": false, "url": "https://www.yelp.com/biz/palmer-house-a-hilton-hotel-chicago-3?adjust_creative=pbWTcU6Cnh6ec5O1K-PUAQ&utm_campaign=yelp_api_v3&utm_medium=api_v3_business_search&utm_source=pbWTcU6Cnh6ec5O1K-PUAQ", "review_count": 1450, "categories": [{"alias": "hotels", "title": "Hotels"}], "rating": 3.0, "coordinates": {"latitude": 41.8803066, "longitude": -87.6267388}, "transactions": [], "price": "$$$", "location": {"address1": "17 E Monroe St", "address2": "", "address3": null, "city": "Chicago", "zip_code": "60603", "country": "US", "state": "IL", "display_address": ["17 E Monroe St", "Chicago, IL 60603"]}, "phone": "+13127267500", "display_phone": "(312) 726-7500", "distance": 5047.326354689233}, {"id": "CYi-6MddHtUj1h3ql8Y1yg", "alias": "shamrock-motel-cicero", "name": "Shamrock Motel", "image_url": "https://s3-media1.fl.yelpcdn.com/bphoto/g08uYfg30yJoWUUKOw4C0A/o.jpg", "is_closed": false, "url": "https://www.yelp.com/biz/shamrock-motel-cicero?adjust_creative=pbWTcU6Cnh6ec5O1K-PUAQ&utm_campaign=yelp_api_v3&utm_medium=api_v3_business_search&utm_source=pbWTcU6Cnh6ec5O1K-PUAQ", "review_count": 9, "categories": [{"alias": "hotels", "title": "Hotels"}], "rating": 2.5, "coordinates": {"latitude": 41.86520722585352, "longitude": -87.7451726}, "transactions": [], "price": "$", "location": {"address1": "1212 S Cicero Ave", "address2": "", "address3": "", "city": "Cicero", "zip_code": "60804", "country": "US", "state": "IL", "display_address": ["1212 S Cicero Ave", "Cicero, IL 60804"]}, "phone": "", "display_phone": "", "distance": 7132.603265057373}, {"id": "PRQGk-UbR7FkUFYvSOiHmA", "alias": "hotel-lincoln-chicago-2", "name": "Hotel Lincoln", "image_url": "https://s3-media1.fl.yelpcdn.com/bphoto/i716lPEfpQZ137EwPZ4d4g/o.jpg", "is_closed": false, "url": "https://www.yelp.com/biz/hotel-lincoln-chicago-2?adjust_creative=pbWTcU6Cnh6ec5O1K-PUAQ&utm_campaign=yelp_api_v3&utm_medium=api_v3_business_search&utm_source=pbWTcU6Cnh6ec5O1K-PUAQ", "review_count": 376, "categories": [{"alias": "hotels", "title": "Hotels"}], "rating": 4.0, "coordinates": {"latitude": 41.9153236, "longitude": -87.6346272}, "transactions": [], "price": "$$", "location": {"address1": "1816 North Clark Street", "address2": "", "address3": "", "city": "Chicago", "zip_code": "60614", "country": "US", "state": "IL", "display_address": ["1816 North Clark Street", "Chicago, IL 60614"]}, "phone": "+13122544700", "display_phone": "(312) 254-4700", "distance": 3744.3094550527653}, {"id": "jB5hGCXamieB073NqNIbaQ", "alias": "regal-inn-franklin-park", "name": "Regal Inn", "image_url": "https://s3-media4.fl.yelpcdn.com/bphoto/pAYsD5vVozJcIw22Gf7Adw/o.jpg", "is_closed": false, "url": "https://www.yelp.com/biz/regal-inn-franklin-park?adjust_creative=pbWTcU6Cnh6ec5O1K-PUAQ&utm_campaign=yelp_api_v3&utm_medium=api_v3_business_search&utm_source=pbWTcU6Cnh6ec5O1K-PUAQ", "review_count": 34, "categories": [{"alias": "hotels", "title": "Hotels"}], "rating": 4.0, "coordinates": {"latitude": 41.92319, "longitude": -87.88507}, "transactions": [], "price": "$", "location": {"address1": "2448 N Mannheim Rd", "address2": "", "address3": "", "city": "Franklin Park", "zip_code": "60131", "country": "US", "state": "IL", "display_address": ["2448 N Mannheim Rd", "Franklin Park, IL 60131"]}, "phone": "+18474550700", "display_phone": "(847) 455-0700", "distance": 17245.85256241659}, {"id": "1DWwkDeY_MSkm0Tf7FhSTQ", "alias": "prestige-club-ambiance-franklin-park", "name": "Prestige Club - Ambiance", "image_url": "https://s3-media4.fl.yelpcdn.com/bphoto/SqxhnSqx5-SRYNA4_gGGtw/o.jpg", "is_closed": false, "url": "https://www.yelp.com/biz/prestige-club-ambiance-franklin-park?adjust_creative=pbWTcU6Cnh6ec5O1K-PUAQ&utm_campaign=yelp_api_v3&utm_medium=api_v3_business_search&utm_source=pbWTcU6Cnh6ec5O1K-PUAQ", "review_count": 33, "categories": [{"alias": "hotels", "title": "Hotels"}], "rating": 3.5, "coordinates": {"latitude": 41.9323, "longitude": -87.88438}, "transactions": [], "price": "$$", "location": {"address1": "2955 Mannheim Rd", "address2": "", "address3": "", "city": "Franklin Park", "zip_code": "60131", "country": "US", "state": "IL", "display_address": ["2955 Mannheim Rd", "Franklin Park, IL 60131"]}, "phone": "+17734638543", "display_phone": "(773) 463-8543", "distance": 17371.04887679653}, {"id": "cR6XWEvbAKoG3tgbigUl5A", "alias": "the-langham-chicago-chicago", "name": "The Langham, Chicago", "image_url": "https://s3-media2.fl.yelpcdn.com/bphoto/cyZ_6zEpsno5G6XmuD4-eg/o.jpg", "is_closed": false, "url": "https://www.yelp.com/biz/the-langham-chicago-chicago?adjust_creative=pbWTcU6Cnh6ec5O1K-PUAQ&utm_campaign=yelp_api_v3&utm_medium=api_v3_business_search&utm_source=pbWTcU6Cnh6ec5O1K-PUAQ", "review_count": 381, "categories": [{"alias": "hotels", "title": "Hotels"}, {"alias": "venues", "title": "Venues & Event Spaces"}], "rating": 4.5, "coordinates": {"latitude": 41.888622652742825, "longitude": -87.62728674473993}, "transactions": [], "price": "$$$$", "location": {"address1": "330 N Wabash Ave", "address2": "", "address3": "", "city": "Chicago", "zip_code": "60611", "country": "US", "state": "IL", "display_address": ["330 N Wabash Ave", "Chicago, IL 60611"]}, "phone": "+13129239988", "display_phone": "(312) 923-9988", "distance": 4564.694791999498}, {"id": "MxIEAAb5q1v22E3fMfw1Rg", "alias": "the-sono-chicago-chicago", "name": "The Sono Chicago", "image_url": "https://s3-media3.fl.yelpcdn.com/bphoto/UvK0S8xS9spVldPr422GNg/o.jpg", "is_closed": false, "url": "https://www.yelp.com/biz/the-sono-chicago-chicago?adjust_creative=pbWTcU6Cnh6ec5O1K-PUAQ&utm_campaign=yelp_api_v3&utm_medium=api_v3_business_search&utm_source=pbWTcU6Cnh6ec5O1K-PUAQ", "review_count": 29, "categories": [{"alias": "bedbreakfast", "title": "Bed & Breakfast"}], "rating": 5.0, "coordinates": {"latitude": 41.9084091186523, "longitude": -87.6412734985352}, "transactions": [], "location": {"address1": "1428 N Cleveland Ave", "address2": null, "address3": "", "city": "Chicago", "zip_code": "60610", "country": "US", "state": "IL", "display_address": ["1428 N Cleveland Ave", "Chicago, IL 60610"]}, "phone": "+13127201857", "display_phone": "(312) 720-1857", "distance": 3040.6997230195766}, {"id": "NieYG-fy0FmZ8bc3d1HDIw", "alias": "roscoe-village-guesthouse-chicago", "name": "Roscoe Village Guesthouse", "image_url": "https://s3-media4.fl.yelpcdn.com/bphoto/Y7Z6vhsXRbHnRqUvbzK4dg/o.jpg", "is_closed": false, "url": "https://www.yelp.com/biz/roscoe-village-guesthouse-chicago?adjust_creative=pbWTcU6Cnh6ec5O1K-PUAQ&utm_campaign=yelp_api_v3&utm_medium=api_v3_business_search&utm_source=pbWTcU6Cnh6ec5O1K-PUAQ", "review_count": 9, "categories": [{"alias": "guesthouses", "title": "Guest Houses"}], "rating": 4.5, "coordinates": {"latitude": 41.9434661865234, "longitude": -87.6812362670898}, "transactions": [], "location": {"address1": "2104 W Roscoe", "address2": null, "address3": "", "city": "Chicago", "zip_code": "60618", "country": "US", "state": "IL", "display_address": ["2104 W Roscoe", "Chicago, IL 60618"]}, "phone": "+17736333567", "display_phone": "(773) 633-3567", "distance": 4258.151757684158}, {"id": "Fr2ZsCrlGG6GABnDXB7HZQ", "alias": "rainbow-motel-chicago-2", "name": "Rainbow Motel", "image_url": "https://s3-media2.fl.yelpcdn.com/bphoto/ROiHIMKD9IR8uwTPB9SXfA/o.jpg", "is_closed": false, "url": "https://www.yelp.com/biz/rainbow-motel-chicago-2?adjust_creative=pbWTcU6Cnh6ec5O1K-PUAQ&utm_campaign=yelp_api_v3&utm_medium=api_v3_business_search&utm_source=pbWTcU6Cnh6ec5O1K-PUAQ", "review_count": 15, "categories": [{"alias": "hotels", "title": "Hotels"}], "rating": 2.5, "coordinates": {"latitude": 41.79229, "longitude": -87.7985}, "transactions": [], "price": "$", "location": {"address1": "7050 W Archer Ave", "address2": "", "address3": "", "city": "Chicago", "zip_code": "60638", "country": "US", "state": "IL", "display_address": ["7050 W Archer Ave", "Chicago, IL 60638"]}, "phone": "+17732290707", "display_phone": "(773) 229-0707", "distance": 16061.868589776632}, {"id": "19TieU26ndFgQe2LmEogug", "alias": "the-hotel-at-midtown-chicago", "name": "The Hotel at Midtown", "image_url": "https://s3-media3.fl.yelpcdn.com/bphoto/oujTONIwSyqvT1fGlpTldA/o.jpg", "is_closed": false, "url": "https://www.yelp.com/biz/the-hotel-at-midtown-chicago?adjust_creative=pbWTcU6Cnh6ec5O1K-PUAQ&utm_campaign=yelp_api_v3&utm_medium=api_v3_business_search&utm_source=pbWTcU6Cnh6ec5O1K-PUAQ", "review_count": 31, "categories": [{"alias": "hotels", "title": "Hotels"}], "rating": 3.5, "coordinates": {"latitude": 41.9255696, "longitude": -87.6792243}, "transactions": [], "location": {"address1": "2444 N Elston Ave", "address2": null, "address3": "", "city": "Chicago", "zip_code": "60647", "country": "US", "state": "IL", "display_address": ["2444 N Elston Ave", "Chicago, IL 60647"]}, "phone": "+17736877600", "display_phone": "(773) 687-7600", "distance": 2272.734503736202}, {"id": "53WwPqgntIdY6GV37pQbWA", "alias": "irving-hotel-chicago", "name": "Irving Hotel", "image_url": "https://s3-media4.fl.yelpcdn.com/bphoto/R5ZFLyuI8voMjhmlAjUrbg/o.jpg", "is_closed": false, "url": "https://www.yelp.com/biz/irving-hotel-chicago?adjust_creative=pbWTcU6Cnh6ec5O1K-PUAQ&utm_campaign=yelp_api_v3&utm_medium=api_v3_business_search&utm_source=pbWTcU6Cnh6ec5O1K-PUAQ", "review_count": 5, "categories": [{"alias": "hotels", "title": "Hotels"}], "rating": 1.0, "coordinates": {"latitude": 41.95309, "longitude": -87.74913}, "transactions": [], "price": "$$", "location": {"address1": "4849 W Irving Park Rd", "address2": "", "address3": "", "city": "Chicago", "zip_code": "60641", "country": "US", "state": "IL", "display_address": ["4849 W Irving Park Rd", "Chicago, IL 60641"]}, "phone": "+17732832300", "display_phone": "(773) 283-2300", "distance": 7966.918870037352}, {"id": "TtOuykYzuZiwoIqjU1RHrg", "alias": "rays-bucktown-b-and-b-chicago-2", "name": "Ray's Bucktown B&B", "image_url": "https://s3-media4.fl.yelpcdn.com/bphoto/24S6k6ihma69pwBm08fo-A/o.jpg", "is_closed": false, "url": "https://www.yelp.com/biz/rays-bucktown-b-and-b-chicago-2?adjust_creative=pbWTcU6Cnh6ec5O1K-PUAQ&utm_campaign=yelp_api_v3&utm_medium=api_v3_business_search&utm_source=pbWTcU6Cnh6ec5O1K-PUAQ", "review_count": 91, "categories": [{"alias": "bedbreakfast", "title": "Bed & Breakfast"}], "rating": 5.0, "coordinates": {"latitude": 41.9212772, "longitude": -87.6829235}, "transactions": [], "location": {"address1": "2144 N Leavitt St", "address2": "", "address3": "", "city": "Chicago", "zip_code": "60647", "country": "US", "state": "IL", "display_address": ["2144 N Leavitt St", "Chicago, IL 60647"]}, "phone": "+17733843245", "display_phone": "(773) 384-3245", "distance": 1842.3627417037144}, {"id": "3u9J_XtYiUSZoCBEwLAATA", "alias": "hampton-inn-chicago-downtown-west-loop-chicago", "name": "Hampton Inn Chicago Downtown West Loop", "image_url": "https://s3-media1.fl.yelpcdn.com/bphoto/tn69IEKfd89dM2yVhwnhew/o.jpg", "is_closed": false, "url": "https://www.yelp.com/biz/hampton-inn-chicago-downtown-west-loop-chicago?adjust_creative=pbWTcU6Cnh6ec5O1K-PUAQ&utm_campaign=yelp_api_v3&utm_medium=api_v3_business_search&utm_source=pbWTcU6Cnh6ec5O1K-PUAQ", "review_count": 48, "categories": [{"alias": "hotels", "title": "Hotels"}], "rating": 4.0, "coordinates": {"latitude": 41.8838435, "longitude": -87.6430652}, "transactions": [], "price": "$$", "location": {"address1": "116 N Jefferson", "address2": null, "address3": "", "city": "Chicago", "zip_code": "60661", "country": "US", "state": "IL", "display_address": ["116 N Jefferson", "Chicago, IL 60661"]}, "phone": "+13126480000", "display_phone": "(312) 648-0000", "distance": 3723.8307156452274}, {"id": "yVk-6pUYgLmQ5xIML8oCNQ", "alias": "soho-house-chicago-chicago", "name": "Soho House Chicago", "image_url": "https://s3-media2.fl.yelpcdn.com/bphoto/7AV494joz9xYj9Xbhnn-Xw/o.jpg", "is_closed": false, "url": "https://www.yelp.com/biz/soho-house-chicago-chicago?adjust_creative=pbWTcU6Cnh6ec5O1K-PUAQ&utm_campaign=yelp_api_v3&utm_medium=api_v3_business_search&utm_source=pbWTcU6Cnh6ec5O1K-PUAQ", "review_count": 249, "categories": [{"alias": "resorts", "title": "Resorts"}, {"alias": "social_clubs", "title": "Social Clubs"}], "rating": 3.5, "coordinates": {"latitude": 41.883765, "longitude": -87.648284}, "transactions": [], "location": {"address1": "113-125 N Green St", "address2": "", "address3": "", "city": "Chicago", "zip_code": "60607", "country": "US", "state": "IL", "display_address": ["113-125 N Green St", "Chicago, IL 60607"]}, "phone": "+13125218000", "display_phone": "(312) 521-8000", "distance": 3407.883200878719}, {"id": "c7Wpx9JGYoL_U7Dujei14g", "alias": "karavan-motel-cicero", "name": "Karavan Motel", "image_url": "https://s3-media4.fl.yelpcdn.com/bphoto/RluPaC8Mj9AQMTizfUt3iQ/o.jpg", "is_closed": false, "url": "https://www.yelp.com/biz/karavan-motel-cicero?adjust_creative=pbWTcU6Cnh6ec5O1K-PUAQ&utm_campaign=yelp_api_v3&utm_medium=api_v3_business_search&utm_source=pbWTcU6Cnh6ec5O1K-PUAQ", "review_count": 4, "categories": [{"alias": "hotels", "title": "Hotels"}], "rating": 3.0, "coordinates": {"latitude": 41.8577299, "longitude": -87.7448299}, "transactions": [], "price": "$", "location": {"address1": "1620 S Cicero Ave", "address2": "", "address3": "", "city": "Cicero", "zip_code": "60804", "country": "US", "state": "IL", "display_address": ["1620 S Cicero Ave", "Cicero, IL 60804"]}, "phone": "+17086564220", "display_phone": "(708) 656-4220", "distance": 7626.866071430146}, {"id": "T_9IQ4nXSacMzrynX3pWJA", "alias": "courtyard-by-marriott-chicago-downtown-magnificent-mile-chicago", "name": "Courtyard by Marriott Chicago Downtown/Magnificent Mile", "image_url": "https://s3-media1.fl.yelpcdn.com/bphoto/jjRamcUQqMZmuYjOrVpyeQ/o.jpg", "is_closed": false, "url": "https://www.yelp.com/biz/courtyard-by-marriott-chicago-downtown-magnificent-mile-chicago?adjust_creative=pbWTcU6Cnh6ec5O1K-PUAQ&utm_campaign=yelp_api_v3&utm_medium=api_v3_business_search&utm_source=pbWTcU6Cnh6ec5O1K-PUAQ", "review_count": 174, "categories": [{"alias": "hotels", "title": "Hotels"}, {"alias": "venues", "title": "Venues & Event Spaces"}], "rating": 4.0, "coordinates": {"latitude": 41.89321, "longitude": -87.6231397}, "transactions": [], "price": "$$", "location": {"address1": "165 East Ontario St", "address2": "", "address3": "", "city": "Chicago", "zip_code": "60611", "country": "US", "state": "IL", "display_address": ["165 East Ontario St", "Chicago, IL 60611"]}, "phone": "+13125730800", "display_phone": "(312) 573-0800", "distance": 4712.237093674277}, {"id": "ueWuuN245R4Dd-W-AvemPg", "alias": "harvey-house-bed-and-breakfast-oak-park", "name": "Harvey House Bed & Breakfast", "image_url": "https://s3-media2.fl.yelpcdn.com/bphoto/TD0LDynkuj6K8ZT7VFKG7A/o.jpg", "is_closed": false, "url": "https://www.yelp.com/biz/harvey-house-bed-and-breakfast-oak-park?adjust_creative=pbWTcU6Cnh6ec5O1K-PUAQ&utm_campaign=yelp_api_v3&utm_medium=api_v3_business_search&utm_source=pbWTcU6Cnh6ec5O1K-PUAQ", "review_count": 35, "categories": [{"alias": "bedbreakfast", "title": "Bed & Breakfast"}], "rating": 4.5, "coordinates": {"latitude": 41.88653, "longitude": -87.78837}, "transactions": [], "location": {"address1": "107 S Scoville Ave", "address2": "", "address3": "", "city": "Oak Park", "zip_code": "60302", "country": "US", "state": "IL", "display_address": ["107 S Scoville Ave", "Oak Park, IL 60302"]}, "phone": "+17088486810", "display_phone": "(708) 848-6810", "distance": 9381.750979691964}, {"id": "OWjKfArezU6MF_xLG40xvg", "alias": "hotel-zachary-chicago-a-tribute-portfolio-hotel-chicago", "name": "Hotel Zachary, Chicago, a Tribute Portfolio Hotel", "image_url": "https://s3-media2.fl.yelpcdn.com/bphoto/tS3uy_2bsXvW7P_lgk3erg/o.jpg", "is_closed": false, "url": "https://www.yelp.com/biz/hotel-zachary-chicago-a-tribute-portfolio-hotel-chicago?adjust_creative=pbWTcU6Cnh6ec5O1K-PUAQ&utm_campaign=yelp_api_v3&utm_medium=api_v3_business_search&utm_source=pbWTcU6Cnh6ec5O1K-PUAQ", "review_count": 93, "categories": [{"alias": "hotels", "title": "Hotels"}, {"alias": "venues", "title": "Venues & Event Spaces"}, {"alias": "sharedofficespaces", "title": "Shared Office Spaces"}], "rating": 4.0, "coordinates": {"latitude": 41.9477481634913, "longitude": -87.6574481835596}, "transactions": [], "price": "$$$", "location": {"address1": "3630 N Clark St", "address2": "", "address3": null, "city": "Chicago", "zip_code": "60613", "country": "US", "state": "IL", "display_address": ["3630 N Clark St", "Chicago, IL 60613"]}, "phone": "+17733022300", "display_phone": "(773) 302-2300", "distance": 5025.093850442187}, {"id": "NxFLZxu2ek8ku70Jkzzy8A", "alias": "axis-chicago-chicago", "name": "Axis Chicago", "image_url": "https://s3-media1.fl.yelpcdn.com/bphoto/0WuBIB51RDS_2MRgsi8MiA/o.jpg", "is_closed": false, "url": "https://www.yelp.com/biz/axis-chicago-chicago?adjust_creative=pbWTcU6Cnh6ec5O1K-PUAQ&utm_campaign=yelp_api_v3&utm_medium=api_v3_business_search&utm_source=pbWTcU6Cnh6ec5O1K-PUAQ", "review_count": 24, "categories": [{"alias": "hotels", "title": "Hotels"}], "rating": 3.0, "coordinates": {"latitude": 41.795804, "longitude": -87.72321}, "transactions": [], "location": {"address1": "5335 S Pulaski Ave", "address2": "", "address3": null, "city": "Chicago", "zip_code": "60632", "country": "US", "state": "IL", "display_address": ["5335 S Pulaski Ave", "Chicago, IL 60632"]}, "phone": "+17734638543", "display_phone": "(773) 463-8543", "distance": 12729.011354100297}, {"id": "M3r_Onu-yti9119QqGdczQ", "alias": "crossroads-hotel-chicago", "name": "Crossroads Hotel", "image_url": "https://s3-media3.fl.yelpcdn.com/bphoto/CoUyimcxKte5-7jFyW5JzA/o.jpg", "is_closed": false, "url": "https://www.yelp.com/biz/crossroads-hotel-chicago?adjust_creative=pbWTcU6Cnh6ec5O1K-PUAQ&utm_campaign=yelp_api_v3&utm_medium=api_v3_business_search&utm_source=pbWTcU6Cnh6ec5O1K-PUAQ", "review_count": 3, "categories": [{"alias": "hotels", "title": "Hotels"}], "rating": 2.5, "coordinates": {"latitude": 41.796955, "longitude": -87.723793}, "transactions": [], "price": "$", "location": {"address1": "5300 S Pulaski Rd", "address2": "", "address3": "", "city": "Chicago", "zip_code": "60632", "country": "US", "state": "IL", "display_address": ["5300 S Pulaski Rd", "Chicago, IL 60632"]}, "phone": "+17735811188", "display_phone": "(773) 581-1188", "distance": 12594.107095484973}, {"id": "moU9OlQ0tC6AR9Tiivr6Vw", "alias": "rodeway-inn-chicago", "name": "Rodeway Inn", "image_url": "https://s3-media2.fl.yelpcdn.com/bphoto/PY6QgW3julR40Yh3Exn8Ng/o.jpg", "is_closed": false, "url": "https://www.yelp.com/biz/rodeway-inn-chicago?adjust_creative=pbWTcU6Cnh6ec5O1K-PUAQ&utm_campaign=yelp_api_v3&utm_medium=api_v3_business_search&utm_source=pbWTcU6Cnh6ec5O1K-PUAQ", "review_count": 16, "categories": [{"alias": "hotels", "title": "Hotels"}], "rating": 1.5, "coordinates": {"latitude": 41.9891938134794, "longitude": -87.7059817314148}, "transactions": [], "price": "$$", "location": {"address1": "5952 North Lincoln Ave", "address2": "", "address3": "", "city": "Chicago", "zip_code": "60659", "country": "US", "state": "IL", "display_address": ["5952 North Lincoln Ave", "Chicago, IL 60659"]}, "phone": "+17737841118", "display_phone": "(773) 784-1118", "distance": 9631.192787477194}, {"id": "DZ4lM8OHFK9gAdLffFWlTA", "alias": "the-leavitt-street-inn-and-tavern-chicago", "name": "The Leavitt Street Inn & Tavern", "image_url": "https://s3-media2.fl.yelpcdn.com/bphoto/NTFPOvFaGLwuiKrcf7xfXQ/o.jpg", "is_closed": false, "url": "https://www.yelp.com/biz/the-leavitt-street-inn-and-tavern-chicago?adjust_creative=pbWTcU6Cnh6ec5O1K-PUAQ&utm_campaign=yelp_api_v3&utm_medium=api_v3_business_search&utm_source=pbWTcU6Cnh6ec5O1K-PUAQ", "review_count": 51, "categories": [{"alias": "bedbreakfast", "title": "Bed & Breakfast"}, {"alias": "beerbar", "title": "Beer Bar"}], "rating": 4.5, "coordinates": {"latitude": 41.924083, "longitude": -87.682524}, "transactions": ["delivery"], "price": "$$", "location": {"address1": "2345 N Leavitt St", "address2": "", "address3": null, "city": "Chicago", "zip_code": "60647", "country": "US", "state": "IL", "display_address": ["2345 N Leavitt St", "Chicago, IL 60647"]}, "phone": "+17736619639", "display_phone": "(773) 661-9639", "distance": 2140.75246101724}, {"id": "Y3uQTFHsxH3yfLnEwoTH4A", "alias": "the-publishing-house-bed-and-breakfast-chicago", "name": "The Publishing House Bed and Breakfast", "image_url": "https://s3-media2.fl.yelpcdn.com/bphoto/Ek4tOKnmF7Z2C2vDjwXZDQ/o.jpg", "is_closed": false, "url": "https://www.yelp.com/biz/the-publishing-house-bed-and-breakfast-chicago?adjust_creative=pbWTcU6Cnh6ec5O1K-PUAQ&utm_campaign=yelp_api_v3&utm_medium=api_v3_business_search&utm_source=pbWTcU6Cnh6ec5O1K-PUAQ", "review_count": 24, "categories": [{"alias": "bedbreakfast", "title": "Bed & Breakfast"}], "rating": 5.0, "coordinates": {"latitude": 41.883246, "longitude": -87.6556949}, "transactions": [], "location": {"address1": "108 N May St", "address2": "", "address3": null, "city": "Chicago", "zip_code": "60607", "country": "US", "state": "IL", "display_address": ["108 N May St", "Chicago, IL 60607"]}, "phone": "+13125545857", "display_phone": "(312) 554-5857", "distance": 3034.0505421441126}, {"id": "owBpVm_c1I9S3HkOvvuscA", "alias": "norford-hotel-chicago", "name": "Norford Hotel", "image_url": "https://s3-media2.fl.yelpcdn.com/bphoto/ZqKlMm4GP1AjNGiIUQ2FIw/o.jpg", "is_closed": false, "url": "https://www.yelp.com/biz/norford-hotel-chicago?adjust_creative=pbWTcU6Cnh6ec5O1K-PUAQ&utm_campaign=yelp_api_v3&utm_medium=api_v3_business_search&utm_source=pbWTcU6Cnh6ec5O1K-PUAQ", "review_count": 5, "categories": [{"alias": "hotels", "title": "Hotels"}], "rating": 3.0, "coordinates": {"latitude": 41.90844, "longitude": -87.7268}, "transactions": [], "price": "$", "location": {"address1": "1508 N Pulaski Rd", "address2": "", "address3": "", "city": "Chicago", "zip_code": "60651", "country": "US", "state": "IL", "display_address": ["1508 N Pulaski Rd", "Chicago, IL 60651"]}, "phone": "+17732351202", "display_phone": "(773) 235-1202", "distance": 4071.2964236450407}, {"id": "fH7EwQ9j_Ab1NJNYMoHA3w", "alias": "thewit-a-hilton-hotel-chicago", "name": "theWit Chicago, a Hilton Hotel", "image_url": "https://s3-media1.fl.yelpcdn.com/bphoto/lik4X5rpd0ESL_qtcYuNPw/o.jpg", "is_closed": false, "url": "https://www.yelp.com/biz/thewit-a-hilton-hotel-chicago?adjust_creative=pbWTcU6Cnh6ec5O1K-PUAQ&utm_campaign=yelp_api_v3&utm_medium=api_v3_business_search&utm_source=pbWTcU6Cnh6ec5O1K-PUAQ", "review_count": 565, "categories": [{"alias": "hotels", "title": "Hotels"}], "rating": 4.0, "coordinates": {"latitude": 41.88599690799339, "longitude": -87.6276233}, "transactions": [], "price": "$$$", "location": {"address1": "201 N State St", "address2": "", "address3": "", "city": "Chicago", "zip_code": "60601", "country": "US", "state": "IL", "display_address": ["201 N State St", "Chicago, IL 60601"]}, "phone": "+13124670200", "display_phone": "(312) 467-0200", "distance": 4665.205676075655}, {"id": "sRGj5P3_rAcnSmjQzP_UYA", "alias": "casa-de-la-schoeny-chicago", "name": "Casa De La Schoeny", "image_url": "", "is_closed": false, "url": "https://www.yelp.com/biz/casa-de-la-schoeny-chicago?adjust_creative=pbWTcU6Cnh6ec5O1K-PUAQ&utm_campaign=yelp_api_v3&utm_medium=api_v3_business_search&utm_source=pbWTcU6Cnh6ec5O1K-PUAQ", "review_count": 1, "categories": [{"alias": "hotels", "title": "Hotels"}], "rating": 5.0, "coordinates": {"latitude": 41.91452499354881, "longitude": -87.6712514}, "transactions": [], "location": {"address1": "1807 N Hermitage Ave", "address2": "", "address3": null, "city": "Chicago", "zip_code": "60622", "country": "US", "state": "IL", "display_address": ["1807 N Hermitage Ave", "Chicago, IL 60622"]}, "phone": "", "display_phone": "", "distance": 1172.6363329322128}, {"id": "NYvbvJdjhuCUfC-T7jRgvg", "alias": "gateway-inn-oak-lawn-2", "name": "Gateway Inn", "image_url": "https://s3-media1.fl.yelpcdn.com/bphoto/5TuyLRtqjwBCYB0x3oJQ_Q/o.jpg", "is_closed": false, "url": "https://www.yelp.com/biz/gateway-inn-oak-lawn-2?adjust_creative=pbWTcU6Cnh6ec5O1K-PUAQ&utm_campaign=yelp_api_v3&utm_medium=api_v3_business_search&utm_source=pbWTcU6Cnh6ec5O1K-PUAQ", "review_count": 21, "categories": [{"alias": "hotels", "title": "Hotels"}], "rating": 4.0, "coordinates": {"latitude": 41.71985, "longitude": -87.7375}, "transactions": [], "price": "$", "location": {"address1": "4657 W 95th St", "address2": "", "address3": "", "city": "Oak Lawn", "zip_code": "60453", "country": "US", "state": "IL", "display_address": ["4657 W 95th St", "Oak Lawn, IL 60453"]}, "phone": "+17084234330", "display_phone": "(708) 423-4330", "distance": 21187.402962555072}, {"id": "mGYPU1IkLIfJ5S_03BI-Cw", "alias": "casa-de-shafar-chicago-2", "name": "Casa de Shafar", "image_url": "", "is_closed": false, "url": "https://www.yelp.com/biz/casa-de-shafar-chicago-2?adjust_creative=pbWTcU6Cnh6ec5O1K-PUAQ&utm_campaign=yelp_api_v3&utm_medium=api_v3_business_search&utm_source=pbWTcU6Cnh6ec5O1K-PUAQ", "review_count": 5, "categories": [{"alias": "hotels", "title": "Hotels"}], "rating": 3.5, "coordinates": {"latitude": 41.9174102693796, "longitude": -87.706960067153}, "transactions": [], "price": "$", "location": {"address1": "Kedzie And Armitage", "address2": "", "address3": "", "city": "Chicago", "zip_code": "60647", "country": "US", "state": "IL", "display_address": ["Kedzie And Armitage", "Chicago, IL 60647"]}, "phone": "", "display_phone": "", "distance": 2768.6021026622248}], "total": 679, "region": {"center": {"longitude": -87.67776489257812, "latitude": 41.90515925618311}}}