{"businesses": [{"id": "qbt9LeiJJZVJ5dp43yJDlQ", "alias": "mister-o1-dallas-dallas-3", "name": "Mister O1 Dallas", "image_url": "https://s3-media3.fl.yelpcdn.com/bphoto/871OqV6twXoaPX94T8DCIA/o.jpg", "is_closed": false, "url": "https://www.yelp.com/biz/mister-o1-dallas-dallas-3?adjust_creative=p8ZmzrMnEc-h1IE5NUGjPA&utm_campaign=yelp_api_v3&utm_medium=api_v3_business_search&utm_source=p8ZmzrMnEc-h1IE5NUGjPA", "review_count": 239, "categories": [{"alias": "pizza", "title": "Pizza"}, {"alias": "italian", "title": "Italian"}, {"alias": "salad", "title": "Salad"}], "rating": 4.5, "coordinates": {"latitude": 32.81448082396739, "longitude": -96.8014862}, "transactions": [], "price": "$$", "location": {"address1": "3838 Oak Lawn Ave", "address2": "Ste P175", "address3": "", "city": "Dallas", "zip_code": "75219", "country": "US", "state": "TX", "display_address": ["3838 Oak Lawn Ave", "Ste P175", "Dallas, TX 75219"]}, "phone": "+12144324434", "display_phone": "(214) 432-4434", "distance": 2732.679310955061}, {"id": "bPSOKiR5naMHfx0myab8qQ", "alias": "hungry-belly-dallas", "name": "Hungry Belly", "image_url": "https://s3-media1.fl.yelpcdn.com/bphoto/7PqgHJ18TjANp0olJpHE2w/o.jpg", "is_closed": false, "url": "https://www.yelp.com/biz/hungry-belly-dallas?adjust_creative=p8ZmzrMnEc-h1IE5NUGjPA&utm_campaign=yelp_api_v3&utm_medium=api_v3_business_search&utm_source=p8ZmzrMnEc-h1IE5NUGjPA", "review_count": 497, "categories": [{"alias": "japanese", "title": "Japanese"}, {"alias": "korean", "title": "Korean"}, {"alias": "sushi", "title": "Sushi Bars"}], "rating": 4.5, "coordinates": {"latitude": 32.815481, "longitude": -96.787098616813}, "transactions": ["pickup", "delivery"], "price": "$$", "location": {"address1": "2818 N Fitzhugh Ave", "address2": "", "address3": null, "city": "Dallas", "zip_code": "75204", "country": "US", "state": "TX", "display_address": ["2818 N Fitzhugh Ave", "Dallas, TX 75204"]}, "phone": "+12142585859", "display_phone": "(214) 258-5859", "distance": 2905.3794452394964}, {"id": "tOUH_bPXLvLUzVADj-hc0w", "alias": "naminohana-dallas", "name": "Naminohana", "image_url": "https://s3-media1.fl.yelpcdn.com/bphoto/9N4HbredtGK3Jec1NDtYwA/o.jpg", "is_closed": false, "url": "https://www.yelp.com/biz/naminohana-dallas?adjust_creative=p8ZmzrMnEc-h1IE5NUGjPA&utm_campaign=yelp_api_v3&utm_medium=api_v3_business_search&utm_source=p8ZmzrMnEc-h1IE5NUGjPA", "review_count": 43, "categories": [{"alias": "sushi", "title": "Sushi Bars"}, {"alias": "japanese", "title": "Japanese"}], "rating": 4.5, "coordinates": {"latitude": 32.853738, "longitude": -96.769842}, "transactions": [], "location": {"address1": "5521 Greenville Ave", "address2": "Ste 11", "address3": null, "city": "Dallas", "zip_code": "75206", "country": "US", "state": "TX", "display_address": ["5521 Greenville Ave", "Ste 11", "Dallas, TX 75206"]}, "phone": "+14693720419", "display_phone": "(469) 372-0419", "distance": 3295.1392385388967}, {"id": "dodK8kddOJErYt3pPJJ3Dg", "alias": "moriya-shokudo-dallas", "name": "Moriya Shokudo", "image_url": "https://s3-media2.fl.yelpcdn.com/bphoto/eXvzVUsKk2uColgW6PBr5Q/o.jpg", "is_closed": false, "url": "https://www.yelp.com/biz/moriya-shokudo-dallas?adjust_creative=p8ZmzrMnEc-h1IE5NUGjPA&utm_campaign=yelp_api_v3&utm_medium=api_v3_business_search&utm_source=p8ZmzrMnEc-h1IE5NUGjPA", "review_count": 26, "categories": [{"alias": "food_court", "title": "Food Court"}, {"alias": "ramen", "title": "Ramen"}, {"alias": "japacurry", "title": "Japanese Curry"}], "rating": 5.0, "coordinates": {"latitude": 32.8975, "longitude": -96.89029}, "transactions": [], "price": "$$", "location": {"address1": "11422 Harry Hines Blvd", "address2": "Ste 210", "address3": "", "city": "Dallas", "zip_code": "75229", "country": "US", "state": "TX", "display_address": ["11422 Harry Hines Blvd", "Ste 210", "Dallas, TX 75229"]}, "phone": "", "display_phone": "", "distance": 10590.047539710642}, {"id": "ycL1qii6EpKXoLgMMboBIQ", "alias": "pecan-lodge-dallas-3", "name": "Pecan Lodge", "image_url": "https://s3-media2.fl.yelpcdn.com/bphoto/8g7yxWYnCgj-T2BBMzW-Ag/o.jpg", "is_closed": false, "url": "https://www.yelp.com/biz/pecan-lodge-dallas-3?adjust_creative=p8ZmzrMnEc-h1IE5NUGjPA&utm_campaign=yelp_api_v3&utm_medium=api_v3_business_search&utm_source=p8ZmzrMnEc-h1IE5NUGjPA", "review_count": 6428, "categories": [{"alias": "sandwiches", "title": "Sandwiches"}, {"alias": "bbq", "title": "Barbeque"}, {"alias": "southern", "title": "Southern"}], "rating": 4.5, "coordinates": {"latitude": 32.78371943063679, "longitude": -96.78386072987722}, "transactions": ["delivery"], "price": "$$", "location": {"address1": "2702 Main St", "address2": "", "address3": "", "city": "Dallas", "zip_code": "75226", "country": "US", "state": "TX", "display_address": ["2702 Main St", "Dallas, TX 75226"]}, "phone": "+12147488900", "display_phone": "(214) 748-8900", "distance": 6346.090814739491}, {"id": "tOchv3-CghlPrAWijRn65w", "alias": "margarets-dallas-3", "name": "Margaret's", "image_url": "https://s3-media4.fl.yelpcdn.com/bphoto/uCdeFRqkdNDXjBBrHitm8A/o.jpg", "is_closed": false, "url": "https://www.yelp.com/biz/margarets-dallas-3?adjust_creative=p8ZmzrMnEc-h1IE5NUGjPA&utm_campaign=yelp_api_v3&utm_medium=api_v3_business_search&utm_source=p8ZmzrMnEc-h1IE5NUGjPA", "review_count": 5, "categories": [{"alias": "bars", "title": "Bars"}, {"alias": "breakfast_brunch", "title": "Breakfast & Brunch"}, {"alias": "newamerican", "title": "American (New)"}], "rating": 4.5, "coordinates": {"latitude": 32.787073, "longitude": -96.798564}, "transactions": [], "location": {"address1": "800 N Harwood St", "address2": null, "address3": "", "city": "Dallas", "zip_code": "75201", "country": "US", "state": "TX", "display_address": ["800 N Harwood St", "Dallas, TX 75201"]}, "phone": "+12147367760", "display_phone": "(214) 736-7760", "distance": 5813.353718937979}, {"id": "_m82_xIX_7WL4MQfw7CA5Q", "alias": "mikes-chicken-dallas", "name": "Mike's Chicken", "image_url": "https://s3-media2.fl.yelpcdn.com/bphoto/ELJBa0f50Z6Xq2i_C7TVZg/o.jpg", "is_closed": false, "url": "https://www.yelp.com/biz/mikes-chicken-dallas?adjust_creative=p8ZmzrMnEc-h1IE5NUGjPA&utm_campaign=yelp_api_v3&utm_medium=api_v3_business_search&utm_source=p8ZmzrMnEc-h1IE5NUGjPA", "review_count": 1649, "categories": [{"alias": "chickenshop", "title": "Chicken Shop"}], "rating": 4.5, "coordinates": {"latitude": 32.808448, "longitude": -96.818527}, "transactions": ["delivery"], "price": "$$", "location": {"address1": "4234 Maple Ave", "address2": null, "address3": "", "city": "Dallas", "zip_code": "75219", "country": "US", "state": "TX", "display_address": ["4234 Maple Ave", "Dallas, TX 75219"]}, "phone": "+12144437822", "display_phone": "(214) 443-7822", "distance": 3791.4793164707935}, {"id": "G8nrtlo66fKnoWyrZ4pFSQ", "alias": "plomo-quesadilla-bar-dallas", "name": "Plomo Quesadilla Bar", "image_url": "https://s3-media1.fl.yelpcdn.com/bphoto/YM7NGOr3p9xW9JJxBq3MVw/o.jpg", "is_closed": false, "url": "https://www.yelp.com/biz/plomo-quesadilla-bar-dallas?adjust_creative=p8ZmzrMnEc-h1IE5NUGjPA&utm_campaign=yelp_api_v3&utm_medium=api_v3_business_search&utm_source=p8ZmzrMnEc-h1IE5NUGjPA", "review_count": 9, "categories": [{"alias": "mexican", "title": "Mexican"}, {"alias": "bars", "title": "Bars"}], "rating": 4.0, "coordinates": {"latitude": 32.81166219495462, "longitude": -96.7745424}, "transactions": [], "location": {"address1": "1802 McMillan Ave", "address2": "", "address3": null, "city": "Dallas", "zip_code": "75206", "country": "US", "state": "TX", "display_address": ["1802 McMillan Ave", "Dallas, TX 75206"]}, "phone": "", "display_phone": "", "distance": 3894.8310664388623}, {"id": "BmX-t6hhACCc60h0jhj2XA", "alias": "k-pop-ramen-dallas", "name": "K Pop Ramen", "image_url": "https://s3-media2.fl.yelpcdn.com/bphoto/ngLT0V2FeBjpu3qPYMkx5g/o.jpg", "is_closed": false, "url": "https://www.yelp.com/biz/k-pop-ramen-dallas?adjust_creative=p8ZmzrMnEc-h1IE5NUGjPA&utm_campaign=yelp_api_v3&utm_medium=api_v3_business_search&utm_source=p8ZmzrMnEc-h1IE5NUGjPA", "review_count": 346, "categories": [{"alias": "ramen", "title": "Ramen"}, {"alias": "korean", "title": "Korean"}], "rating": 4.5, "coordinates": {"latitude": 32.825176, "longitude": -96.819912}, "transactions": ["pickup", "delivery"], "price": "$$", "location": {"address1": "5150 Lemmon Ave", "address2": "Ste 104", "address3": "", "city": "Dallas", "zip_code": "75209", "country": "US", "state": "TX", "display_address": ["5150 Lemmon Ave", "Ste 104", "Dallas, TX 75209"]}, "phone": "+19726853033", "display_phone": "(972) 685-3033", "distance": 2382.275088488905}, {"id": "L5j_40WApWfn2O6Wn3Oyxg", "alias": "pho-vietz-dallas", "name": "Pho Vietz", "image_url": "https://s3-media3.fl.yelpcdn.com/bphoto/hf-7HYh3B0QvqeNvuEmfMw/o.jpg", "is_closed": false, "url": "https://www.yelp.com/biz/pho-vietz-dallas?adjust_creative=p8ZmzrMnEc-h1IE5NUGjPA&utm_campaign=yelp_api_v3&utm_medium=api_v3_business_search&utm_source=p8ZmzrMnEc-h1IE5NUGjPA", "review_count": 30, "categories": [{"alias": "vietnamese", "title": "Vietnamese"}], "rating": 4.5, "coordinates": {"latitude": 32.81518, "longitude": -96.82769}, "transactions": ["pickup", "delivery"], "location": {"address1": "4906 Maple Ave", "address2": "", "address3": null, "city": "Dallas", "zip_code": "75235", "country": "US", "state": "TX", "display_address": ["4906 Maple Ave", "Dallas, TX 75235"]}, "phone": "+12146436602", "display_phone": "(214) 643-6602", "distance": 3676.322616581001}, {"id": "sqhaTs9xc3G8OWHihGBipQ", "alias": "terry-blacks-barbecue-dallas", "name": "Terry Black's Barbecue", "image_url": "https://s3-media1.fl.yelpcdn.com/bphoto/LD-QPzuIYHyHaOCdc3W39A/o.jpg", "is_closed": false, "url": "https://www.yelp.com/biz/terry-blacks-barbecue-dallas?adjust_creative=p8ZmzrMnEc-h1IE5NUGjPA&utm_campaign=yelp_api_v3&utm_medium=api_v3_business_search&utm_source=p8ZmzrMnEc-h1IE5NUGjPA", "review_count": 1823, "categories": [{"alias": "bbq", "title": "Barbeque"}], "rating": 4.5, "coordinates": {"latitude": 32.78488, "longitude": -96.77984}, "transactions": ["delivery"], "price": "$$", "location": {"address1": "3025 Main St", "address2": null, "address3": "", "city": "Dallas", "zip_code": "75226", "country": "US", "state": "TX", "display_address": ["3025 Main St", "Dallas, TX 75226"]}, "phone": "+14693990081", "display_phone": "(469) 399-0081", "distance": 6322.907117103936}, {"id": "bULVB0Q87mn4u2sNPjXTTQ", "alias": "rodeo-goat-dallas", "name": "Rodeo Goat", "image_url": "https://s3-media2.fl.yelpcdn.com/bphoto/voAJ36ryei1TMVg7wFCFoQ/o.jpg", "is_closed": false, "url": "https://www.yelp.com/biz/rodeo-goat-dallas?adjust_creative=p8ZmzrMnEc-h1IE5NUGjPA&utm_campaign=yelp_api_v3&utm_medium=api_v3_business_search&utm_source=p8ZmzrMnEc-h1IE5NUGjPA", "review_count": 2769, "categories": [{"alias": "burgers", "title": "Burgers"}, {"alias": "beerbar", "title": "Beer Bar"}], "rating": 4.5, "coordinates": {"latitude": 32.7971504231268, "longitude": -96.8239863214264}, "transactions": ["delivery"], "price": "$$", "location": {"address1": "1926 Market Center Blvd", "address2": "", "address3": "", "city": "Dallas", "zip_code": "75207", "country": "US", "state": "TX", "display_address": ["1926 Market Center Blvd", "Dallas, TX 75207"]}, "phone": "+12147414628", "display_phone": "(214) 741-4628", "distance": 5147.945817852955}, {"id": "NHWU88c4bl08C8kgCdJP9g", "alias": "waya-japanese-izakaya-dallas", "name": "WAYA Japanese Izakaya", "image_url": "https://s3-media4.fl.yelpcdn.com/bphoto/0HA2MA9eSvFraC31Stf5bA/o.jpg", "is_closed": false, "url": "https://www.yelp.com/biz/waya-japanese-izakaya-dallas?adjust_creative=p8ZmzrMnEc-h1IE5NUGjPA&utm_campaign=yelp_api_v3&utm_medium=api_v3_business_search&utm_source=p8ZmzrMnEc-h1IE5NUGjPA", "review_count": 157, "categories": [{"alias": "japanese", "title": "Japanese"}], "rating": 4.5, "coordinates": {"latitude": 32.813083, "longitude": -96.753458}, "transactions": ["pickup", "delivery"], "price": "$$", "location": {"address1": "6334 Gaston Ave", "address2": null, "address3": "", "city": "Dallas", "zip_code": "75214", "country": "US", "state": "TX", "display_address": ["6334 Gaston Ave", "Dallas, TX 75214"]}, "phone": "+19729822103", "display_phone": "(972) 982-2103", "distance": 5267.947845253417}, {"id": "6OwBsAJzsKkNNj0_JVP8vw", "alias": "joa-korean-bbq-dallas-4", "name": "JOA Korean BBQ", "image_url": "https://s3-media3.fl.yelpcdn.com/bphoto/s8upMKNee1BJe54k0kGVBw/o.jpg", "is_closed": false, "url": "https://www.yelp.com/biz/joa-korean-bbq-dallas-4?adjust_creative=p8ZmzrMnEc-h1IE5NUGjPA&utm_campaign=yelp_api_v3&utm_medium=api_v3_business_search&utm_source=p8ZmzrMnEc-h1IE5NUGjPA", "review_count": 96, "categories": [{"alias": "korean", "title": "Korean"}, {"alias": "cocktailbars", "title": "Cocktail Bars"}, {"alias": "bbq", "title": "Barbeque"}], "rating": 4.5, "coordinates": {"latitude": 32.895041, "longitude": -96.90246}, "transactions": ["restaurant_reservation"], "location": {"address1": "2254 Royal Ln", "address2": null, "address3": "", "city": "Dallas", "zip_code": "75229", "country": "US", "state": "TX", "display_address": ["2254 Royal Ln", "Dallas, TX 75229"]}, "phone": "+19722413900", "display_phone": "(972) 241-3900", "distance": 11378.819043687728}, {"id": "gsHF1u6AQGm69AXGw0c8zw", "alias": "palmers-dallas", "name": "Palmer's", "image_url": "https://s3-media2.fl.yelpcdn.com/bphoto/R3v3A_APTPlcO4ru2ZsuBA/o.jpg", "is_closed": false, "url": "https://www.yelp.com/biz/palmers-dallas?adjust_creative=p8ZmzrMnEc-h1IE5NUGjPA&utm_campaign=yelp_api_v3&utm_medium=api_v3_business_search&utm_source=p8ZmzrMnEc-h1IE5NUGjPA", "review_count": 323, "categories": [{"alias": "southern", "title": "Southern"}, {"alias": "comfortfood", "title": "Comfort Food"}, {"alias": "foodtrucks", "title": "Food Trucks"}], "rating": 4.5, "coordinates": {"latitude": 32.83792397323037, "longitude": -96.75208473475357}, "transactions": ["pickup", "delivery"], "price": "$$", "location": {"address1": "6465 E Mockingbird Ln", "address2": "Ste 316", "address3": "", "city": "Dallas", "zip_code": "75214", "country": "US", "state": "TX", "display_address": ["6465 E Mockingbird Ln", "Ste 316", "Dallas, TX 75214"]}, "phone": "+19728639366", "display_phone": "(972) 863-9366", "distance": 4528.430528807112}, {"id": "vwQnJlj90NgYbbbVLQSpFg", "alias": "meso-maya-comida-y-copas-dallas-4", "name": "Meso Maya Comida y Copas", "image_url": "https://s3-media4.fl.yelpcdn.com/bphoto/sS9Kbv6MhULgVJJ5UAINJw/o.jpg", "is_closed": false, "url": "https://www.yelp.com/biz/meso-maya-comida-y-copas-dallas-4?adjust_creative=p8ZmzrMnEc-h1IE5NUGjPA&utm_campaign=yelp_api_v3&utm_medium=api_v3_business_search&utm_source=p8ZmzrMnEc-h1IE5NUGjPA", "review_count": 2951, "categories": [{"alias": "mexican", "title": "Mexican"}, {"alias": "newmexican", "title": "New Mexican Cuisine"}, {"alias": "cocktailbars", "title": "Cocktail Bars"}], "rating": 4.5, "coordinates": {"latitude": 32.787751, "longitude": -96.8047241}, "transactions": ["pickup", "delivery"], "price": "$$", "location": {"address1": "1611 Mckinney Ave", "address2": "", "address3": "", "city": "Dallas", "zip_code": "75202", "country": "US", "state": "TX", "display_address": ["1611 Mckinney Ave", "Dallas, TX 75202"]}, "phone": "+12144846555", "display_phone": "(214) 484-6555", "distance": 5716.8637604608}, {"id": "g9UHbRjWqI-319xuxSyEQg", "alias": "fortune-house-dallas", "name": "Fortune House", "image_url": "https://s3-media4.fl.yelpcdn.com/bphoto/WRB-h5O-AGjpnlLiewwHbQ/o.jpg", "is_closed": false, "url": "https://www.yelp.com/biz/fortune-house-dallas?adjust_creative=p8ZmzrMnEc-h1IE5NUGjPA&utm_campaign=yelp_api_v3&utm_medium=api_v3_business_search&utm_source=p8ZmzrMnEc-h1IE5NUGjPA", "review_count": 176, "categories": [{"alias": "chinese", "title": "Chinese"}], "rating": 3.5, "coordinates": {"latitude": 32.81429, "longitude": -96.76994}, "transactions": ["pickup", "delivery"], "price": "$$", "location": {"address1": "2010 Greenville Ave", "address2": "Ste B", "address3": null, "city": "Dallas", "zip_code": "75206", "country": "US", "state": "TX", "display_address": ["2010 Greenville Ave", "Ste B", "Dallas, TX 75206"]}, "phone": "+14698581265", "display_phone": "(469) 858-1265", "distance": 3970.2067644093836}, {"id": "kgczbEw43fFijGbJ4_sseg", "alias": "hello-dumpling-dallas-2", "name": "Hello Dumpling", "image_url": "https://s3-media2.fl.yelpcdn.com/bphoto/9eWsqAKCL8BnP_wg9xVzPQ/o.jpg", "is_closed": false, "url": "https://www.yelp.com/biz/hello-dumpling-dallas-2?adjust_creative=p8ZmzrMnEc-h1IE5NUGjPA&utm_campaign=yelp_api_v3&utm_medium=api_v3_business_search&utm_source=p8ZmzrMnEc-h1IE5NUGjPA", "review_count": 47, "categories": [{"alias": "chinese", "title": "Chinese"}, {"alias": "bubbletea", "title": "Bubble Tea"}, {"alias": "noodles", "title": "Noodles"}], "rating": 4.0, "coordinates": {"latitude": 32.8814555, "longitude": -96.7680529}, "transactions": ["pickup", "delivery"], "location": {"address1": "8041 Walnut Hill Ln", "address2": "Ste 815", "address3": null, "city": "Dallas", "zip_code": "75231", "country": "US", "state": "TX", "display_address": ["8041 Walnut Hill Ln", "Ste 815", "Dallas, TX 75231"]}, "phone": "+12148129011", "display_phone": "(214) 812-9011", "distance": 5607.723722616074}, {"id": "9_9vvGMQ4FGRH576_3I8aw", "alias": "roti-dallas-4", "name": "Roti", "image_url": "https://s3-media3.fl.yelpcdn.com/bphoto/YMgarLG0AbDZVIDwdhC6mg/o.jpg", "is_closed": false, "url": "https://www.yelp.com/biz/roti-dallas-4?adjust_creative=p8ZmzrMnEc-h1IE5NUGjPA&utm_campaign=yelp_api_v3&utm_medium=api_v3_business_search&utm_source=p8ZmzrMnEc-h1IE5NUGjPA", "review_count": 38, "categories": [{"alias": "mediterranean", "title": "Mediterranean"}, {"alias": "salad", "title": "Salad"}, {"alias": "sandwiches", "title": "Sandwiches"}], "rating": 4.5, "coordinates": {"latitude": 32.86425, "longitude": -96.80758}, "transactions": ["pickup", "delivery"], "location": {"address1": "8301 Westchester Dr", "address2": "", "address3": null, "city": "Dallas", "zip_code": "75225", "country": "US", "state": "TX", "display_address": ["8301 Westchester Dr", "Dallas, TX 75225"]}, "phone": "+19722987118", "display_phone": "(972) 298-7118", "distance": 2809.1139430217486}, {"id": "U3Nx-Vvizc6BMHiZxcuw7A", "alias": "il-bracco-dallas", "name": "il Bracco", "image_url": "https://s3-media3.fl.yelpcdn.com/bphoto/UJE--oDwpgTZjKeOZVvU4w/o.jpg", "is_closed": false, "url": "https://www.yelp.com/biz/il-bracco-dallas?adjust_creative=p8ZmzrMnEc-h1IE5NUGjPA&utm_campaign=yelp_api_v3&utm_medium=api_v3_business_search&utm_source=p8ZmzrMnEc-h1IE5NUGjPA", "review_count": 336, "categories": [{"alias": "italian", "title": "Italian"}], "rating": 4.5, "coordinates": {"latitude": 32.864895, "longitude": -96.802592}, "transactions": ["delivery"], "price": "$$", "location": {"address1": "8416 Preston Center Plaza Dr", "address2": null, "address3": "", "city": "Dallas", "zip_code": "75225", "country": "US", "state": "TX", "display_address": ["8416 Preston Center Plaza Dr", "Dallas, TX 75225"]}, "phone": "+12143610100", "display_phone": "(214) 361-0100", "distance": 2882.095939975006}, {"id": "FonG5dwBhdOZkTvMuBElsg", "alias": "bushi-bushi-dallas", "name": "Bushi Bushi", "image_url": "https://s3-media3.fl.yelpcdn.com/bphoto/yx--fZDh5lDnR_vImMzlIg/o.jpg", "is_closed": false, "url": "https://www.yelp.com/biz/bushi-bushi-dallas?adjust_creative=p8ZmzrMnEc-h1IE5NUGjPA&utm_campaign=yelp_api_v3&utm_medium=api_v3_business_search&utm_source=p8ZmzrMnEc-h1IE5NUGjPA", "review_count": 230, "categories": [{"alias": "dimsum", "title": "Dim Sum"}], "rating": 4.0, "coordinates": {"latitude": 32.953126, "longitude": -96.827681}, "transactions": ["pickup", "delivery"], "price": "$$", "location": {"address1": "4930 Belt Line Rd", "address2": "Ste 100", "address3": "", "city": "Dallas", "zip_code": "75254", "country": "US", "state": "TX", "display_address": ["4930 Belt Line Rd", "Ste 100", "Dallas, TX 75254"]}, "phone": "+19726777653", "display_phone": "(972) 677-7653", "distance": 12934.041247897061}, {"id": "RB0FQMBIe1FurGZwRxEEfA", "alias": "lyla-dallas", "name": "Lyla", "image_url": "https://s3-media4.fl.yelpcdn.com/bphoto/gjEzRLb41NMxXcRJb8xe5A/o.jpg", "is_closed": false, "url": "https://www.yelp.com/biz/lyla-dallas?adjust_creative=p8ZmzrMnEc-h1IE5NUGjPA&utm_campaign=yelp_api_v3&utm_medium=api_v3_business_search&utm_source=p8ZmzrMnEc-h1IE5NUGjPA", "review_count": 76, "categories": [{"alias": "italian", "title": "Italian"}, {"alias": "mediterranean", "title": "Mediterranean"}], "rating": 4.0, "coordinates": {"latitude": 32.80484, "longitude": -96.799318}, "transactions": [], "location": {"address1": "3309 McKinney Ave", "address2": null, "address3": "", "city": "Dallas", "zip_code": "75204", "country": "US", "state": "TX", "display_address": ["3309 McKinney Ave", "Dallas, TX 75204"]}, "phone": "+12142160675", "display_phone": "(214) 216-0675", "distance": 3808.2147653464835}, {"id": "WQQ6LkZeqax97-CrDdK2fQ", "alias": "ngon-vietnamese-kitchen-dallas-2", "name": "Ngon Vietnamese Kitchen", "image_url": "https://s3-media2.fl.yelpcdn.com/bphoto/g8S7dXUGtU7aKpO3bKuANQ/o.jpg", "is_closed": false, "url": "https://www.yelp.com/biz/ngon-vietnamese-kitchen-dallas-2?adjust_creative=p8ZmzrMnEc-h1IE5NUGjPA&utm_campaign=yelp_api_v3&utm_medium=api_v3_business_search&utm_source=p8ZmzrMnEc-h1IE5NUGjPA", "review_count": 369, "categories": [{"alias": "vietnamese", "title": "Vietnamese"}, {"alias": "noodles", "title": "Noodles"}], "rating": 4.5, "coordinates": {"latitude": 32.813718, "longitude": -96.770578}, "transactions": ["delivery"], "price": "$$", "location": {"address1": "1907 Greenville Ave", "address2": null, "address3": "", "city": "Dallas", "zip_code": "75206", "country": "US", "state": "TX", "display_address": ["1907 Greenville Ave", "Dallas, TX 75206"]}, "phone": "+14692507183", "display_phone": "(469) 250-7183", "distance": 3973.4086913419515}, {"id": "d9binwgfwGvijxZAH2r6NA", "alias": "the-honor-bar-dallas", "name": "The Honor Bar", "image_url": "https://s3-media3.fl.yelpcdn.com/bphoto/LRwt5Hi2KTK0rmtEFRQdvg/o.jpg", "is_closed": false, "url": "https://www.yelp.com/biz/the-honor-bar-dallas?adjust_creative=p8ZmzrMnEc-h1IE5NUGjPA&utm_campaign=yelp_api_v3&utm_medium=api_v3_business_search&utm_source=p8ZmzrMnEc-h1IE5NUGjPA", "review_count": 305, "categories": [{"alias": "tradamerican", "title": "American (Traditional)"}, {"alias": "bars", "title": "Bars"}], "rating": 4.0, "coordinates": {"latitude": 32.835492, "longitude": -96.806765}, "transactions": ["delivery"], "price": "$$", "location": {"address1": "26A Highland Park Village", "address2": "", "address3": null, "city": "Dallas", "zip_code": "75205", "country": "US", "state": "TX", "display_address": ["26A Highland Park Village", "Dallas, TX 75205"]}, "phone": "+12147800956", "display_phone": "(214) 780-0956", "distance": 703.2121353479548}, {"id": "4jOnJcCVPvkMqXVN_Fv6Tw", "alias": "hawkers-asian-street-food-dallas-2", "name": "Hawkers Asian Street Food", "image_url": "https://s3-media3.fl.yelpcdn.com/bphoto/HmzbIdetyPocxRJlwYDOxQ/o.jpg", "is_closed": false, "url": "https://www.yelp.com/biz/hawkers-asian-street-food-dallas-2?adjust_creative=p8ZmzrMnEc-h1IE5NUGjPA&utm_campaign=yelp_api_v3&utm_medium=api_v3_business_search&utm_source=p8ZmzrMnEc-h1IE5NUGjPA", "review_count": 39, "categories": [{"alias": "panasian", "title": "Pan Asian"}, {"alias": "tapasmallplates", "title": "Tapas/Small Plates"}], "rating": 4.5, "coordinates": {"latitude": 32.95214, "longitude": -96.82003}, "transactions": [], "location": {"address1": "5100 Belt Line Rd", "address2": "Ste 430", "address3": "", "city": "Dallas", "zip_code": "75254", "country": "US", "state": "TX", "display_address": ["5100 Belt Line Rd", "Ste 430", "Dallas, TX 75254"]}, "phone": "", "display_phone": "", "distance": 12654.074076101057}, {"id": "ZUBmtNBU0L45jIrMAgGeiQ", "alias": "wabi-house-dallas", "name": "Wabi House", "image_url": "https://s3-media3.fl.yelpcdn.com/bphoto/Kw6EUgC0CQJWjrD2n9KyXw/o.jpg", "is_closed": false, "url": "https://www.yelp.com/biz/wabi-house-dallas?adjust_creative=p8ZmzrMnEc-h1IE5NUGjPA&utm_campaign=yelp_api_v3&utm_medium=api_v3_business_search&utm_source=p8ZmzrMnEc-h1IE5NUGjPA", "review_count": 1705, "categories": [{"alias": "ramen", "title": "Ramen"}, {"alias": "bars", "title": "Bars"}, {"alias": "tapasmallplates", "title": "Tapas/Small Plates"}], "rating": 4.5, "coordinates": {"latitude": 32.81235, "longitude": -96.769994}, "transactions": ["delivery"], "price": "$$", "location": {"address1": "1802 Greenville Ave", "address2": "Ste 100", "address3": "", "city": "Dallas", "zip_code": "75206", "country": "US", "state": "TX", "display_address": ["1802 Greenville Ave", "Ste 100", "Dallas, TX 75206"]}, "phone": "+14699495121", "display_phone": "(469) 949-5121", "distance": 4127.305138109892}, {"id": "0uHs9JfuF9eVPWkXL4Bgdw", "alias": "komodo-dallas-dallas-6", "name": "Komodo - Dallas", "image_url": "https://s3-media2.fl.yelpcdn.com/bphoto/Fu1k0b7GzgZit3thhe28IA/o.jpg", "is_closed": false, "url": "https://www.yelp.com/biz/komodo-dallas-dallas-6?adjust_creative=p8ZmzrMnEc-h1IE5NUGjPA&utm_campaign=yelp_api_v3&utm_medium=api_v3_business_search&utm_source=p8ZmzrMnEc-h1IE5NUGjPA", "review_count": 193, "categories": [{"alias": "asianfusion", "title": "Asian Fusion"}, {"alias": "cocktailbars", "title": "Cocktail Bars"}], "rating": 3.5, "coordinates": {"latitude": 32.7847571, "longitude": -96.7881293}, "transactions": [], "price": "$$$$", "location": {"address1": "2550 Pacific Ave", "address2": "Ste 120", "address3": null, "city": "Dallas", "zip_code": "75226", "country": "US", "state": "TX", "display_address": ["2550 Pacific Ave", "Ste 120", "Dallas, TX 75226"]}, "phone": "+12142616000", "display_phone": "(214) 261-6000", "distance": 6146.728161973176}, {"id": "j6j8IFLUUQA1WgwGqawtkw", "alias": "rise-souffl\u00e9-dallas-dallas", "name": "rise souffl\u00e9 - Dallas", "image_url": "https://s3-media2.fl.yelpcdn.com/bphoto/IySLTs1NWSoHpiZ9IdnB3Q/o.jpg", "is_closed": false, "url": "https://www.yelp.com/biz/rise-souffl%C3%A9-dallas-dallas?adjust_creative=p8ZmzrMnEc-h1IE5NUGjPA&utm_campaign=yelp_api_v3&utm_medium=api_v3_business_search&utm_source=p8ZmzrMnEc-h1IE5NUGjPA", "review_count": 1865, "categories": [{"alias": "french", "title": "French"}, {"alias": "wine_bars", "title": "Wine Bars"}, {"alias": "desserts", "title": "Desserts"}], "rating": 4.5, "coordinates": {"latitude": 32.8501283339466, "longitude": -96.8201696447052}, "transactions": ["delivery"], "price": "$$", "location": {"address1": "5360 W Lovers Ln", "address2": "Ste 220", "address3": "", "city": "Dallas", "zip_code": "75209", "country": "US", "state": "TX", "display_address": ["5360 W Lovers Ln", "Ste 220", "Dallas, TX 75209"]}, "phone": "+12143669900", "display_phone": "(214) 366-9900", "distance": 2209.761827649162}, {"id": "_iHxY6MLLpZLKRoVstg3Ag", "alias": "hot-stone-and-korean-kitchen-dallas", "name": "Hot Stone & Korean Kitchen", "image_url": "https://s3-media1.fl.yelpcdn.com/bphoto/b2EHGsuRZa7iSUVSzxDZwg/o.jpg", "is_closed": false, "url": "https://www.yelp.com/biz/hot-stone-and-korean-kitchen-dallas?adjust_creative=p8ZmzrMnEc-h1IE5NUGjPA&utm_campaign=yelp_api_v3&utm_medium=api_v3_business_search&utm_source=p8ZmzrMnEc-h1IE5NUGjPA", "review_count": 29, "categories": [{"alias": "korean", "title": "Korean"}], "rating": 5.0, "coordinates": {"latitude": 32.8952002643683, "longitude": -96.9009399637552}, "transactions": [], "location": {"address1": "2330 Royal Ln", "address2": "", "address3": null, "city": "Dallas", "zip_code": "75229", "country": "US", "state": "TX", "display_address": ["2330 Royal Ln", "Dallas, TX 75229"]}, "phone": "", "display_phone": "", "distance": 11266.062021249812}, {"id": "oL4wRcoK2JJLCX3aHWHapg", "alias": "dallas-grilled-cheese-co-dallas-3", "name": "Dallas Grilled Cheese Co", "image_url": "https://s3-media4.fl.yelpcdn.com/bphoto/o-n_U_Jj5UYFGztlNFPjqA/o.jpg", "is_closed": false, "url": "https://www.yelp.com/biz/dallas-grilled-cheese-co-dallas-3?adjust_creative=p8ZmzrMnEc-h1IE5NUGjPA&utm_campaign=yelp_api_v3&utm_medium=api_v3_business_search&utm_source=p8ZmzrMnEc-h1IE5NUGjPA", "review_count": 323, "categories": [{"alias": "tradamerican", "title": "American (Traditional)"}, {"alias": "sandwiches", "title": "Sandwiches"}], "rating": 4.0, "coordinates": {"latitude": 32.8368102, "longitude": -96.7774467}, "transactions": ["pickup", "delivery"], "price": "$$", "location": {"address1": "5319 E Mockingbird Ln", "address2": "Ste 120", "address3": null, "city": "Dallas", "zip_code": "75206", "country": "US", "state": "TX", "display_address": ["5319 E Mockingbird Ln", "Ste 120", "Dallas, TX 75206"]}, "phone": "+14696202121", "display_phone": "(469) 620-2121", "distance": 2258.1544487019223}, {"id": "BcPB7-_gP7cafgh99cisig", "alias": "invasion-dallas", "name": "Invasion", "image_url": "https://s3-media3.fl.yelpcdn.com/bphoto/fa3BWoBaAMf0eVhJjKhoGQ/o.jpg", "is_closed": false, "url": "https://www.yelp.com/biz/invasion-dallas?adjust_creative=p8ZmzrMnEc-h1IE5NUGjPA&utm_campaign=yelp_api_v3&utm_medium=api_v3_business_search&utm_source=p8ZmzrMnEc-h1IE5NUGjPA", "review_count": 500, "categories": [{"alias": "halal", "title": "Halal"}, {"alias": "burgers", "title": "Burgers"}, {"alias": "chickenshop", "title": "Chicken Shop"}], "rating": 4.5, "coordinates": {"latitude": 32.791242, "longitude": -96.774065}, "transactions": ["pickup", "delivery"], "price": "$$", "location": {"address1": "4029 Crutcher St", "address2": null, "address3": "", "city": "Dallas", "zip_code": "75246", "country": "US", "state": "TX", "display_address": ["4029 Crutcher St", "Dallas, TX 75246"]}, "phone": "+12142727312", "display_phone": "(214) 272-7312", "distance": 5860.042247274453}, {"id": "nb-IETj9dGmXP3MMNo7vbQ", "alias": "burger-schmurger-dallas-2", "name": "Burger Schmurger", "image_url": "https://s3-media2.fl.yelpcdn.com/bphoto/V2ChHKzCiQvp_GyO-FeLjg/o.jpg", "is_closed": false, "url": "https://www.yelp.com/biz/burger-schmurger-dallas-2?adjust_creative=p8ZmzrMnEc-h1IE5NUGjPA&utm_campaign=yelp_api_v3&utm_medium=api_v3_business_search&utm_source=p8ZmzrMnEc-h1IE5NUGjPA", "review_count": 17, "categories": [{"alias": "popuprestaurants", "title": "Pop-Up Restaurants"}, {"alias": "burgers", "title": "Burgers"}], "rating": 4.0, "coordinates": {"latitude": 32.81179079930708, "longitude": -96.7743709}, "transactions": [], "location": {"address1": "1804 McMillan Ave", "address2": "", "address3": null, "city": "Dallas", "zip_code": "75226", "country": "US", "state": "TX", "display_address": ["1804 McMillan Ave", "Dallas, TX 75226"]}, "phone": "", "display_phone": "", "distance": 3893.7040375396937}, {"id": "uGVLGbSSlqgKvAH51UYo-Q", "alias": "kom\u00e9-dallas-2", "name": "Kom\u00e9", "image_url": "https://s3-media2.fl.yelpcdn.com/bphoto/Mw2wCSGrzSADyO3du7zb0w/o.jpg", "is_closed": false, "url": "https://www.yelp.com/biz/kom%C3%A9-dallas-2?adjust_creative=p8ZmzrMnEc-h1IE5NUGjPA&utm_campaign=yelp_api_v3&utm_medium=api_v3_business_search&utm_source=p8ZmzrMnEc-h1IE5NUGjPA", "review_count": 130, "categories": [{"alias": "sushi", "title": "Sushi Bars"}], "rating": 5.0, "coordinates": {"latitude": 32.88152, "longitude": -96.767917}, "transactions": [], "location": {"address1": "8041 Walnut Hill Ln", "address2": "St 820", "address3": "", "city": "Dallas", "zip_code": "75231", "country": "US", "state": "TX", "display_address": ["8041 Walnut Hill Ln", "St 820", "Dallas, TX 75231"]}, "phone": "+12142386314", "display_phone": "(214) 238-6314", "distance": 5607.723722616074}, {"id": "LJF1L7dxOrzN_MPUQBJrsg", "alias": "hawkers-asian-street-food-dallas", "name": "Hawkers Asian Street Food", "image_url": "https://s3-media2.fl.yelpcdn.com/bphoto/1zKdyptTZRruz3g06KdTCg/o.jpg", "is_closed": false, "url": "https://www.yelp.com/biz/hawkers-asian-street-food-dallas?adjust_creative=p8ZmzrMnEc-h1IE5NUGjPA&utm_campaign=yelp_api_v3&utm_medium=api_v3_business_search&utm_source=p8ZmzrMnEc-h1IE5NUGjPA", "review_count": 581, "categories": [{"alias": "panasian", "title": "Pan Asian"}, {"alias": "tapasmallplates", "title": "Tapas/Small Plates"}], "rating": 4.5, "coordinates": {"latitude": 32.78372, "longitude": -96.78319}, "transactions": [], "price": "$$", "location": {"address1": "2800 Main St", "address2": null, "address3": "", "city": "Dallas", "zip_code": "75226", "country": "US", "state": "TX", "display_address": ["2800 Main St", "Dallas, TX 75226"]}, "phone": "+12142718111", "display_phone": "(214) 271-8111", "distance": 6359.253492843207}, {"id": "BNhV_ZpAEgJBRtHVluWZyA", "alias": "via-triozzi-dallas", "name": "Via Triozzi", "image_url": "https://s3-media2.fl.yelpcdn.com/bphoto/lZJ6PDStG3pp-yF2YGM5-A/o.jpg", "is_closed": false, "url": "https://www.yelp.com/biz/via-triozzi-dallas?adjust_creative=p8ZmzrMnEc-h1IE5NUGjPA&utm_campaign=yelp_api_v3&utm_medium=api_v3_business_search&utm_source=p8ZmzrMnEc-h1IE5NUGjPA", "review_count": 25, "categories": [{"alias": "italian", "title": "Italian"}, {"alias": "desserts", "title": "Desserts"}, {"alias": "bars", "title": "Bars"}], "rating": 4.5, "coordinates": {"latitude": 32.81247, "longitude": -96.77}, "transactions": [], "location": {"address1": "1806 Greenville Ave", "address2": "", "address3": null, "city": "Dallas", "zip_code": "75206", "country": "US", "state": "TX", "display_address": ["1806 Greenville Ave", "Dallas, TX 75206"]}, "phone": "+14698975679", "display_phone": "(469) 897-5679", "distance": 4108.306567049815}, {"id": "x68QWyyGt0oVxdJ6wXnXwQ", "alias": "shugs-bagels-dallas", "name": "Shug's Bagels", "image_url": "https://s3-media1.fl.yelpcdn.com/bphoto/YsuFInNb2i4jt1QSrN8U2w/o.jpg", "is_closed": false, "url": "https://www.yelp.com/biz/shugs-bagels-dallas?adjust_creative=p8ZmzrMnEc-h1IE5NUGjPA&utm_campaign=yelp_api_v3&utm_medium=api_v3_business_search&utm_source=p8ZmzrMnEc-h1IE5NUGjPA", "review_count": 415, "categories": [{"alias": "bagels", "title": "Bagels"}], "rating": 4.0, "coordinates": {"latitude": 32.83708517, "longitude": -96.78009717}, "transactions": ["pickup", "delivery"], "price": "$$", "location": {"address1": "3020 Mockingbird Ln", "address2": null, "address3": "", "city": "Dallas", "zip_code": "75205", "country": "US", "state": "TX", "display_address": ["3020 Mockingbird Ln", "Dallas, TX 75205"]}, "phone": "+14695265050", "display_phone": "(469) 526-5050", "distance": 1930.0247930588212}, {"id": "5yAcCvXU_gPK1z_PAGv-QA", "alias": "the-exchange-hall-dallas", "name": "The Exchange Hall", "image_url": "https://s3-media4.fl.yelpcdn.com/bphoto/dmglRzcIbKp69ONMIF_kJw/o.jpg", "is_closed": false, "url": "https://www.yelp.com/biz/the-exchange-hall-dallas?adjust_creative=p8ZmzrMnEc-h1IE5NUGjPA&utm_campaign=yelp_api_v3&utm_medium=api_v3_business_search&utm_source=p8ZmzrMnEc-h1IE5NUGjPA", "review_count": 68, "categories": [{"alias": "food_court", "title": "Food Court"}], "rating": 4.5, "coordinates": {"latitude": 32.77929, "longitude": -96.80001}, "transactions": [], "price": "$$", "location": {"address1": "211 S Akard St", "address2": null, "address3": null, "city": "Dallas", "zip_code": "75202", "country": "US", "state": "TX", "display_address": ["211 S Akard St", "Dallas, TX 75202"]}, "phone": "", "display_phone": "", "distance": 6635.650793835599}, {"id": "Sc1fN8KthE_FRR8CMjS-VQ", "alias": "toridori-carrollton", "name": "Toridori", "image_url": "https://s3-media2.fl.yelpcdn.com/bphoto/rbzrjtRc6qKjAPhcyHBKWA/o.jpg", "is_closed": false, "url": "https://www.yelp.com/biz/toridori-carrollton?adjust_creative=p8ZmzrMnEc-h1IE5NUGjPA&utm_campaign=yelp_api_v3&utm_medium=api_v3_business_search&utm_source=p8ZmzrMnEc-h1IE5NUGjPA", "review_count": 43, "categories": [{"alias": "bubbletea", "title": "Bubble Tea"}, {"alias": "korean", "title": "Korean"}], "rating": 5.0, "coordinates": {"latitude": 33.01933994907165, "longitude": -96.93218997453528}, "transactions": [], "location": {"address1": "4070 TX-121", "address2": "Ste 340", "address3": null, "city": "Carrollton", "zip_code": "75010", "country": "US", "state": "TX", "display_address": ["4070 TX-121", "Ste 340", "Carrollton, TX 75010"]}, "phone": "+14695464990", "display_phone": "(469) 546-4990", "distance": 23513.81381350641}, {"id": "MD47euE3xSII4Fz9Gb4cng", "alias": "spice-wok-dallas", "name": "Spice Wok", "image_url": "https://s3-media1.fl.yelpcdn.com/bphoto/epjb_mvzaSiFWfdjJx1AeA/o.jpg", "is_closed": false, "url": "https://www.yelp.com/biz/spice-wok-dallas?adjust_creative=p8ZmzrMnEc-h1IE5NUGjPA&utm_campaign=yelp_api_v3&utm_medium=api_v3_business_search&utm_source=p8ZmzrMnEc-h1IE5NUGjPA", "review_count": 26, "categories": [{"alias": "chickenshop", "title": "Chicken Shop"}, {"alias": "noodles", "title": "Noodles"}, {"alias": "asianfusion", "title": "Asian Fusion"}], "rating": 5.0, "coordinates": {"latitude": 32.9309181537358, "longitude": -96.71696620226642}, "transactions": ["pickup", "delivery"], "location": {"address1": "13340 Audelia Rd", "address2": "Ste 135", "address3": null, "city": "Dallas", "zip_code": "75243", "country": "US", "state": "TX", "display_address": ["13340 Audelia Rd", "Ste 135", "Dallas, TX 75243"]}, "phone": "+14692060139", "display_phone": "(469) 206-0139", "distance": 12855.456973449647}, {"id": "KeVoSmBKjaAb2QHPd0-Qzw", "alias": "dea-dallas", "name": "Dea", "image_url": "https://s3-media1.fl.yelpcdn.com/bphoto/lpFdn6jQBm9NLeN7eNQcUg/o.jpg", "is_closed": false, "url": "https://www.yelp.com/biz/dea-dallas?adjust_creative=p8ZmzrMnEc-h1IE5NUGjPA&utm_campaign=yelp_api_v3&utm_medium=api_v3_business_search&utm_source=p8ZmzrMnEc-h1IE5NUGjPA", "review_count": 36, "categories": [{"alias": "italian", "title": "Italian"}], "rating": 4.0, "coordinates": {"latitude": 32.849816699168386, "longitude": -96.82168491753109}, "transactions": [], "location": {"address1": "7709 Inwood Rd", "address2": "", "address3": null, "city": "Dallas", "zip_code": "75209", "country": "US", "state": "TX", "display_address": ["7709 Inwood Rd", "Dallas, TX 75209"]}, "phone": "+12147643334", "display_phone": "(214) 764-3334", "distance": 2310.438188512647}], "total": 16200, "region": {"center": {"longitude": -96.800537109375, "latitude": 32.839043482398054}}}