{"businesses": [{"id": "GLhODuJsSQusOmq31nPzMQ", "alias": "the-village-drey-hotel-dallas", "name": "The Village Drey Hotel", "image_url": "https://s3-media1.fl.yelpcdn.com/bphoto/Z18jl0deqfkQ_Ffqwvzqqg/o.jpg", "is_closed": false, "url": "https://www.yelp.com/biz/the-village-drey-hotel-dallas?adjust_creative=p8ZmzrMnEc-h1IE5NUGjPA&utm_campaign=yelp_api_v3&utm_medium=api_v3_business_search&utm_source=p8ZmzrMnEc-h1IE5NUGjPA", "review_count": 10, "categories": [{"alias": "hotels", "title": "Hotels"}], "rating": 5.0, "coordinates": {"latitude": 32.8583162884842, "longitude": -96.76257433994527}, "transactions": [], "location": {"address1": "5630 Village Glen Dr", "address2": null, "address3": null, "city": "Dallas", "zip_code": "75206", "country": "US", "state": "TX", "display_address": ["5630 Village Glen Dr", "Dallas, TX 75206"]}, "phone": "+14696596374", "display_phone": "(469) 659-6374", "distance": 4143.537753547249}, {"id": "J7w-BX8rnWAUmou918jx7g", "alias": "the-highland-dallas-curio-collection-by-hilton-dallas", "name": "The Highland Dallas, Curio Collection by Hilton", "image_url": "https://s3-media3.fl.yelpcdn.com/bphoto/hbDY8mngpWnjA_bbuCRhZA/o.jpg", "is_closed": false, "url": "https://www.yelp.com/biz/the-highland-dallas-curio-collection-by-hilton-dallas?adjust_creative=p8ZmzrMnEc-h1IE5NUGjPA&utm_campaign=yelp_api_v3&utm_medium=api_v3_business_search&utm_source=p8ZmzrMnEc-h1IE5NUGjPA", "review_count": 238, "categories": [{"alias": "hotels", "title": "Hotels"}], "rating": 4.0, "coordinates": {"latitude": 32.83614266081159, "longitude": -96.77795811566284}, "transactions": [], "price": "$$$", "location": {"address1": "5300 E Mockingbird Ln", "address2": "", "address3": "", "city": "Dallas", "zip_code": "75206", "country": "US", "state": "TX", "display_address": ["5300 E Mockingbird Ln", "Dallas, TX 75206"]}, "phone": "+12145207969", "display_phone": "(214) 520-7969", "distance": 2134.007930324029}, {"id": "A7Hxz7xpEEwydxEdPwaDyQ", "alias": "the-lumen-dallas", "name": "The Lumen", "image_url": "https://s3-media1.fl.yelpcdn.com/bphoto/dbYFen7OEQ5H8ojJE95DcA/o.jpg", "is_closed": false, "url": "https://www.yelp.com/biz/the-lumen-dallas?adjust_creative=p8ZmzrMnEc-h1IE5NUGjPA&utm_campaign=yelp_api_v3&utm_medium=api_v3_business_search&utm_source=p8ZmzrMnEc-h1IE5NUGjPA", "review_count": 109, "categories": [{"alias": "hotels", "title": "Hotels"}, {"alias": "venues", "title": "Venues & Event Spaces"}], "rating": 3.5, "coordinates": {"latitude": 32.840998, "longitude": -96.787459}, "transactions": [], "price": "$$", "location": {"address1": "6101 Hillcrest Ave", "address2": "", "address3": "", "city": "Dallas", "zip_code": "75205", "country": "US", "state": "TX", "display_address": ["6101 Hillcrest Ave", "Dallas, TX 75205"]}, "phone": "+12142192400", "display_phone": "(214) 219-2400", "distance": 1245.7841745108408}, {"id": "xbHa7Nb50-k3M4r6ysKuUw", "alias": "omni-dallas-hotel-dallas-2", "name": "Omni Dallas Hotel", "image_url": "https://s3-media1.fl.yelpcdn.com/bphoto/E1icUNUXAfNu6do7fUirPg/o.jpg", "is_closed": false, "url": "https://www.yelp.com/biz/omni-dallas-hotel-dallas-2?adjust_creative=p8ZmzrMnEc-h1IE5NUGjPA&utm_campaign=yelp_api_v3&utm_medium=api_v3_business_search&utm_source=p8ZmzrMnEc-h1IE5NUGjPA", "review_count": 646, "categories": [{"alias": "hotels", "title": "Hotels"}, {"alias": "venues", "title": "Venues & Event Spaces"}], "rating": 3.5, "coordinates": {"latitude": 32.77574276582635, "longitude": -96.80417074098384}, "transactions": [], "price": "$$$", "location": {"address1": "555 S Lamar St", "address2": "", "address3": "", "city": "Dallas", "zip_code": "75202", "country": "US", "state": "TX", "display_address": ["555 S Lamar St", "Dallas, TX 75202"]}, "phone": "+12147446664", "display_phone": "(214) 744-6664", "distance": 7046.898149103676}, {"id": "j9sHADKO8EXhwQvW8DmJ1Q", "alias": "the-joule-dallas-dallas-2", "name": "The Joule - Dallas", "image_url": "https://s3-media2.fl.yelpcdn.com/bphoto/tnfXQE6YvRFijOE1oSB-Zw/o.jpg", "is_closed": false, "url": "https://www.yelp.com/biz/the-joule-dallas-dallas-2?adjust_creative=p8ZmzrMnEc-h1IE5NUGjPA&utm_campaign=yelp_api_v3&utm_medium=api_v3_business_search&utm_source=p8ZmzrMnEc-h1IE5NUGjPA", "review_count": 329, "categories": [{"alias": "hotels", "title": "Hotels"}, {"alias": "venues", "title": "Venues & Event Spaces"}], "rating": 4.0, "coordinates": {"latitude": 32.78057, "longitude": -96.79839}, "transactions": [], "price": "$$$", "location": {"address1": "1530 Main St", "address2": "", "address3": "", "city": "Dallas", "zip_code": "75201", "country": "US", "state": "TX", "display_address": ["1530 Main St", "Dallas, TX 75201"]}, "phone": "+12147481300", "display_phone": "(214) 748-1300", "distance": 6504.909614813185}, {"id": "ioz17g9kq2KZPV8s9wdZzQ", "alias": "the-ritz-carlton-dallas-dallas", "name": "The Ritz-Carlton, Dallas", "image_url": "https://s3-media2.fl.yelpcdn.com/bphoto/iggpUTiD_ev9rS0Mk_cqsw/o.jpg", "is_closed": false, "url": "https://www.yelp.com/biz/the-ritz-carlton-dallas-dallas?adjust_creative=p8ZmzrMnEc-h1IE5NUGjPA&utm_campaign=yelp_api_v3&utm_medium=api_v3_business_search&utm_source=p8ZmzrMnEc-h1IE5NUGjPA", "review_count": 192, "categories": [{"alias": "hotels", "title": "Hotels"}, {"alias": "venues", "title": "Venues & Event Spaces"}], "rating": 4.0, "coordinates": {"latitude": 32.7922058521166, "longitude": -96.8039137422875}, "transactions": [], "price": "$$$$", "location": {"address1": "2121 McKinney Ave", "address2": "", "address3": "", "city": "Dallas", "zip_code": "75201", "country": "US", "state": "TX", "display_address": ["2121 McKinney Ave", "Dallas, TX 75201"]}, "phone": "+12149220200", "display_phone": "(214) 922-0200", "distance": 5217.651469845588}, {"id": "CuRXxa3_Pyzy9Qur3oMYzA", "alias": "marriott-dallas-uptown-dallas", "name": "Marriott Dallas Uptown", "image_url": "https://s3-media2.fl.yelpcdn.com/bphoto/J9TYu58SJGYMaGguqwCQJg/o.jpg", "is_closed": false, "url": "https://www.yelp.com/biz/marriott-dallas-uptown-dallas?adjust_creative=p8ZmzrMnEc-h1IE5NUGjPA&utm_campaign=yelp_api_v3&utm_medium=api_v3_business_search&utm_source=p8ZmzrMnEc-h1IE5NUGjPA", "review_count": 27, "categories": [{"alias": "hotels", "title": "Hotels"}], "rating": 4.0, "coordinates": {"latitude": 32.79892, "longitude": -96.80714}, "transactions": [], "location": {"address1": "3033 Fairmount St", "address2": "", "address3": null, "city": "Dallas", "zip_code": "75201", "country": "US", "state": "TX", "display_address": ["3033 Fairmount St", "Dallas, TX 75201"]}, "phone": "+12142390333", "display_phone": "(214) 239-0333", "distance": 4484.452571016533}, {"id": "T7MHSkXT-d_UimLj9cyrcw", "alias": "hotel-zaza-dallas-dallas-2", "name": "Hotel ZaZa Dallas", "image_url": "https://s3-media3.fl.yelpcdn.com/bphoto/Anh-8Kb0VwSHtBjSDEhgew/o.jpg", "is_closed": false, "url": "https://www.yelp.com/biz/hotel-zaza-dallas-dallas-2?adjust_creative=p8ZmzrMnEc-h1IE5NUGjPA&utm_campaign=yelp_api_v3&utm_medium=api_v3_business_search&utm_source=p8ZmzrMnEc-h1IE5NUGjPA", "review_count": 373, "categories": [{"alias": "hotels", "title": "Hotels"}, {"alias": "venues", "title": "Venues & Event Spaces"}], "rating": 4.0, "coordinates": {"latitude": 32.7941314, "longitude": -96.8012494}, "transactions": [], "price": "$$$", "location": {"address1": "2332 Leonard St", "address2": "", "address3": "", "city": "Dallas", "zip_code": "75201", "country": "US", "state": "TX", "display_address": ["2332 Leonard St", "Dallas, TX 75201"]}, "phone": "+12144688399", "display_phone": "(214) 468-8399", "distance": 4994.433745412604}, {"id": "HdIA-7KeIQ_yoh_PM3VDTQ", "alias": "doubletree-by-hilton-hotel-dallas-campbell-centre-dallas", "name": "DoubleTree by Hilton Hotel Dallas - Campbell Centre", "image_url": "https://s3-media1.fl.yelpcdn.com/bphoto/Nwy99r0XsCuE2aC7gSUshA/o.jpg", "is_closed": false, "url": "https://www.yelp.com/biz/doubletree-by-hilton-hotel-dallas-campbell-centre-dallas?adjust_creative=p8ZmzrMnEc-h1IE5NUGjPA&utm_campaign=yelp_api_v3&utm_medium=api_v3_business_search&utm_source=p8ZmzrMnEc-h1IE5NUGjPA", "review_count": 136, "categories": [{"alias": "hotels", "title": "Hotels"}], "rating": 3.0, "coordinates": {"latitude": 32.862904, "longitude": -96.7687019705772}, "transactions": [], "price": "$$", "location": {"address1": "8250 N Central Expy", "address2": "", "address3": "", "city": "Dallas", "zip_code": "75206", "country": "US", "state": "TX", "display_address": ["8250 N Central Expy", "Dallas, TX 75206"]}, "phone": "+12146918700", "display_phone": "(214) 691-8700", "distance": 3985.3318589535024}, {"id": "jv520u_DfCmLsiAtNHRBvA", "alias": "canopy-by-hilton-dallas-uptown-dallas", "name": "Canopy by Hilton Dallas Uptown", "image_url": "https://s3-media2.fl.yelpcdn.com/bphoto/eAlGT9QwrUFNiFALc2CFyA/o.jpg", "is_closed": false, "url": "https://www.yelp.com/biz/canopy-by-hilton-dallas-uptown-dallas?adjust_creative=p8ZmzrMnEc-h1IE5NUGjPA&utm_campaign=yelp_api_v3&utm_medium=api_v3_business_search&utm_source=p8ZmzrMnEc-h1IE5NUGjPA", "review_count": 100, "categories": [{"alias": "hotels", "title": "Hotels"}, {"alias": "venues", "title": "Venues & Event Spaces"}], "rating": 4.0, "coordinates": {"latitude": 32.8068795, "longitude": -96.7952538}, "transactions": [], "price": "$$$", "location": {"address1": "2950 Cityplace West Blvd", "address2": "", "address3": null, "city": "Dallas", "zip_code": "75204", "country": "US", "state": "TX", "display_address": ["2950 Cityplace West Blvd", "Dallas, TX 75204"]}, "phone": "+12145222929", "display_phone": "(214) 522-2929", "distance": 3610.3803999732763}, {"id": "1vXVseTrduYRwuQodBaPjg", "alias": "the-statler-dallas-curio-collection-by-hilton-dallas", "name": "The Statler Dallas, Curio Collection by Hilton", "image_url": "https://s3-media2.fl.yelpcdn.com/bphoto/OJ0kQbKGeXUQ--C-W5UvLQ/o.jpg", "is_closed": false, "url": "https://www.yelp.com/biz/the-statler-dallas-curio-collection-by-hilton-dallas?adjust_creative=p8ZmzrMnEc-h1IE5NUGjPA&utm_campaign=yelp_api_v3&utm_medium=api_v3_business_search&utm_source=p8ZmzrMnEc-h1IE5NUGjPA", "review_count": 282, "categories": [{"alias": "hotels", "title": "Hotels"}], "rating": 3.0, "coordinates": {"latitude": 32.780652, "longitude": -96.794651}, "transactions": [], "price": "$$", "location": {"address1": "1914 Commerce St", "address2": "", "address3": null, "city": "Dallas", "zip_code": "75201", "country": "US", "state": "TX", "display_address": ["1914 Commerce St", "Dallas, TX 75201"]}, "phone": "+12144593930", "display_phone": "(214) 459-3930", "distance": 6512.788326829677}, {"id": "Nc1pDC_YLq9XwgXERizkZQ", "alias": "rosewood-mansion-on-turtle-creek-dallas", "name": "Rosewood Mansion on Turtle Creek", "image_url": "https://s3-media3.fl.yelpcdn.com/bphoto/XxcYtAKoTfEvqT8ZX364sg/o.jpg", "is_closed": false, "url": "https://www.yelp.com/biz/rosewood-mansion-on-turtle-creek-dallas?adjust_creative=p8ZmzrMnEc-h1IE5NUGjPA&utm_campaign=yelp_api_v3&utm_medium=api_v3_business_search&utm_source=p8ZmzrMnEc-h1IE5NUGjPA", "review_count": 230, "categories": [{"alias": "hotels", "title": "Hotels"}], "rating": 4.0, "coordinates": {"latitude": 32.804180000183486, "longitude": -96.80742600000008}, "transactions": [], "price": "$$$", "location": {"address1": "2821 Turtle Creek Blvd", "address2": "", "address3": "", "city": "Dallas", "zip_code": "75219", "country": "US", "state": "TX", "display_address": ["2821 Turtle Creek Blvd", "Dallas, TX 75219"]}, "phone": "+12145592100", "display_phone": "(214) 559-2100", "distance": 3929.72063253455}, {"id": "F8124iB90KM1pfRuCKqoOg", "alias": "lorenzo-hotel-dallas-3", "name": "Lorenzo Hotel", "image_url": "https://s3-media2.fl.yelpcdn.com/bphoto/Sro2XaPwAlzZ9CHU-GLY8g/o.jpg", "is_closed": false, "url": "https://www.yelp.com/biz/lorenzo-hotel-dallas-3?adjust_creative=p8ZmzrMnEc-h1IE5NUGjPA&utm_campaign=yelp_api_v3&utm_medium=api_v3_business_search&utm_source=p8ZmzrMnEc-h1IE5NUGjPA", "review_count": 212, "categories": [{"alias": "hotels", "title": "Hotels"}], "rating": 4.0, "coordinates": {"latitude": 32.7728067, "longitude": -96.7954388}, "transactions": [], "price": "$$", "location": {"address1": "1011 S Akard St", "address2": "", "address3": null, "city": "Dallas", "zip_code": "75215", "country": "US", "state": "TX", "display_address": ["1011 S Akard St", "Dallas, TX 75215"]}, "phone": "+12142733000", "display_phone": "(214) 273-3000", "distance": 7380.583135611685}, {"id": "IqSFEFEuotmM5gVhp6uGgg", "alias": "omni-amelia-island-resort-fernandina-beach", "name": "Omni Amelia Island Resort", "image_url": "https://s3-media2.fl.yelpcdn.com/bphoto/mScRp9fTjQltxDWa5-g95Q/o.jpg", "is_closed": false, "url": "https://www.yelp.com/biz/omni-amelia-island-resort-fernandina-beach?adjust_creative=p8ZmzrMnEc-h1IE5NUGjPA&utm_campaign=yelp_api_v3&utm_medium=api_v3_business_search&utm_source=p8ZmzrMnEc-h1IE5NUGjPA", "review_count": 329, "categories": [{"alias": "hotels", "title": "Hotels"}, {"alias": "resorts", "title": "Resorts"}, {"alias": "golf", "title": "Golf"}], "rating": 3.0, "coordinates": {"latitude": 30.55551, "longitude": -81.44385}, "transactions": [], "price": "$$$", "location": {"address1": "39 Beach Lagoon Rd", "address2": "", "address3": "", "city": "Fernandina Beach", "zip_code": "32034", "country": "US", "state": "FL", "display_address": ["39 Beach Lagoon Rd", "Fernandina Beach, FL 32034"]}, "phone": "+19042616161", "display_phone": "(904) 261-6161", "distance": 4020.80416424108}, {"id": "7b8JQ7_UMW_qkmVt0Civfg", "alias": "doubletree-by-hilton-hotel-dallas-love-field-dallas", "name": "DoubleTree by Hilton Hotel Dallas - Love Field", "image_url": "https://s3-media3.fl.yelpcdn.com/bphoto/--cfEJbN_UGOA_R_Z26aiA/o.jpg", "is_closed": false, "url": "https://www.yelp.com/biz/doubletree-by-hilton-hotel-dallas-love-field-dallas?adjust_creative=p8ZmzrMnEc-h1IE5NUGjPA&utm_campaign=yelp_api_v3&utm_medium=api_v3_business_search&utm_source=p8ZmzrMnEc-h1IE5NUGjPA", "review_count": 59, "categories": [{"alias": "hotels", "title": "Hotels"}], "rating": 3.5, "coordinates": {"latitude": 32.83447084056751, "longitude": -96.8357714116246}, "transactions": [], "price": "$$", "location": {"address1": "3300 W Mockingbird Ln", "address2": "", "address3": "", "city": "Dallas", "zip_code": "75235", "country": "US", "state": "TX", "display_address": ["3300 W Mockingbird Ln", "Dallas, TX 75235"]}, "phone": "+12143578500", "display_phone": "(214) 357-8500", "distance": 3330.9053545982974}, {"id": "H0KxjgiNfg5n_gpH6sXhlQ", "alias": "hilton-dallas-park-cities-dallas-2", "name": "Hilton Dallas/Park Cities", "image_url": "https://s3-media2.fl.yelpcdn.com/bphoto/xtX6QjGB-BbfmhzRS6BwRQ/o.jpg", "is_closed": false, "url": "https://www.yelp.com/biz/hilton-dallas-park-cities-dallas-2?adjust_creative=p8ZmzrMnEc-h1IE5NUGjPA&utm_campaign=yelp_api_v3&utm_medium=api_v3_business_search&utm_source=p8ZmzrMnEc-h1IE5NUGjPA", "review_count": 88, "categories": [{"alias": "hotels", "title": "Hotels"}], "rating": 3.0, "coordinates": {"latitude": 32.8633988357663, "longitude": -96.8098483979702}, "transactions": [], "price": "$$$", "location": {"address1": "5954 Luther Ln", "address2": "", "address3": "", "city": "Dallas", "zip_code": "75225", "country": "US", "state": "TX", "display_address": ["5954 Luther Ln", "Dallas, TX 75225"]}, "phone": "+12143680400", "display_phone": "(214) 368-0400", "distance": 2844.4377616885345}, {"id": "_c5fQD-aHf3av8NR0-b42g", "alias": "hampton-inn-and-suites-dallas-downtown-dallas", "name": "Hampton Inn & Suites Dallas Downtown", "image_url": "https://s3-media4.fl.yelpcdn.com/bphoto/uxD64hRpSbDkOCEfGjfkmw/o.jpg", "is_closed": false, "url": "https://www.yelp.com/biz/hampton-inn-and-suites-dallas-downtown-dallas?adjust_creative=p8ZmzrMnEc-h1IE5NUGjPA&utm_campaign=yelp_api_v3&utm_medium=api_v3_business_search&utm_source=p8ZmzrMnEc-h1IE5NUGjPA", "review_count": 75, "categories": [{"alias": "hotels", "title": "Hotels"}], "rating": 3.5, "coordinates": {"latitude": 32.7802579, "longitude": -96.7967836}, "transactions": [], "price": "$$", "location": {"address1": "1700 Commerce St", "address2": null, "address3": "", "city": "Dallas", "zip_code": "75201", "country": "US", "state": "TX", "display_address": ["1700 Commerce St", "Dallas, TX 75201"]}, "phone": "+12142909090", "display_phone": "(214) 290-9090", "distance": 6546.057082786936}, {"id": "iJ0458RWQynk1z0r-9_Erw", "alias": "the-beeman-hotel-dallas", "name": "The Beeman Hotel", "image_url": "https://s3-media1.fl.yelpcdn.com/bphoto/0L9_0oyfx7_kneDdW_c-yg/o.jpg", "is_closed": false, "url": "https://www.yelp.com/biz/the-beeman-hotel-dallas?adjust_creative=p8ZmzrMnEc-h1IE5NUGjPA&utm_campaign=yelp_api_v3&utm_medium=api_v3_business_search&utm_source=p8ZmzrMnEc-h1IE5NUGjPA", "review_count": 79, "categories": [{"alias": "hotels", "title": "Hotels"}], "rating": 2.5, "coordinates": {"latitude": 32.84041688095193, "longitude": -96.77520494368277}, "transactions": [], "price": "$$", "location": {"address1": "6070 N Central Expy", "address2": null, "address3": null, "city": "Dallas", "zip_code": "75206", "country": "US", "state": "TX", "display_address": ["6070 N Central Expy", "Dallas, TX 75206"]}, "phone": "+12147506060", "display_phone": "(214) 750-6060", "distance": 2371.575755895958}, {"id": "1M6e4rQYQBoqwj1VZSeZaQ", "alias": "homewood-suites-by-hilton-dallas-downtown-tx-dallas", "name": "Homewood Suites by Hilton Dallas Downtown, TX", "image_url": "https://s3-media4.fl.yelpcdn.com/bphoto/s1OmRFbcZLqfvtQ3Y-i4Ww/o.jpg", "is_closed": false, "url": "https://www.yelp.com/biz/homewood-suites-by-hilton-dallas-downtown-tx-dallas?adjust_creative=p8ZmzrMnEc-h1IE5NUGjPA&utm_campaign=yelp_api_v3&utm_medium=api_v3_business_search&utm_source=p8ZmzrMnEc-h1IE5NUGjPA", "review_count": 88, "categories": [{"alias": "hotels", "title": "Hotels"}], "rating": 3.5, "coordinates": {"latitude": 32.7810373, "longitude": -96.802895}, "transactions": [], "price": "$$", "location": {"address1": "1025 Elm St", "address2": "", "address3": "", "city": "Dallas", "zip_code": "75202", "country": "US", "state": "TX", "display_address": ["1025 Elm St", "Dallas, TX 75202"]}, "phone": "+12147484000", "display_phone": "(214) 748-4000", "distance": 6453.749153038748}, {"id": "e-7eUY5PSWHONUfH-ZQKOA", "alias": "the-westin-galleria-dallas-dallas", "name": "The Westin Galleria Dallas", "image_url": "https://s3-media3.fl.yelpcdn.com/bphoto/kQ7SwkakKWTEqn0X2VEv6A/o.jpg", "is_closed": false, "url": "https://www.yelp.com/biz/the-westin-galleria-dallas-dallas?adjust_creative=p8ZmzrMnEc-h1IE5NUGjPA&utm_campaign=yelp_api_v3&utm_medium=api_v3_business_search&utm_source=p8ZmzrMnEc-h1IE5NUGjPA", "review_count": 209, "categories": [{"alias": "hotels", "title": "Hotels"}, {"alias": "venues", "title": "Venues & Event Spaces"}], "rating": 4.0, "coordinates": {"latitude": 32.93001, "longitude": -96.82041}, "transactions": [], "price": "$$$", "location": {"address1": "13340 Dallas Pkwy", "address2": "", "address3": "", "city": "Dallas", "zip_code": "75240", "country": "US", "state": "TX", "display_address": ["13340 Dallas Pkwy", "Dallas, TX 75240"]}, "phone": "+19729349494", "display_phone": "(972) 934-9494", "distance": 10273.442860823978}, {"id": "ms7zuRB5pXiIcDJom3IcGA", "alias": "courtyard-dallas-carrollton-and-carrollton-conference-center-carrollton", "name": "Courtyard Dallas Carrollton and Carrollton Conference Center", "image_url": "https://s3-media2.fl.yelpcdn.com/bphoto/d7CMR_36SYEeAdRUJLzBXg/o.jpg", "is_closed": false, "url": "https://www.yelp.com/biz/courtyard-dallas-carrollton-and-carrollton-conference-center-carrollton?adjust_creative=p8ZmzrMnEc-h1IE5NUGjPA&utm_campaign=yelp_api_v3&utm_medium=api_v3_business_search&utm_source=p8ZmzrMnEc-h1IE5NUGjPA", "review_count": 26, "categories": [{"alias": "hotels", "title": "Hotels"}], "rating": 4.0, "coordinates": {"latitude": 32.986263, "longitude": -96.900409}, "transactions": [], "price": "$$", "location": {"address1": "1201 Raiford Rd", "address2": null, "address3": null, "city": "Carrollton", "zip_code": "75006", "country": "US", "state": "TX", "display_address": ["1201 Raiford Rd", "Carrollton, TX 75006"]}, "phone": "+19724460001", "display_phone": "(972) 446-0001", "distance": 18838.62214684544}, {"id": "mh7Py80XvJ_xMuwOOMChZg", "alias": "hampton-inn-and-suites-dallas-central-expy-north-park-area-dallas", "name": "Hampton Inn & Suites Dallas - Central Expy North Park Area", "image_url": "https://s3-media2.fl.yelpcdn.com/bphoto/KCVw4gnFd4qoXFHA4s2MlA/o.jpg", "is_closed": false, "url": "https://www.yelp.com/biz/hampton-inn-and-suites-dallas-central-expy-north-park-area-dallas?adjust_creative=p8ZmzrMnEc-h1IE5NUGjPA&utm_campaign=yelp_api_v3&utm_medium=api_v3_business_search&utm_source=p8ZmzrMnEc-h1IE5NUGjPA", "review_count": 32, "categories": [{"alias": "hotels", "title": "Hotels"}], "rating": 3.0, "coordinates": {"latitude": 32.88707660158691, "longitude": -96.7687663435936}, "transactions": [], "price": "$$", "location": {"address1": "10370 N Central Expy", "address2": "", "address3": null, "city": "Dallas", "zip_code": "75231", "country": "US", "state": "TX", "display_address": ["10370 N Central Expy", "Dallas, TX 75231"]}, "phone": "+12143610033", "display_phone": "(214) 361-0033", "distance": 6109.999136606897}, {"id": "Im8CPqw3QWmTXgL6ulxQUw", "alias": "sova-dallas-10", "name": "Sova", "image_url": "https://s3-media2.fl.yelpcdn.com/bphoto/OQlm_-f8EYpk3G_1IpzzjA/o.jpg", "is_closed": false, "url": "https://www.yelp.com/biz/sova-dallas-10?adjust_creative=p8ZmzrMnEc-h1IE5NUGjPA&utm_campaign=yelp_api_v3&utm_medium=api_v3_business_search&utm_source=p8ZmzrMnEc-h1IE5NUGjPA", "review_count": 22, "categories": [{"alias": "hotels", "title": "Hotels"}], "rating": 4.0, "coordinates": {"latitude": 32.78160665754962, "longitude": -96.791952}, "transactions": [], "location": {"address1": "2105 Commerce St", "address2": null, "address3": "", "city": "Dallas", "zip_code": "75201", "country": "US", "state": "TX", "display_address": ["2105 Commerce St", "Dallas, TX 75201"]}, "phone": "+16826266643", "display_phone": "(682) 626-6643", "distance": 6436.875503775399}, {"id": "HXbTY77X28QmU7_YmUl4DQ", "alias": "stone-canyon-ranch-and-cabin-red-oak", "name": "Stone Canyon Ranch and Cabin", "image_url": "https://s3-media1.fl.yelpcdn.com/bphoto/ORalVzSpFuglBGjL5GX9aA/o.jpg", "is_closed": false, "url": "https://www.yelp.com/biz/stone-canyon-ranch-and-cabin-red-oak?adjust_creative=p8ZmzrMnEc-h1IE5NUGjPA&utm_campaign=yelp_api_v3&utm_medium=api_v3_business_search&utm_source=p8ZmzrMnEc-h1IE5NUGjPA", "review_count": 7, "categories": [{"alias": "resorts", "title": "Resorts"}], "rating": 4.5, "coordinates": {"latitude": 32.551552, "longitude": -96.876804}, "transactions": [], "location": {"address1": "2011 S Westmoreland Rd", "address2": "", "address3": "", "city": "Red Oak", "zip_code": "75154", "country": "US", "state": "TX", "display_address": ["2011 S Westmoreland Rd", "Red Oak, TX 75154"]}, "phone": "+14696585584", "display_phone": "(469) 658-5584", "distance": 32754.517101024812}, {"id": "I4HTTGHOEp60zE6eGdO0YQ", "alias": "gaylord-texan-resort-and-convention-center-grapevine-3", "name": "Gaylord Texan Resort & Convention Center", "image_url": "https://s3-media2.fl.yelpcdn.com/bphoto/Ap08-f4YW2dR0qTbdvxluw/o.jpg", "is_closed": false, "url": "https://www.yelp.com/biz/gaylord-texan-resort-and-convention-center-grapevine-3?adjust_creative=p8ZmzrMnEc-h1IE5NUGjPA&utm_campaign=yelp_api_v3&utm_medium=api_v3_business_search&utm_source=p8ZmzrMnEc-h1IE5NUGjPA", "review_count": 1143, "categories": [{"alias": "hotels", "title": "Hotels"}, {"alias": "venues", "title": "Venues & Event Spaces"}], "rating": 3.0, "coordinates": {"latitude": 32.9546826652458, "longitude": -97.0644595291138}, "transactions": [], "price": "$$$", "location": {"address1": "1501 Gaylord Trl", "address2": "", "address3": "", "city": "Grapevine", "zip_code": "76051", "country": "US", "state": "TX", "display_address": ["1501 Gaylord Trl", "Grapevine, TX 76051"]}, "phone": "+18177781000", "display_phone": "(817) 778-1000", "distance": 27794.244005933902}, {"id": "OeNYh9o8Ped3uKuVSbxgiA", "alias": "marriott-dallas-fort-worth-westlake-westlake", "name": "Marriott Dallas/Fort Worth Westlake", "image_url": "https://s3-media2.fl.yelpcdn.com/bphoto/2jiKcCVvm6bmLIHSPFN3LA/o.jpg", "is_closed": false, "url": "https://www.yelp.com/biz/marriott-dallas-fort-worth-westlake-westlake?adjust_creative=p8ZmzrMnEc-h1IE5NUGjPA&utm_campaign=yelp_api_v3&utm_medium=api_v3_business_search&utm_source=p8ZmzrMnEc-h1IE5NUGjPA", "review_count": 83, "categories": [{"alias": "hotels", "title": "Hotels"}, {"alias": "venues", "title": "Venues & Event Spaces"}], "rating": 3.5, "coordinates": {"latitude": 32.9790535005346, "longitude": -97.1682026650124}, "transactions": [], "price": "$$", "location": {"address1": "1301 Solana Blvd", "address2": "Bldg 3", "address3": "", "city": "Westlake", "zip_code": "76262", "country": "US", "state": "TX", "display_address": ["1301 Solana Blvd", "Bldg 3", "Westlake, TX 76262"]}, "phone": "+18174305000", "display_phone": "(817) 430-5000", "distance": 37688.04922679913}, {"id": "60ruhU8GTXek12NrRmaiIg", "alias": "courtyard-by-marriott-dallas", "name": "Courtyard by Marriott", "image_url": "https://s3-media3.fl.yelpcdn.com/bphoto/nIX-1kMDj-2dtH166E5ntA/o.jpg", "is_closed": false, "url": "https://www.yelp.com/biz/courtyard-by-marriott-dallas?adjust_creative=p8ZmzrMnEc-h1IE5NUGjPA&utm_campaign=yelp_api_v3&utm_medium=api_v3_business_search&utm_source=p8ZmzrMnEc-h1IE5NUGjPA", "review_count": 27, "categories": [{"alias": "hotels", "title": "Hotels"}], "rating": 3.5, "coordinates": {"latitude": 32.799552221578026, "longitude": -96.82521880480776}, "transactions": [], "price": "$$", "location": {"address1": "2150 Market Center Blvd", "address2": "", "address3": "", "city": "Dallas", "zip_code": "75207", "country": "US", "state": "TX", "display_address": ["2150 Market Center Blvd", "Dallas, TX 75207"]}, "phone": "+12146531168", "display_phone": "(214) 653-1168", "distance": 4960.079167025296}, {"id": "f2eO94AVySUeSCn5_HGrAg", "alias": "the-gaston-dallas", "name": "The Gaston", "image_url": "https://s3-media2.fl.yelpcdn.com/bphoto/avEc_EUjJpjJWmnSQ_dptw/o.jpg", "is_closed": false, "url": "https://www.yelp.com/biz/the-gaston-dallas?adjust_creative=p8ZmzrMnEc-h1IE5NUGjPA&utm_campaign=yelp_api_v3&utm_medium=api_v3_business_search&utm_source=p8ZmzrMnEc-h1IE5NUGjPA", "review_count": 6, "categories": [{"alias": "hotels", "title": "Hotels"}], "rating": 5.0, "coordinates": {"latitude": 32.798689, "longitude": -96.770459}, "transactions": [], "location": {"address1": "4802 Gaston Ave", "address2": null, "address3": "", "city": "Dallas", "zip_code": "75246", "country": "US", "state": "TX", "display_address": ["4802 Gaston Ave", "Dallas, TX 75246"]}, "phone": "+14696311166", "display_phone": "(469) 631-1166", "distance": 5284.524351854876}, {"id": "xEKAb9TGx4aOGbHXSaCmDQ", "alias": "hampton-inn-and-suites-dallas-market-center-dallas", "name": "Hampton Inn & Suites Dallas Market Center", "image_url": "https://s3-media2.fl.yelpcdn.com/bphoto/janOqgroF4u9gklIaZyReQ/o.jpg", "is_closed": false, "url": "https://www.yelp.com/biz/hampton-inn-and-suites-dallas-market-center-dallas?adjust_creative=p8ZmzrMnEc-h1IE5NUGjPA&utm_campaign=yelp_api_v3&utm_medium=api_v3_business_search&utm_source=p8ZmzrMnEc-h1IE5NUGjPA", "review_count": 48, "categories": [{"alias": "hotels", "title": "Hotels"}], "rating": 3.0, "coordinates": {"latitude": 32.811261, "longitude": -96.858304}, "transactions": [], "price": "$$", "location": {"address1": "3051 N Stemmons Fwy", "address2": "", "address3": "", "city": "Dallas", "zip_code": "75247", "country": "US", "state": "TX", "display_address": ["3051 N Stemmons Fwy", "Dallas, TX 75247"]}, "phone": "+12146311300", "display_phone": "(214) 631-1300", "distance": 6219.265822274919}, {"id": "oTh7enn-7xI1XVC43Nd3lA", "alias": "omni-las-colinas-hotel-irving", "name": "Omni Las Colinas Hotel", "image_url": "https://s3-media2.fl.yelpcdn.com/bphoto/My-8v1eupy-pOtD_6CcAdQ/o.jpg", "is_closed": false, "url": "https://www.yelp.com/biz/omni-las-colinas-hotel-irving?adjust_creative=p8ZmzrMnEc-h1IE5NUGjPA&utm_campaign=yelp_api_v3&utm_medium=api_v3_business_search&utm_source=p8ZmzrMnEc-h1IE5NUGjPA", "review_count": 244, "categories": [{"alias": "hotels", "title": "Hotels"}, {"alias": "venues", "title": "Venues & Event Spaces"}], "rating": 3.5, "coordinates": {"latitude": 32.867502, "longitude": -96.937742}, "transactions": [], "price": "$$$", "location": {"address1": "221 E Las Colinas Blvd", "address2": "", "address3": null, "city": "Irving", "zip_code": "75039", "country": "US", "state": "TX", "display_address": ["221 E Las Colinas Blvd", "Irving, TX 75039"]}, "phone": "+19725560800", "display_phone": "(972) 556-0800", "distance": 13201.268858470405}, {"id": "hYFEWCvTp7tAeDvECRnJCA", "alias": "the-guild-uptown-dallas", "name": "The Guild Uptown", "image_url": "https://s3-media4.fl.yelpcdn.com/bphoto/sPNpt72mFsxg6tLuOYnNhQ/o.jpg", "is_closed": false, "url": "https://www.yelp.com/biz/the-guild-uptown-dallas?adjust_creative=p8ZmzrMnEc-h1IE5NUGjPA&utm_campaign=yelp_api_v3&utm_medium=api_v3_business_search&utm_source=p8ZmzrMnEc-h1IE5NUGjPA", "review_count": 11, "categories": [{"alias": "hotels", "title": "Hotels"}], "rating": 4.0, "coordinates": {"latitude": 32.799729, "longitude": -96.802589}, "transactions": [], "price": "$$", "location": {"address1": "2717 Howell St", "address2": "Apt 2309", "address3": "", "city": "Dallas", "zip_code": "75201", "country": "US", "state": "TX", "display_address": ["2717 Howell St", "Apt 2309", "Dallas, TX 75201"]}, "phone": "+15126237480", "display_phone": "(512) 623-7480", "distance": 4375.769108670539}, {"id": "bY9HDK5h6wKKqit24KjEYw", "alias": "warwick-melrose-dallas-dallas", "name": "Warwick Melrose - Dallas", "image_url": "https://s3-media1.fl.yelpcdn.com/bphoto/0ORzEghJ3zNwaa-Ue0v85Q/o.jpg", "is_closed": false, "url": "https://www.yelp.com/biz/warwick-melrose-dallas-dallas?adjust_creative=p8ZmzrMnEc-h1IE5NUGjPA&utm_campaign=yelp_api_v3&utm_medium=api_v3_business_search&utm_source=p8ZmzrMnEc-h1IE5NUGjPA", "review_count": 219, "categories": [{"alias": "hotels", "title": "Hotels"}], "rating": 3.5, "coordinates": {"latitude": 32.809126714516, "longitude": -96.8093125402526}, "transactions": [], "price": "$$$", "location": {"address1": "3015 Oak Lawn Ave", "address2": "", "address3": "", "city": "Dallas", "zip_code": "75219", "country": "US", "state": "TX", "display_address": ["3015 Oak Lawn Ave", "Dallas, TX 75219"]}, "phone": "+12145215151", "display_phone": "(214) 521-5151", "distance": 3426.1603950165395}, {"id": "pMPK9kkVJhTpAb_lTrvNfg", "alias": "avalon-motel-dallas", "name": "Avalon Motel", "image_url": "https://s3-media3.fl.yelpcdn.com/bphoto/diXsLeOPbixyXRdXBHTbHg/o.jpg", "is_closed": false, "url": "https://www.yelp.com/biz/avalon-motel-dallas?adjust_creative=p8ZmzrMnEc-h1IE5NUGjPA&utm_campaign=yelp_api_v3&utm_medium=api_v3_business_search&utm_source=p8ZmzrMnEc-h1IE5NUGjPA", "review_count": 6, "categories": [{"alias": "hotels", "title": "Hotels"}], "rating": 3.5, "coordinates": {"latitude": 32.76859, "longitude": -96.8388499}, "transactions": [], "price": "$", "location": {"address1": "1015 Fort Worth Ave", "address2": "", "address3": "", "city": "Dallas", "zip_code": "75208", "country": "US", "state": "TX", "display_address": ["1015 Fort Worth Ave", "Dallas, TX 75208"]}, "phone": "+12147423356", "display_phone": "(214) 742-3356", "distance": 8601.217502506815}, {"id": "V7bz3PrgNIHmH8ZTvHtX-Q", "alias": "embassy-suites-by-hilton-dallas-love-field-dallas", "name": "Embassy Suites by Hilton Dallas Love Field", "image_url": "https://s3-media4.fl.yelpcdn.com/bphoto/zHXMEsTSbHZMqKXz3E6DBw/o.jpg", "is_closed": false, "url": "https://www.yelp.com/biz/embassy-suites-by-hilton-dallas-love-field-dallas?adjust_creative=p8ZmzrMnEc-h1IE5NUGjPA&utm_campaign=yelp_api_v3&utm_medium=api_v3_business_search&utm_source=p8ZmzrMnEc-h1IE5NUGjPA", "review_count": 117, "categories": [{"alias": "hotels", "title": "Hotels"}], "rating": 2.5, "coordinates": {"latitude": 32.8610231, "longitude": -96.849916}, "transactions": [], "price": "$$", "location": {"address1": "3880 W Northwest Hwy", "address2": "", "address3": "", "city": "Dallas", "zip_code": "75220", "country": "US", "state": "TX", "display_address": ["3880 W Northwest Hwy", "Dallas, TX 75220"]}, "phone": "+12143574500", "display_phone": "(214) 357-4500", "distance": 5220.157485871227}, {"id": "jjTPYANVnUCRQyrbFXbHAA", "alias": "best-western-cityplace-inn-dallas", "name": "Best Western Cityplace Inn", "image_url": "https://s3-media3.fl.yelpcdn.com/bphoto/kR0K92gDDD6TerKqLYkClQ/o.jpg", "is_closed": false, "url": "https://www.yelp.com/biz/best-western-cityplace-inn-dallas?adjust_creative=p8ZmzrMnEc-h1IE5NUGjPA&utm_campaign=yelp_api_v3&utm_medium=api_v3_business_search&utm_source=p8ZmzrMnEc-h1IE5NUGjPA", "review_count": 24, "categories": [{"alias": "hotels", "title": "Hotels"}], "rating": 2.5, "coordinates": {"latitude": 32.814856, "longitude": -96.788784}, "transactions": [], "price": "$$", "location": {"address1": "4150 N Central Expy", "address2": "", "address3": "", "city": "Dallas", "zip_code": "75204", "country": "US", "state": "TX", "display_address": ["4150 N Central Expy", "Dallas, TX 75204"]}, "phone": "+12148276080", "display_phone": "(214) 827-6080", "distance": 2905.0908434168396}, {"id": "TFAlagSLXKQL3gQAI-1zhQ", "alias": "hotel-crescent-court-dallas-2", "name": "Hotel Crescent Court", "image_url": "https://s3-media3.fl.yelpcdn.com/bphoto/bXJly_RzKxtnelCmDVZkhQ/o.jpg", "is_closed": false, "url": "https://www.yelp.com/biz/hotel-crescent-court-dallas-2?adjust_creative=p8ZmzrMnEc-h1IE5NUGjPA&utm_campaign=yelp_api_v3&utm_medium=api_v3_business_search&utm_source=p8ZmzrMnEc-h1IE5NUGjPA", "review_count": 88, "categories": [{"alias": "hotels", "title": "Hotels"}, {"alias": "venues", "title": "Venues & Event Spaces"}], "rating": 3.5, "coordinates": {"latitude": 32.794568, "longitude": -96.804426}, "transactions": [], "price": "$$$$", "location": {"address1": "400 Crescent Ct", "address2": "", "address3": null, "city": "Dallas", "zip_code": "75201", "country": "US", "state": "TX", "display_address": ["400 Crescent Ct", "Dallas, TX 75201"]}, "phone": "+12148713200", "display_phone": "(214) 871-3200", "distance": 4958.777122519303}, {"id": "uTELUWKDYvjwk5CIvlKCBA", "alias": "hyatt-place-dallas-north-galleria-dallas", "name": "Hyatt Place Dallas North Galleria", "image_url": "https://s3-media2.fl.yelpcdn.com/bphoto/IUMqH864j4Is1pgQxmTy0w/o.jpg", "is_closed": false, "url": "https://www.yelp.com/biz/hyatt-place-dallas-north-galleria-dallas?adjust_creative=p8ZmzrMnEc-h1IE5NUGjPA&utm_campaign=yelp_api_v3&utm_medium=api_v3_business_search&utm_source=p8ZmzrMnEc-h1IE5NUGjPA", "review_count": 96, "categories": [{"alias": "hotels", "title": "Hotels"}, {"alias": "venues", "title": "Venues & Event Spaces"}], "rating": 4.0, "coordinates": {"latitude": 32.94039, "longitude": -96.81949}, "transactions": [], "price": "$$", "location": {"address1": "5229 Spring Valley Rd", "address2": "", "address3": "", "city": "Dallas", "zip_code": "75254", "country": "US", "state": "TX", "display_address": ["5229 Spring Valley Rd", "Dallas, TX 75254"]}, "phone": "+19727162001", "display_phone": "(972) 716-2001", "distance": 11428.84887338789}, {"id": "HjTYrosqvMMnoMfKM0T_xQ", "alias": "hall-arts-hotel-dallas-curio-collection-by-hilton-dallas-2", "name": "HALL Arts Hotel Dallas, Curio Collection by Hilton", "image_url": "https://s3-media1.fl.yelpcdn.com/bphoto/6iOiOlcahTmtHSVF5rPgGQ/o.jpg", "is_closed": false, "url": "https://www.yelp.com/biz/hall-arts-hotel-dallas-curio-collection-by-hilton-dallas-2?adjust_creative=p8ZmzrMnEc-h1IE5NUGjPA&utm_campaign=yelp_api_v3&utm_medium=api_v3_business_search&utm_source=p8ZmzrMnEc-h1IE5NUGjPA", "review_count": 41, "categories": [{"alias": "hotels", "title": "Hotels"}, {"alias": "venues", "title": "Venues & Event Spaces"}], "rating": 4.0, "coordinates": {"latitude": 32.78983165841412, "longitude": -96.79697368220896}, "transactions": [], "location": {"address1": "1717 Leonard St", "address2": "", "address3": null, "city": "Dallas", "zip_code": "75201", "country": "US", "state": "TX", "display_address": ["1717 Leonard St", "Dallas, TX 75201"]}, "phone": "+12149531717", "display_phone": "(214) 953-1717", "distance": 5482.222395274197}, {"id": "CSLzPn0lzrJo8d86TqxmTw", "alias": "the-adolphus-dallas-3", "name": "The Adolphus", "image_url": "https://s3-media3.fl.yelpcdn.com/bphoto/Ucu1XBLLgHKaAa04wY_Qyw/o.jpg", "is_closed": false, "url": "https://www.yelp.com/biz/the-adolphus-dallas-3?adjust_creative=p8ZmzrMnEc-h1IE5NUGjPA&utm_campaign=yelp_api_v3&utm_medium=api_v3_business_search&utm_source=p8ZmzrMnEc-h1IE5NUGjPA", "review_count": 487, "categories": [{"alias": "hotels", "title": "Hotels"}, {"alias": "venues", "title": "Venues & Event Spaces"}], "rating": 3.5, "coordinates": {"latitude": 32.779801126628875, "longitude": -96.80012139634636}, "transactions": [], "price": "$$$", "location": {"address1": "1321 Commerce St", "address2": "", "address3": "", "city": "Dallas", "zip_code": "75202", "country": "US", "state": "TX", "display_address": ["1321 Commerce St", "Dallas, TX 75202"]}, "phone": "+12147428200", "display_phone": "(214) 742-8200", "distance": 6587.556664395798}, {"id": "pudCaHmxpmwoVKPPQ2jcVw", "alias": "hilton-garden-inn-dallas-central-expy-north-park-area-dallas", "name": "Hilton Garden Inn Dallas Central Expy North Park Area", "image_url": "https://s3-media2.fl.yelpcdn.com/bphoto/SZZMVrDY-D4iLj2x2BV0JQ/o.jpg", "is_closed": false, "url": "https://www.yelp.com/biz/hilton-garden-inn-dallas-central-expy-north-park-area-dallas?adjust_creative=p8ZmzrMnEc-h1IE5NUGjPA&utm_campaign=yelp_api_v3&utm_medium=api_v3_business_search&utm_source=p8ZmzrMnEc-h1IE5NUGjPA", "review_count": 11, "categories": [{"alias": "hotels", "title": "Hotels"}], "rating": 3.5, "coordinates": {"latitude": 32.8866208709099, "longitude": -96.768848447557}, "transactions": [], "location": {"address1": "10350 N Central Expy", "address2": null, "address3": null, "city": "Dallas", "zip_code": "75231", "country": "US", "state": "TX", "display_address": ["10350 N Central Expy", "Dallas, TX 75231"]}, "phone": "+12146963000", "display_phone": "(214) 696-3000", "distance": 6062.0077184480815}], "total": 901, "region": {"center": {"longitude": -96.800537109375, "latitude": 32.839043482398054}}}