{"businesses": [{"id": "DJTkrjGNEqzIqXUu9EW-hQ", "alias": "the-post-oak-hotel-at-uptown-houston-houston-4", "name": "The Post Oak Hotel at Uptown Houston", "image_url": "https://s3-media2.fl.yelpcdn.com/bphoto/_RSdZrLYv-OHcfEEgGQu4w/o.jpg", "is_closed": false, "url": "https://www.yelp.com/biz/the-post-oak-hotel-at-uptown-houston-houston-4?adjust_creative=XXt1Nge7yivmjq1WyN0Lzw&utm_campaign=yelp_api_v3&utm_medium=api_v3_business_search&utm_source=XXt1Nge7yivmjq1WyN0Lzw", "review_count": 134, "categories": [{"alias": "hotels", "title": "Hotels"}], "rating": 4.0, "coordinates": {"latitude": 29.75217854306034, "longitude": -95.4570131078368}, "transactions": [], "price": "$$$$", "location": {"address1": "1600 W Lp S", "address2": "", "address3": null, "city": "Houston", "zip_code": "77027", "country": "US", "state": "TX", "display_address": ["1600 W Lp S", "Houston, TX 77027"]}, "phone": "+18443861600", "display_phone": "(844) 386-1600", "distance": 2356.3584955847464}, {"id": "u-O5igDQkUWnl47VhJcVVQ", "alias": "homewood-suites-by-hilton-houston-memorial-houston-2", "name": "Homewood Suites By Hilton Houston Memorial", "image_url": "https://s3-media4.fl.yelpcdn.com/bphoto/BkwSyhaArVpOjls7i-7xzA/o.jpg", "is_closed": false, "url": "https://www.yelp.com/biz/homewood-suites-by-hilton-houston-memorial-houston-2?adjust_creative=XXt1Nge7yivmjq1WyN0Lzw&utm_campaign=yelp_api_v3&utm_medium=api_v3_business_search&utm_source=XXt1Nge7yivmjq1WyN0Lzw", "review_count": 19, "categories": [{"alias": "hotels", "title": "Hotels"}], "rating": 4.5, "coordinates": {"latitude": 29.78647269980597, "longitude": -95.52710316587576}, "transactions": [], "price": "$$", "location": {"address1": "9450 Katy Fwy", "address2": "", "address3": null, "city": "Houston", "zip_code": "77055", "country": "US", "state": "TX", "display_address": ["9450 Katy Fwy", "Houston, TX 77055"]}, "phone": "+17133250101", "display_phone": "(713) 325-0101", "distance": 7138.961664567986}, {"id": "y3PK7O-Yf0w7yFKe6YopxA", "alias": "the-houstonian-hotel-club-and-spa-houston-3", "name": "The Houstonian Hotel, Club, & Spa", "image_url": "https://s3-media3.fl.yelpcdn.com/bphoto/5JT4Hv0OKIukcQGae559dw/o.jpg", "is_closed": false, "url": "https://www.yelp.com/biz/the-houstonian-hotel-club-and-spa-houston-3?adjust_creative=XXt1Nge7yivmjq1WyN0Lzw&utm_campaign=yelp_api_v3&utm_medium=api_v3_business_search&utm_source=XXt1Nge7yivmjq1WyN0Lzw", "review_count": 237, "categories": [{"alias": "hotels", "title": "Hotels"}], "rating": 4.0, "coordinates": {"latitude": 29.7686799, "longitude": -95.4576556}, "transactions": [], "price": "$$$$", "location": {"address1": "111 N Post Oak Ln", "address2": "", "address3": "", "city": "Houston", "zip_code": "77024", "country": "US", "state": "TX", "display_address": ["111 N Post Oak Ln", "Houston, TX 77024"]}, "phone": "+17136802626", "display_phone": "(713) 680-2626", "distance": 868.8384665300298}, {"id": "CKt1HpQKAFKC6Z0RY9AOFA", "alias": "omni-houston-hotel-houston-2", "name": "Omni Houston Hotel", "image_url": "https://s3-media1.fl.yelpcdn.com/bphoto/STkuNT61iRgrlCExHkyKXg/o.jpg", "is_closed": false, "url": "https://www.yelp.com/biz/omni-houston-hotel-houston-2?adjust_creative=XXt1Nge7yivmjq1WyN0Lzw&utm_campaign=yelp_api_v3&utm_medium=api_v3_business_search&utm_source=XXt1Nge7yivmjq1WyN0Lzw", "review_count": 204, "categories": [{"alias": "hotels", "title": "Hotels"}, {"alias": "venues", "title": "Venues & Event Spaces"}], "rating": 3.0, "coordinates": {"latitude": 29.76175, "longitude": -95.45946}, "transactions": [], "price": "$$$", "location": {"address1": "4 Riverway", "address2": "", "address3": "", "city": "Houston", "zip_code": "77056", "country": "US", "state": "TX", "display_address": ["4 Riverway", "Houston, TX 77056"]}, "phone": "+17138718181", "display_phone": "(713) 871-8181", "distance": 1432.9325521361557}, {"id": "CC6bbMBGPgDkHhOLyLX53A", "alias": "hampton-inn-and-suites-houston-heights-i-10-houston", "name": "Hampton Inn & Suites Houston Heights I-10", "image_url": "https://s3-media4.fl.yelpcdn.com/bphoto/Ac5gFy-2w0DR4UlhLwiCMA/o.jpg", "is_closed": false, "url": "https://www.yelp.com/biz/hampton-inn-and-suites-houston-heights-i-10-houston?adjust_creative=XXt1Nge7yivmjq1WyN0Lzw&utm_campaign=yelp_api_v3&utm_medium=api_v3_business_search&utm_source=XXt1Nge7yivmjq1WyN0Lzw", "review_count": 54, "categories": [{"alias": "hotels", "title": "Hotels"}], "rating": 3.5, "coordinates": {"latitude": 29.7783011442489, "longitude": -95.428321659565}, "transactions": [], "price": "$$", "location": {"address1": "5820 Katy Fwy", "address2": "", "address3": "", "city": "Houston", "zip_code": "77007", "country": "US", "state": "TX", "display_address": ["5820 Katy Fwy", "Houston, TX 77007"]}, "phone": "+17138699211", "display_phone": "(713) 869-9211", "distance": 2607.622933949099}, {"id": "DuVkCnl50hpWxiEzei-jVg", "alias": "hotel-zaza-museum-district-houston", "name": "Hotel ZaZa Museum District", "image_url": "https://s3-media3.fl.yelpcdn.com/bphoto/B-dpBS1Ic_IURWQ6PuKXMA/o.jpg", "is_closed": false, "url": "https://www.yelp.com/biz/hotel-zaza-museum-district-houston?adjust_creative=XXt1Nge7yivmjq1WyN0Lzw&utm_campaign=yelp_api_v3&utm_medium=api_v3_business_search&utm_source=XXt1Nge7yivmjq1WyN0Lzw", "review_count": 518, "categories": [{"alias": "hotels", "title": "Hotels"}], "rating": 4.0, "coordinates": {"latitude": 29.724415, "longitude": -95.390126}, "transactions": [], "price": "$$$", "location": {"address1": "5701 Main St", "address2": "", "address3": "", "city": "Houston", "zip_code": "77005", "country": "US", "state": "TX", "display_address": ["5701 Main St", "Houston, TX 77005"]}, "phone": "+18888803244", "display_phone": "(888) 880-3244", "distance": 8270.114893369968}, {"id": "3TrwRkItZejobXyrcmrYEQ", "alias": "drury-inn-and-suites-houston-near-the-galleria-houston", "name": "Drury Inn & Suites Houston Near the Galleria", "image_url": "https://s3-media4.fl.yelpcdn.com/bphoto/AOrvTYEehY8zbjrXyoTi4Q/o.jpg", "is_closed": false, "url": "https://www.yelp.com/biz/drury-inn-and-suites-houston-near-the-galleria-houston?adjust_creative=XXt1Nge7yivmjq1WyN0Lzw&utm_campaign=yelp_api_v3&utm_medium=api_v3_business_search&utm_source=XXt1Nge7yivmjq1WyN0Lzw", "review_count": 58, "categories": [{"alias": "hotels", "title": "Hotels"}], "rating": 4.5, "coordinates": {"latitude": 29.751263465100617, "longitude": -95.454497}, "transactions": [], "price": "$$", "location": {"address1": "1615 W Lp S", "address2": "", "address3": "", "city": "Houston", "zip_code": "77027", "country": "US", "state": "TX", "display_address": ["1615 W Lp S", "Houston, TX 77027"]}, "phone": "+17139630700", "display_phone": "(713) 963-0700", "distance": 2447.705310858748}, {"id": "mSkfE4xUrpQCKvsCZlq72Q", "alias": "the-st-regis-houston-houston", "name": "The St. Regis Houston", "image_url": "https://s3-media4.fl.yelpcdn.com/bphoto/3Kv_CgmoT4YWNN1mX9wOZw/o.jpg", "is_closed": false, "url": "https://www.yelp.com/biz/the-st-regis-houston-houston?adjust_creative=XXt1Nge7yivmjq1WyN0Lzw&utm_campaign=yelp_api_v3&utm_medium=api_v3_business_search&utm_source=XXt1Nge7yivmjq1WyN0Lzw", "review_count": 158, "categories": [{"alias": "hotels", "title": "Hotels"}, {"alias": "venues", "title": "Venues & Event Spaces"}], "rating": 4.0, "coordinates": {"latitude": 29.747659, "longitude": -95.450366}, "transactions": [], "price": "$$$", "location": {"address1": "1919 Briar Oaks Lane", "address2": "", "address3": "", "city": "Houston", "zip_code": "77027", "country": "US", "state": "TX", "display_address": ["1919 Briar Oaks Lane", "Houston, TX 77027"]}, "phone": "+17138407600", "display_phone": "(713) 840-7600", "distance": 2885.0276000860867}, {"id": "mc3tFFAQq8F7CZQx3jbkSg", "alias": "hyatt-regency-houston-galleria-houston", "name": "Hyatt Regency Houston/Galleria", "image_url": "https://s3-media1.fl.yelpcdn.com/bphoto/huS1BkJr8OQNqXn8vlpuUw/o.jpg", "is_closed": false, "url": "https://www.yelp.com/biz/hyatt-regency-houston-galleria-houston?adjust_creative=XXt1Nge7yivmjq1WyN0Lzw&utm_campaign=yelp_api_v3&utm_medium=api_v3_business_search&utm_source=XXt1Nge7yivmjq1WyN0Lzw", "review_count": 157, "categories": [{"alias": "venues", "title": "Venues & Event Spaces"}, {"alias": "hotels", "title": "Hotels"}], "rating": 3.5, "coordinates": {"latitude": 29.7383121836773, "longitude": -95.4672268115395}, "transactions": [], "price": "$$", "location": {"address1": "2626 Sage Rd", "address2": null, "address3": null, "city": "Houston", "zip_code": "77056", "country": "US", "state": "TX", "display_address": ["2626 Sage Rd", "Houston, TX 77056"]}, "phone": "+18328031234", "display_phone": "(832) 803-1234", "distance": 4071.1165898580284}, {"id": "Ocg-XbydNdXp_ZS0j9v8FA", "alias": "holiday-inn-express-and-suites-houston-memorial-park-area-houston", "name": "Holiday Inn Express & Suites Houston - Memorial Park Area", "image_url": "https://s3-media2.fl.yelpcdn.com/bphoto/GEhKejeU-XQyDqo_Z8sAZQ/o.jpg", "is_closed": false, "url": "https://www.yelp.com/biz/holiday-inn-express-and-suites-houston-memorial-park-area-houston?adjust_creative=XXt1Nge7yivmjq1WyN0Lzw&utm_campaign=yelp_api_v3&utm_medium=api_v3_business_search&utm_source=XXt1Nge7yivmjq1WyN0Lzw", "review_count": 36, "categories": [{"alias": "hotels", "title": "Hotels"}, {"alias": "venues", "title": "Venues & Event Spaces"}], "rating": 3.0, "coordinates": {"latitude": 29.78332, "longitude": -95.46707}, "transactions": [], "price": "$$", "location": {"address1": "7625 Katy Fwy", "address2": "", "address3": "", "city": "Houston", "zip_code": "77024", "country": "US", "state": "TX", "display_address": ["7625 Katy Fwy", "Houston, TX 77024"]}, "phone": "+17136882800", "display_phone": "(713) 688-2800", "distance": 1634.8308055811149}, {"id": "u8cRewEZF9PzC-AIos9Pdg", "alias": "the-westin-houston-memorial-city-houston", "name": "The Westin Houston, Memorial City", "image_url": "https://s3-media4.fl.yelpcdn.com/bphoto/OgUbxNwqw9ohfj22oA046g/o.jpg", "is_closed": false, "url": "https://www.yelp.com/biz/the-westin-houston-memorial-city-houston?adjust_creative=XXt1Nge7yivmjq1WyN0Lzw&utm_campaign=yelp_api_v3&utm_medium=api_v3_business_search&utm_source=XXt1Nge7yivmjq1WyN0Lzw", "review_count": 118, "categories": [{"alias": "hotels", "title": "Hotels"}, {"alias": "venues", "title": "Venues & Event Spaces"}], "rating": 3.5, "coordinates": {"latitude": 29.782445, "longitude": -95.54482}, "transactions": [], "price": "$$$", "location": {"address1": "945 Gessner Rd", "address2": "", "address3": "", "city": "Houston", "zip_code": "77024", "country": "US", "state": "TX", "display_address": ["945 Gessner Rd", "Houston, TX 77024"]}, "phone": "+12815014300", "display_phone": "(281) 501-4300", "distance": 8756.110168264822}, {"id": "QM23FvnrZYiuCO2MCdK8Sw", "alias": "hotel-granduca-houston", "name": "Hotel Granduca", "image_url": "https://s3-media1.fl.yelpcdn.com/bphoto/A0-MbHQit4JhSyR5UtRiGQ/o.jpg", "is_closed": false, "url": "https://www.yelp.com/biz/hotel-granduca-houston?adjust_creative=XXt1Nge7yivmjq1WyN0Lzw&utm_campaign=yelp_api_v3&utm_medium=api_v3_business_search&utm_source=XXt1Nge7yivmjq1WyN0Lzw", "review_count": 113, "categories": [{"alias": "hotels", "title": "Hotels"}], "rating": 3.5, "coordinates": {"latitude": 29.757645, "longitude": -95.45781}, "transactions": [], "price": "$$$", "location": {"address1": "1080 Uptown Park Blvd", "address2": "", "address3": "", "city": "Houston", "zip_code": "77056", "country": "US", "state": "TX", "display_address": ["1080 Uptown Park Blvd", "Houston, TX 77056"]}, "phone": "+17134181000", "display_phone": "(713) 418-1000", "distance": 1763.5623842492182}, {"id": "A3UqlwxOQxZs-6G1VB5fQw", "alias": "la-maison-in-midtown-houston", "name": "La Maison In Midtown", "image_url": "https://s3-media3.fl.yelpcdn.com/bphoto/8JhItwdum4YplvLBtVDiVA/o.jpg", "is_closed": false, "url": "https://www.yelp.com/biz/la-maison-in-midtown-houston?adjust_creative=XXt1Nge7yivmjq1WyN0Lzw&utm_campaign=yelp_api_v3&utm_medium=api_v3_business_search&utm_source=XXt1Nge7yivmjq1WyN0Lzw", "review_count": 34, "categories": [{"alias": "bedbreakfast", "title": "Bed & Breakfast"}], "rating": 5.0, "coordinates": {"latitude": 29.74664, "longitude": -95.37972}, "transactions": [], "location": {"address1": "2800 Brazos St", "address2": null, "address3": null, "city": "Houston", "zip_code": "77006", "country": "US", "state": "TX", "display_address": ["2800 Brazos St", "Houston, TX 77006"]}, "phone": "+17135293600", "display_phone": "(713) 529-3600", "distance": 7818.554807436101}, {"id": "9Jeh-UtdbHJ5YoNHt31eSQ", "alias": "hotel-zaza-memorial-city-houston", "name": "Hotel ZaZa Memorial City", "image_url": "https://s3-media3.fl.yelpcdn.com/bphoto/uO0zVpoOkZdKl8uBWQi_Dg/o.jpg", "is_closed": false, "url": "https://www.yelp.com/biz/hotel-zaza-memorial-city-houston?adjust_creative=XXt1Nge7yivmjq1WyN0Lzw&utm_campaign=yelp_api_v3&utm_medium=api_v3_business_search&utm_source=XXt1Nge7yivmjq1WyN0Lzw", "review_count": 101, "categories": [{"alias": "hotels", "title": "Hotels"}], "rating": 4.0, "coordinates": {"latitude": 29.7837373, "longitude": -95.5351229}, "transactions": [], "price": "$$$", "location": {"address1": "9787 Katy Fwy", "address2": null, "address3": "", "city": "Houston", "zip_code": "77024", "country": "US", "state": "TX", "display_address": ["9787 Katy Fwy", "Houston, TX 77024"]}, "phone": "+18888803244", "display_phone": "(888) 880-3244", "distance": 7750.280802395447}, {"id": "yy3iHLbghGUhvZxNSKunlA", "alias": "marriott-marquis-houston-houston-3", "name": "Marriott Marquis Houston", "image_url": "https://s3-media3.fl.yelpcdn.com/bphoto/iAf8fmv6ek9aCaTes8JwiQ/o.jpg", "is_closed": false, "url": "https://www.yelp.com/biz/marriott-marquis-houston-houston-3?adjust_creative=XXt1Nge7yivmjq1WyN0Lzw&utm_campaign=yelp_api_v3&utm_medium=api_v3_business_search&utm_source=XXt1Nge7yivmjq1WyN0Lzw", "review_count": 573, "categories": [{"alias": "hotels", "title": "Hotels"}, {"alias": "venues", "title": "Venues & Event Spaces"}], "rating": 3.5, "coordinates": {"latitude": 29.7545047276175, "longitude": -95.3581001625656}, "transactions": [], "price": "$$$", "location": {"address1": "1777 Walker St", "address2": "", "address3": "", "city": "Houston", "zip_code": "77010", "country": "US", "state": "TX", "display_address": ["1777 Walker St", "Houston, TX 77010"]}, "phone": "+17136541777", "display_phone": "(713) 654-1777", "distance": 9556.24921668829}, {"id": "a9FPznRoBSxVAbUHWYsP5Q", "alias": "la-colombe-d-or-hotel-houston-2", "name": "La Colombe d'Or Hotel", "image_url": "https://s3-media3.fl.yelpcdn.com/bphoto/S5Snpv_iRlv1DW0mEQb--A/o.jpg", "is_closed": false, "url": "https://www.yelp.com/biz/la-colombe-d-or-hotel-houston-2?adjust_creative=XXt1Nge7yivmjq1WyN0Lzw&utm_campaign=yelp_api_v3&utm_medium=api_v3_business_search&utm_source=XXt1Nge7yivmjq1WyN0Lzw", "review_count": 63, "categories": [{"alias": "hotels", "title": "Hotels"}], "rating": 4.0, "coordinates": {"latitude": 29.74162, "longitude": -95.39172}, "transactions": [], "price": "$$$$", "location": {"address1": "3410 Montrose Blvd", "address2": "", "address3": "", "city": "Houston", "zip_code": "77006", "country": "US", "state": "TX", "display_address": ["3410 Montrose Blvd", "Houston, TX 77006"]}, "phone": "+17135247999", "display_phone": "(713) 524-7999", "distance": 7033.268711761716}, {"id": "vQizhyVueFIizUx6me-O5Q", "alias": "crowne-plaza-houston-galleria-area-houston", "name": "Crowne Plaza Houston Galleria Area", "image_url": "https://s3-media4.fl.yelpcdn.com/bphoto/Wu_YaCQifjbxfig18rgjXQ/o.jpg", "is_closed": false, "url": "https://www.yelp.com/biz/crowne-plaza-houston-galleria-area-houston?adjust_creative=XXt1Nge7yivmjq1WyN0Lzw&utm_campaign=yelp_api_v3&utm_medium=api_v3_business_search&utm_source=XXt1Nge7yivmjq1WyN0Lzw", "review_count": 104, "categories": [{"alias": "hotels", "title": "Hotels"}, {"alias": "venues", "title": "Venues & Event Spaces"}], "rating": 2.5, "coordinates": {"latitude": 29.7835192941932, "longitude": -95.4644912481308}, "transactions": [], "price": "$$", "location": {"address1": "7611 Katy Fwy", "address2": "", "address3": "", "city": "Houston", "zip_code": "77024", "country": "US", "state": "TX", "display_address": ["7611 Katy Fwy", "Houston, TX 77024"]}, "phone": "+17136802222", "display_phone": "(713) 680-2222", "distance": 1479.278179206331}, {"id": "OzFXpx3lTbizGklJwu8Duw", "alias": "four-seasons-hotel-houston-houston", "name": "Four Seasons Hotel Houston", "image_url": "https://s3-media1.fl.yelpcdn.com/bphoto/tuVM2BTmPQ1meeljAMSgdg/o.jpg", "is_closed": false, "url": "https://www.yelp.com/biz/four-seasons-hotel-houston-houston?adjust_creative=XXt1Nge7yivmjq1WyN0Lzw&utm_campaign=yelp_api_v3&utm_medium=api_v3_business_search&utm_source=XXt1Nge7yivmjq1WyN0Lzw", "review_count": 189, "categories": [{"alias": "hotels", "title": "Hotels"}], "rating": 4.0, "coordinates": {"latitude": 29.7538804746595, "longitude": -95.3624506}, "transactions": [], "price": "$$$", "location": {"address1": "1300 Lamar St", "address2": "", "address3": "", "city": "Houston", "zip_code": "77010", "country": "US", "state": "TX", "display_address": ["1300 Lamar St", "Houston, TX 77010"]}, "phone": "+17136501300", "display_phone": "(713) 650-1300", "distance": 9163.033620268492}, {"id": "Id6CQsdYvkx6hLi2XHtQxQ", "alias": "jw-marriott-houston-by-the-galleria-houston", "name": "JW Marriott Houston by The Galleria", "image_url": "https://s3-media1.fl.yelpcdn.com/bphoto/hAuGXp9s3Dm-99z1Qy-kAQ/o.jpg", "is_closed": false, "url": "https://www.yelp.com/biz/jw-marriott-houston-by-the-galleria-houston?adjust_creative=XXt1Nge7yivmjq1WyN0Lzw&utm_campaign=yelp_api_v3&utm_medium=api_v3_business_search&utm_source=XXt1Nge7yivmjq1WyN0Lzw", "review_count": 164, "categories": [{"alias": "hotels", "title": "Hotels"}], "rating": 3.5, "coordinates": {"latitude": 29.741216, "longitude": -95.466534}, "transactions": [], "price": "$$$", "location": {"address1": "5150 Westheimer Road", "address2": "", "address3": "", "city": "Houston", "zip_code": "77056", "country": "US", "state": "TX", "display_address": ["5150 Westheimer Road", "Houston, TX 77056"]}, "phone": "+17139611500", "display_phone": "(713) 961-1500", "distance": 3746.783628537044}, {"id": "OFtDDS0BANY2eGxiHzqwhA", "alias": "sheraton-houston-brookhollow-hotel-houston", "name": "Sheraton Houston Brookhollow Hotel", "image_url": "https://s3-media3.fl.yelpcdn.com/bphoto/Dy7p5Z8iAHeUIuD4sNTcSw/o.jpg", "is_closed": false, "url": "https://www.yelp.com/biz/sheraton-houston-brookhollow-hotel-houston?adjust_creative=XXt1Nge7yivmjq1WyN0Lzw&utm_campaign=yelp_api_v3&utm_medium=api_v3_business_search&utm_source=XXt1Nge7yivmjq1WyN0Lzw", "review_count": 75, "categories": [{"alias": "hotels", "title": "Hotels"}], "rating": 3.0, "coordinates": {"latitude": 29.80488, "longitude": -95.44971}, "transactions": [], "price": "$$", "location": {"address1": "3000 North Loop W", "address2": "", "address3": "", "city": "Houston", "zip_code": "77092", "country": "US", "state": "TX", "display_address": ["3000 North Loop W", "Houston, TX 77092"]}, "phone": "+17136880100", "display_phone": "(713) 688-0100", "distance": 3575.009533819313}, {"id": "Zi26XY25w6RAQB97IKaveQ", "alias": "saras-bed-and-breakfast-inn-houston", "name": "Sara's Bed & Breakfast Inn", "image_url": "https://s3-media4.fl.yelpcdn.com/bphoto/-NhISaSS8Fg1qYCpsHHMHw/o.jpg", "is_closed": false, "url": "https://www.yelp.com/biz/saras-bed-and-breakfast-inn-houston?adjust_creative=XXt1Nge7yivmjq1WyN0Lzw&utm_campaign=yelp_api_v3&utm_medium=api_v3_business_search&utm_source=XXt1Nge7yivmjq1WyN0Lzw", "review_count": 63, "categories": [{"alias": "bedbreakfast", "title": "Bed & Breakfast"}], "rating": 4.5, "coordinates": {"latitude": 29.78843, "longitude": -95.39811}, "transactions": [], "location": {"address1": "941 Heights Blvd", "address2": "", "address3": "", "city": "Houston", "zip_code": "77008", "country": "US", "state": "TX", "display_address": ["941 Heights Blvd", "Houston, TX 77008"]}, "phone": "+17138681130", "display_phone": "(713) 868-1130", "distance": 5710.773445133872}, {"id": "WZqwboK4KMZmFP1G7dCq-Q", "alias": "courtyard-by-marriott-houston-heights-i-10-houston", "name": "Courtyard by Marriott Houston Heights/I-10", "image_url": "https://s3-media4.fl.yelpcdn.com/bphoto/OdLWi5gaFMYV9sSWwjohgw/o.jpg", "is_closed": false, "url": "https://www.yelp.com/biz/courtyard-by-marriott-houston-heights-i-10-houston?adjust_creative=XXt1Nge7yivmjq1WyN0Lzw&utm_campaign=yelp_api_v3&utm_medium=api_v3_business_search&utm_source=XXt1Nge7yivmjq1WyN0Lzw", "review_count": 25, "categories": [{"alias": "hotels", "title": "Hotels"}], "rating": 4.0, "coordinates": {"latitude": 29.7771471842962, "longitude": -95.3923785020396}, "transactions": [], "location": {"address1": "3220 Katy Fwy", "address2": "", "address3": null, "city": "Houston", "zip_code": "77007", "country": "US", "state": "TX", "display_address": ["3220 Katy Fwy", "Houston, TX 77007"]}, "phone": "+12818885896", "display_phone": "(281) 888-5896", "distance": 6019.242646945949}, {"id": "YpmKV81IK2yw4ClE8QuTrw", "alias": "courtyard-by-marriott-houston-sugar-land-lake-pointe-sugar-land", "name": "Courtyard by Marriott Houston Sugar Land/Lake Pointe", "image_url": "https://s3-media2.fl.yelpcdn.com/bphoto/5Sp4ERKooIIcjULZCdWZnw/o.jpg", "is_closed": false, "url": "https://www.yelp.com/biz/courtyard-by-marriott-houston-sugar-land-lake-pointe-sugar-land?adjust_creative=XXt1Nge7yivmjq1WyN0Lzw&utm_campaign=yelp_api_v3&utm_medium=api_v3_business_search&utm_source=XXt1Nge7yivmjq1WyN0Lzw", "review_count": 19, "categories": [{"alias": "hotels", "title": "Hotels"}, {"alias": "venues", "title": "Venues & Event Spaces"}], "rating": 4.0, "coordinates": {"latitude": 29.6025345607595, "longitude": -95.6250654826376}, "transactions": [], "price": "$$", "location": {"address1": "16740 Creek Bend Drive", "address2": null, "address3": null, "city": "Sugar Land", "zip_code": "77478", "country": "US", "state": "TX", "display_address": ["16740 Creek Bend Drive", "Sugar Land, TX 77478"]}, "phone": "+12814940555", "display_phone": "(281) 494-0555", "distance": 25004.39891028455}, {"id": "i0Ek85hvOXkBs6ye6pBqHg", "alias": "hilton-houston-post-oak-by-the-galleria-houston", "name": "Hilton Houston Post Oak by the Galleria", "image_url": "https://s3-media3.fl.yelpcdn.com/bphoto/scWEzRX9ReAf8KGSUT_www/o.jpg", "is_closed": false, "url": "https://www.yelp.com/biz/hilton-houston-post-oak-by-the-galleria-houston?adjust_creative=XXt1Nge7yivmjq1WyN0Lzw&utm_campaign=yelp_api_v3&utm_medium=api_v3_business_search&utm_source=XXt1Nge7yivmjq1WyN0Lzw", "review_count": 216, "categories": [{"alias": "hotels", "title": "Hotels"}], "rating": 2.5, "coordinates": {"latitude": 29.7458675589728, "longitude": -95.4600977897644}, "transactions": [], "price": "$$", "location": {"address1": "2001 Post Oak Blvd", "address2": "", "address3": "", "city": "Houston", "zip_code": "77056", "country": "US", "state": "TX", "display_address": ["2001 Post Oak Blvd", "Houston, TX 77056"]}, "phone": "+17139619300", "display_phone": "(713) 961-9300", "distance": 3091.6413470646635}, {"id": "cI51jNSk5cN4Q78rXL2pvQ", "alias": "embassy-suites-by-hilton-houston-downtown-houston-2", "name": "Embassy Suites by Hilton Houston Downtown", "image_url": "https://s3-media4.fl.yelpcdn.com/bphoto/LKyCQjGWBJ000jh9IsFZGg/o.jpg", "is_closed": false, "url": "https://www.yelp.com/biz/embassy-suites-by-hilton-houston-downtown-houston-2?adjust_creative=XXt1Nge7yivmjq1WyN0Lzw&utm_campaign=yelp_api_v3&utm_medium=api_v3_business_search&utm_source=XXt1Nge7yivmjq1WyN0Lzw", "review_count": 123, "categories": [{"alias": "hotels", "title": "Hotels"}], "rating": 4.0, "coordinates": {"latitude": 29.7529992145027, "longitude": -95.3613408654928}, "transactions": [], "price": "$$", "location": {"address1": "1515 Dallas St", "address2": null, "address3": "Hilton", "city": "Houston", "zip_code": "77010", "country": "US", "state": "TX", "display_address": ["1515 Dallas St", "Hilton", "Houston, TX 77010"]}, "phone": "+17137399100", "display_phone": "(713) 739-9100", "distance": 9290.508552107965}, {"id": "gRI7YE4UPN9CMakwIMKMlw", "alias": "hotel-indigo-houston-at-the-galleria-houston", "name": "Hotel Indigo Houston at the Galleria", "image_url": "https://s3-media4.fl.yelpcdn.com/bphoto/s8jKnMbI6KOrhpQLWKoCOg/o.jpg", "is_closed": false, "url": "https://www.yelp.com/biz/hotel-indigo-houston-at-the-galleria-houston?adjust_creative=XXt1Nge7yivmjq1WyN0Lzw&utm_campaign=yelp_api_v3&utm_medium=api_v3_business_search&utm_source=XXt1Nge7yivmjq1WyN0Lzw", "review_count": 144, "categories": [{"alias": "hotels", "title": "Hotels"}, {"alias": "venues", "title": "Venues & Event Spaces"}], "rating": 4.0, "coordinates": {"latitude": 29.736465, "longitude": -95.465263}, "transactions": [], "price": "$$", "location": {"address1": "5160 Hidalgo St", "address2": "", "address3": "", "city": "Houston", "zip_code": "77056", "country": "US", "state": "TX", "display_address": ["5160 Hidalgo St", "Houston, TX 77056"]}, "phone": "+17136218988", "display_phone": "(713) 621-8988", "distance": 4210.00978719821}, {"id": "m_JAsyHtMWB2lRJDo_Ig1A", "alias": "holiday-inn-express-and-suites-sealy-sealy-5", "name": "Holiday Inn Express & Suites Sealy", "image_url": "https://s3-media2.fl.yelpcdn.com/bphoto/LBawYfy8gZMbbVtoc2m4xw/o.jpg", "is_closed": false, "url": "https://www.yelp.com/biz/holiday-inn-express-and-suites-sealy-sealy-5?adjust_creative=XXt1Nge7yivmjq1WyN0Lzw&utm_campaign=yelp_api_v3&utm_medium=api_v3_business_search&utm_source=XXt1Nge7yivmjq1WyN0Lzw", "review_count": 10, "categories": [{"alias": "hotels", "title": "Hotels"}, {"alias": "venues", "title": "Venues & Event Spaces"}], "rating": 4.0, "coordinates": {"latitude": 29.758957237976205, "longitude": -96.15091336113454}, "transactions": [], "price": "$", "location": {"address1": "2370 Hwy 36 S", "address2": "", "address3": "", "city": "Sealy", "zip_code": "77474", "country": "US", "state": "TX", "display_address": ["2370 Hwy 36 S", "Sealy, TX 77474"]}, "phone": "+19798770700", "display_phone": "(979) 877-0700", "distance": 67218.67573133337}, {"id": "-R3GQNNSnpi3vt9vASIj9g", "alias": "hampton-inn-houston-near-the-galleria-houston-2", "name": "Hampton Inn Houston-Near The Galleria", "image_url": "https://s3-media2.fl.yelpcdn.com/bphoto/B9NBN7xI2zlETRei3LBM0Q/o.jpg", "is_closed": false, "url": "https://www.yelp.com/biz/hampton-inn-houston-near-the-galleria-houston-2?adjust_creative=XXt1Nge7yivmjq1WyN0Lzw&utm_campaign=yelp_api_v3&utm_medium=api_v3_business_search&utm_source=XXt1Nge7yivmjq1WyN0Lzw", "review_count": 54, "categories": [{"alias": "hotels", "title": "Hotels"}], "rating": 3.5, "coordinates": {"latitude": 29.74853864170859, "longitude": -95.45429080724716}, "transactions": [], "price": "$$", "location": {"address1": "4500 Post Oak Pkwy", "address2": "", "address3": "", "city": "Houston", "zip_code": "77027", "country": "US", "state": "TX", "display_address": ["4500 Post Oak Pkwy", "Houston, TX 77027"]}, "phone": "+17138719911", "display_phone": "(713) 871-9911", "distance": 2750.9039414802405}, {"id": "9dei5N7-W5Rxcp7AeqsKmQ", "alias": "courtyard-by-marriott-houston-northwest-cypress-cypress", "name": "Courtyard by Marriott Houston Northwest/Cypress", "image_url": "https://s3-media4.fl.yelpcdn.com/bphoto/4aK1F6CX4yFO4PQVg8xi5w/o.jpg", "is_closed": false, "url": "https://www.yelp.com/biz/courtyard-by-marriott-houston-northwest-cypress-cypress?adjust_creative=XXt1Nge7yivmjq1WyN0Lzw&utm_campaign=yelp_api_v3&utm_medium=api_v3_business_search&utm_source=XXt1Nge7yivmjq1WyN0Lzw", "review_count": 12, "categories": [{"alias": "hotels", "title": "Hotels"}], "rating": 4.0, "coordinates": {"latitude": 29.953964, "longitude": -95.668989}, "transactions": [], "location": {"address1": "23930 Northwest Fwy", "address2": null, "address3": "", "city": "Cypress", "zip_code": "77429", "country": "US", "state": "TX", "display_address": ["23930 Northwest Fwy", "Cypress, TX 77429"]}, "phone": "+12817588995", "display_phone": "(281) 758-8995", "distance": 28820.44202655612}, {"id": "L-6l4yzRfn0jnkolja35yA", "alias": "home2-suites-by-hilton-houston-energy-corridor-houston", "name": "Home2 Suites by Hilton Houston Energy Corridor", "image_url": "https://s3-media2.fl.yelpcdn.com/bphoto/yt8KM4Ms9KELlzKEwGSQpQ/o.jpg", "is_closed": false, "url": "https://www.yelp.com/biz/home2-suites-by-hilton-houston-energy-corridor-houston?adjust_creative=XXt1Nge7yivmjq1WyN0Lzw&utm_campaign=yelp_api_v3&utm_medium=api_v3_business_search&utm_source=XXt1Nge7yivmjq1WyN0Lzw", "review_count": 29, "categories": [{"alias": "hotels", "title": "Hotels"}], "rating": 4.0, "coordinates": {"latitude": 29.7869318413363, "longitude": -95.5787344183955}, "transactions": [], "price": "$$", "location": {"address1": "1106 Sherwood Forest St", "address2": "", "address3": null, "city": "Houston", "zip_code": "77043", "country": "US", "state": "TX", "display_address": ["1106 Sherwood Forest St", "Houston, TX 77043"]}, "phone": "+18323581000", "display_phone": "(832) 358-1000", "distance": 12065.375398434086}, {"id": "EuzhLv1C8fSJ2nG8KUXCIQ", "alias": "marriott-hotel-houston-west-loop-by-galleria-houston", "name": "Marriott Hotel Houston West Loop By Galleria", "image_url": "https://s3-media1.fl.yelpcdn.com/bphoto/aZu-SrxpzxYD6a7LtD9TPQ/o.jpg", "is_closed": false, "url": "https://www.yelp.com/biz/marriott-hotel-houston-west-loop-by-galleria-houston?adjust_creative=XXt1Nge7yivmjq1WyN0Lzw&utm_campaign=yelp_api_v3&utm_medium=api_v3_business_search&utm_source=XXt1Nge7yivmjq1WyN0Lzw", "review_count": 114, "categories": [{"alias": "hotels", "title": "Hotels"}, {"alias": "venues", "title": "Venues & Event Spaces"}], "rating": 2.5, "coordinates": {"latitude": 29.7495170328434, "longitude": -95.4569511767386}, "transactions": [], "price": "$$", "location": {"address1": "1750 West Lp S", "address2": "", "address3": "", "city": "Houston", "zip_code": "77027", "country": "US", "state": "TX", "display_address": ["1750 West Lp S", "Houston, TX 77027"]}, "phone": "+17139600111", "display_phone": "(713) 960-0111", "distance": 2650.639579388895}, {"id": "ss2kjLoB6uGp69iOUXW_Bw", "alias": "comfort-suites-near-westchase-on-beltway-8-houston-3", "name": "Comfort Suites Near Westchase On Beltway 8", "image_url": "https://s3-media2.fl.yelpcdn.com/bphoto/XYXpFglwYxjYRH5j54AU6w/o.jpg", "is_closed": false, "url": "https://www.yelp.com/biz/comfort-suites-near-westchase-on-beltway-8-houston-3?adjust_creative=XXt1Nge7yivmjq1WyN0Lzw&utm_campaign=yelp_api_v3&utm_medium=api_v3_business_search&utm_source=XXt1Nge7yivmjq1WyN0Lzw", "review_count": 43, "categories": [{"alias": "hotels", "title": "Hotels"}], "rating": 3.0, "coordinates": {"latitude": 29.6939141, "longitude": -95.555937}, "transactions": [], "price": "$$", "location": {"address1": "7707 West Sam Houston Pkwy S", "address2": null, "address3": "", "city": "Houston", "zip_code": "77072", "country": "US", "state": "TX", "display_address": ["7707 West Sam Houston Pkwy S", "Houston, TX 77072"]}, "phone": "+17137747707", "display_phone": "(713) 774-7707", "distance": 13168.139389930762}, {"id": "YMtFTeFDGO_FWWR0kkuqew", "alias": "embassy-suites-by-hilton-houston-energy-corridor-houston", "name": "Embassy Suites by Hilton Houston Energy Corridor", "image_url": "https://s3-media2.fl.yelpcdn.com/bphoto/KPW7DYSC54tgjZwrdUx6VA/o.jpg", "is_closed": false, "url": "https://www.yelp.com/biz/embassy-suites-by-hilton-houston-energy-corridor-houston?adjust_creative=XXt1Nge7yivmjq1WyN0Lzw&utm_campaign=yelp_api_v3&utm_medium=api_v3_business_search&utm_source=XXt1Nge7yivmjq1WyN0Lzw", "review_count": 106, "categories": [{"alias": "hotels", "title": "Hotels"}], "rating": 4.0, "coordinates": {"latitude": 29.78632, "longitude": -95.59236}, "transactions": [], "price": "$$", "location": {"address1": "11730 Katy Fwy", "address2": null, "address3": null, "city": "Houston", "zip_code": "77079", "country": "US", "state": "TX", "display_address": ["11730 Katy Fwy", "Houston, TX 77079"]}, "phone": "+12815317300", "display_phone": "(281) 531-7300", "distance": 13359.864182515847}, {"id": "bVnI4FHYRu_el0BRFOLu7w", "alias": "holiday-inn-express-and-suites-sugar-land-se-missouri-city-missouri-city", "name": "Holiday Inn Express & Suites Sugar Land SE - Missouri City", "image_url": "https://s3-media1.fl.yelpcdn.com/bphoto/so-Iwk9JoRGd8O6En8x1gA/o.jpg", "is_closed": false, "url": "https://www.yelp.com/biz/holiday-inn-express-and-suites-sugar-land-se-missouri-city-missouri-city?adjust_creative=XXt1Nge7yivmjq1WyN0Lzw&utm_campaign=yelp_api_v3&utm_medium=api_v3_business_search&utm_source=XXt1Nge7yivmjq1WyN0Lzw", "review_count": 8, "categories": [{"alias": "hotels", "title": "Hotels"}, {"alias": "venues", "title": "Venues & Event Spaces"}], "rating": 4.5, "coordinates": {"latitude": 29.5778, "longitude": -95.576188}, "transactions": [], "location": {"address1": "5007 Hwy 6", "address2": null, "address3": "", "city": "Missouri City", "zip_code": "77459", "country": "US", "state": "TX", "display_address": ["5007 Hwy 6", "Missouri City, TX 77459"]}, "phone": "+12819698650", "display_phone": "(281) 969-8650", "distance": 24705.09350212077}, {"id": "Z05siwfhFyhMicYkbEV4fQ", "alias": "days-inn-by-wyndham-houston-galleria-tx-houston", "name": "Days Inn by Wyndham Houston-Galleria TX", "image_url": "https://s3-media3.fl.yelpcdn.com/bphoto/ks_Uod2TsISNDYAWEHAQmg/o.jpg", "is_closed": false, "url": "https://www.yelp.com/biz/days-inn-by-wyndham-houston-galleria-tx-houston?adjust_creative=XXt1Nge7yivmjq1WyN0Lzw&utm_campaign=yelp_api_v3&utm_medium=api_v3_business_search&utm_source=XXt1Nge7yivmjq1WyN0Lzw", "review_count": 16, "categories": [{"alias": "hotels", "title": "Hotels"}], "rating": 2.5, "coordinates": {"latitude": 29.72974, "longitude": -95.48382}, "transactions": [], "price": "$", "location": {"address1": "3333 Fountain View Drive", "address2": "", "address3": "", "city": "Houston", "zip_code": "77057", "country": "US", "state": "TX", "display_address": ["3333 Fountain View Drive", "Houston, TX 77057"]}, "phone": "+18003291073", "display_phone": "(800) 329-1073", "distance": 5570.368388559665}, {"id": "QTVk-URI36RF8E2dCYwjiQ", "alias": "courtyard-by-marriott-houston-brookhollow-houston", "name": "Courtyard by Marriott Houston Brookhollow", "image_url": "https://s3-media2.fl.yelpcdn.com/bphoto/jX3EsQyKfCa56LYFIuOwkA/o.jpg", "is_closed": false, "url": "https://www.yelp.com/biz/courtyard-by-marriott-houston-brookhollow-houston?adjust_creative=XXt1Nge7yivmjq1WyN0Lzw&utm_campaign=yelp_api_v3&utm_medium=api_v3_business_search&utm_source=XXt1Nge7yivmjq1WyN0Lzw", "review_count": 61, "categories": [{"alias": "hotels", "title": "Hotels"}], "rating": 2.5, "coordinates": {"latitude": 29.80941384665292, "longitude": -95.44410539568932}, "transactions": [], "price": "$$", "location": {"address1": "2504 N Lp W", "address2": "", "address3": "", "city": "Houston", "zip_code": "77092", "country": "US", "state": "TX", "display_address": ["2504 N Lp W", "Houston, TX 77092"]}, "phone": "+17136887711", "display_phone": "(713) 688-7711", "distance": 4146.704594754829}, {"id": "n21J46Kld0L-GvWUQ2eSNQ", "alias": "candlewood-suites-at-citycentre-energy-corridor-houston", "name": "Candlewood Suites At Citycentre-Energy Corridor", "image_url": "https://s3-media1.fl.yelpcdn.com/bphoto/4s4mcNDQP_qUupUvwfCnEg/o.jpg", "is_closed": false, "url": "https://www.yelp.com/biz/candlewood-suites-at-citycentre-energy-corridor-houston?adjust_creative=XXt1Nge7yivmjq1WyN0Lzw&utm_campaign=yelp_api_v3&utm_medium=api_v3_business_search&utm_source=XXt1Nge7yivmjq1WyN0Lzw", "review_count": 14, "categories": [{"alias": "hotels", "title": "Hotels"}, {"alias": "venues", "title": "Venues & Event Spaces"}], "rating": 4.5, "coordinates": {"latitude": 29.781639, "longitude": -95.556877}, "transactions": [], "price": "$$", "location": {"address1": "10503 Town And Country Way", "address2": "", "address3": "", "city": "Houston", "zip_code": "77024", "country": "US", "state": "TX", "display_address": ["10503 Town And Country Way", "Houston, TX 77024"]}, "phone": "+17134642677", "display_phone": "(713) 464-2677", "distance": 9903.991810058587}, {"id": "DrR1NYxXg6o1PuXsraWH_w", "alias": "hyatt-regency-baytown-houston-baytown", "name": "Hyatt Regency Baytown - Houston", "image_url": "https://s3-media2.fl.yelpcdn.com/bphoto/DXRmybTokIay2vOuYUUAGA/o.jpg", "is_closed": false, "url": "https://www.yelp.com/biz/hyatt-regency-baytown-houston-baytown?adjust_creative=XXt1Nge7yivmjq1WyN0Lzw&utm_campaign=yelp_api_v3&utm_medium=api_v3_business_search&utm_source=XXt1Nge7yivmjq1WyN0Lzw", "review_count": 4, "categories": [{"alias": "hotels", "title": "Hotels"}, {"alias": "venues", "title": "Venues & Event Spaces"}], "rating": 5.0, "coordinates": {"latitude": 29.709257233439835, "longitude": -94.9945472845395}, "transactions": [], "price": "$$", "location": {"address1": "100 Convention Center Way", "address2": null, "address3": "", "city": "Baytown", "zip_code": "77520", "country": "US", "state": "TX", "display_address": ["100 Convention Center Way", "Baytown, TX 77520"]}, "phone": "+12819871234", "display_phone": "(281) 987-1234", "distance": 44994.430001144574}, {"id": "xZ5JBqzwV1JKwR34zScumw", "alias": "the-chifley-houston-tapestry-collection-by-hilton-houston", "name": "The Chifley Houston, Tapestry Collection by Hilton", "image_url": "https://s3-media4.fl.yelpcdn.com/bphoto/mfqEPO1--YQJCNxrkledgg/o.jpg", "is_closed": false, "url": "https://www.yelp.com/biz/the-chifley-houston-tapestry-collection-by-hilton-houston?adjust_creative=XXt1Nge7yivmjq1WyN0Lzw&utm_campaign=yelp_api_v3&utm_medium=api_v3_business_search&utm_source=XXt1Nge7yivmjq1WyN0Lzw", "review_count": 10, "categories": [{"alias": "hotels", "title": "Hotels"}], "rating": 3.0, "coordinates": {"latitude": 29.742356, "longitude": -95.458835}, "transactions": [], "location": {"address1": "2400 W Lp S", "address2": null, "address3": null, "city": "Houston", "zip_code": "77027", "country": "US", "state": "TX", "display_address": ["2400 W Lp S", "Houston, TX 77027"]}, "phone": "+17135862444", "display_phone": "(713) 586-2444", "distance": 3477.074561662377}, {"id": "q_pCHsdPYcwhHosW5uLDaQ", "alias": "best-western-plus-waller-hotel-waller-2", "name": "Best Western Plus Waller Hotel", "image_url": "https://s3-media2.fl.yelpcdn.com/bphoto/dq4vXtVBOceDidZvInMrCQ/o.jpg", "is_closed": false, "url": "https://www.yelp.com/biz/best-western-plus-waller-hotel-waller-2?adjust_creative=XXt1Nge7yivmjq1WyN0Lzw&utm_campaign=yelp_api_v3&utm_medium=api_v3_business_search&utm_source=XXt1Nge7yivmjq1WyN0Lzw", "review_count": 3, "categories": [{"alias": "hotels", "title": "Hotels"}], "rating": 5.0, "coordinates": {"latitude": 30.060563314425337, "longitude": -95.90827839592345}, "transactions": [], "location": {"address1": "19720 Stokes Rd", "address2": null, "address3": null, "city": "Waller", "zip_code": "77484", "country": "US", "state": "TX", "display_address": ["19720 Stokes Rd", "Waller, TX 77484"]}, "phone": "+19363727570", "display_phone": "(936) 372-7570", "distance": 54142.10887282799}], "total": 1300, "region": {"center": {"longitude": -95.4547119140625, "latitude": 29.773275441610096}}}