{"businesses": [{"id": "pu1jfNpHP2HRniFxPg5tvQ", "alias": "angry-moms-kitchen-houston", "name": "Angry Mom's Kitchen", "image_url": "https://s3-media3.fl.yelpcdn.com/bphoto/pueO3ZyGcws99LGRrtQBGw/o.jpg", "is_closed": false, "url": "https://www.yelp.com/biz/angry-moms-kitchen-houston?adjust_creative=XXt1Nge7yivmjq1WyN0Lzw&utm_campaign=yelp_api_v3&utm_medium=api_v3_business_search&utm_source=XXt1Nge7yivmjq1WyN0Lzw", "review_count": 50, "categories": [{"alias": "thai", "title": "Thai"}, {"alias": "panasian", "title": "Pan Asian"}, {"alias": "chickenshop", "title": "Chicken Shop"}], "rating": 4.5, "coordinates": {"latitude": 29.7334, "longitude": -95.48208}, "transactions": ["delivery", "pickup"], "price": "$$", "location": {"address1": "5832 Fairdale Ln", "address2": null, "address3": "", "city": "Houston", "zip_code": "77057", "country": "US", "state": "TX", "display_address": ["5832 Fairdale Ln", "Houston, TX 77057"]}, "phone": "+12813464803", "display_phone": "(281) 346-4803", "distance": 5159.992654896638}, {"id": "tGNsatvwwYGwb9sd14yKVQ", "alias": "the-ginger-mule-houston", "name": "The Ginger Mule", "image_url": "https://s3-media4.fl.yelpcdn.com/bphoto/o0YzK71cOZlwcQ1_2KrfdQ/o.jpg", "is_closed": false, "url": "https://www.yelp.com/biz/the-ginger-mule-houston?adjust_creative=XXt1Nge7yivmjq1WyN0Lzw&utm_campaign=yelp_api_v3&utm_medium=api_v3_business_search&utm_source=XXt1Nge7yivmjq1WyN0Lzw", "review_count": 104, "categories": [{"alias": "vegan", "title": "Vegan"}, {"alias": "cocktailbars", "title": "Cocktail Bars"}], "rating": 4.5, "coordinates": {"latitude": 29.803238, "longitude": -95.405455}, "transactions": [], "location": {"address1": "449 W 19th St", "address2": "Ste C200", "address3": "", "city": "Houston", "zip_code": "77008", "country": "US", "state": "TX", "display_address": ["449 W 19th St", "Ste C200", "Houston, TX 77008"]}, "phone": "+17138764768", "display_phone": "(713) 876-4768", "distance": 5780.327987482643}, {"id": "Fmdv8Wqf3kwwHXkmFiAv8Q", "alias": "himari-houston-2", "name": "Himari", "image_url": "https://s3-media3.fl.yelpcdn.com/bphoto/BNXyvPVyF2gEycQ__d6zdQ/o.jpg", "is_closed": false, "url": "https://www.yelp.com/biz/himari-houston-2?adjust_creative=XXt1Nge7yivmjq1WyN0Lzw&utm_campaign=yelp_api_v3&utm_medium=api_v3_business_search&utm_source=XXt1Nge7yivmjq1WyN0Lzw", "review_count": 43, "categories": [{"alias": "japanese", "title": "Japanese"}], "rating": 4.5, "coordinates": {"latitude": 29.816834, "longitude": -95.421845}, "transactions": ["delivery", "pickup"], "location": {"address1": "1223 W 34th St", "address2": "Ste C500", "address3": "", "city": "Houston", "zip_code": "77018", "country": "US", "state": "TX", "display_address": ["1223 W 34th St", "Ste C500", "Houston, TX 77018"]}, "phone": "+18325825005", "display_phone": "(832) 582-5005", "distance": 5818.6357669755835}, {"id": "a8dENBhpSVAeh_XcQQ3ztA", "alias": "taco-fuego-houston-5", "name": "Taco Fuego", "image_url": "https://s3-media2.fl.yelpcdn.com/bphoto/l3SwlCJDNhRNgTeBgvXD-A/o.jpg", "is_closed": false, "url": "https://www.yelp.com/biz/taco-fuego-houston-5?adjust_creative=XXt1Nge7yivmjq1WyN0Lzw&utm_campaign=yelp_api_v3&utm_medium=api_v3_business_search&utm_source=XXt1Nge7yivmjq1WyN0Lzw", "review_count": 17, "categories": [{"alias": "halal", "title": "Halal"}, {"alias": "tacos", "title": "Tacos"}, {"alias": "foodtrucks", "title": "Food Trucks"}], "rating": 4.0, "coordinates": {"latitude": 29.789381, "longitude": -95.467589}, "transactions": ["delivery", "pickup"], "location": {"address1": "1114 Silber Rd", "address2": "", "address3": null, "city": "Houston", "zip_code": "77055", "country": "US", "state": "TX", "display_address": ["1114 Silber Rd", "Houston, TX 77055"]}, "phone": "+12815818693", "display_phone": "(281) 581-8693", "distance": 2182.5045007201243}, {"id": "MeyUXf7jcgF-jeHnLZk3vg", "alias": "rooster-and-rice-houston", "name": "Rooster & Rice", "image_url": "https://s3-media4.fl.yelpcdn.com/bphoto/PnDMB4daPvDtn4Wf5KbR9A/o.jpg", "is_closed": false, "url": "https://www.yelp.com/biz/rooster-and-rice-houston?adjust_creative=XXt1Nge7yivmjq1WyN0Lzw&utm_campaign=yelp_api_v3&utm_medium=api_v3_business_search&utm_source=XXt1Nge7yivmjq1WyN0Lzw", "review_count": 76, "categories": [{"alias": "thai", "title": "Thai"}, {"alias": "chickenshop", "title": "Chicken Shop"}], "rating": 4.0, "coordinates": {"latitude": 29.816916598862413, "longitude": -95.42140630000004}, "transactions": ["delivery", "pickup"], "price": "$$", "location": {"address1": "1223 W 34th St", "address2": "Ste C-400", "address3": "", "city": "Houston", "zip_code": "77018", "country": "US", "state": "TX", "display_address": ["1223 W 34th St", "Ste C-400", "Houston, TX 77018"]}, "phone": "+17139936581", "display_phone": "(713) 993-6581", "distance": 5820.415340961303}, {"id": "_nV5h8XHBhWaS-6y3sd9kQ", "alias": "trendy-dumpling-houston", "name": "Trendy Dumpling", "image_url": "https://s3-media2.fl.yelpcdn.com/bphoto/Ts2vNM9pNbyCQqCh_kclzQ/o.jpg", "is_closed": false, "url": "https://www.yelp.com/biz/trendy-dumpling-houston?adjust_creative=XXt1Nge7yivmjq1WyN0Lzw&utm_campaign=yelp_api_v3&utm_medium=api_v3_business_search&utm_source=XXt1Nge7yivmjq1WyN0Lzw", "review_count": 907, "categories": [{"alias": "noodles", "title": "Noodles"}, {"alias": "szechuan", "title": "Szechuan"}, {"alias": "asianfusion", "title": "Asian Fusion"}], "rating": 4.0, "coordinates": {"latitude": 29.72856, "longitude": -95.43209}, "transactions": ["delivery", "pickup"], "price": "$$", "location": {"address1": "3285 Sw Fwy", "address2": null, "address3": "", "city": "Houston", "zip_code": "77027", "country": "US", "state": "TX", "display_address": ["3285 Sw Fwy", "Houston, TX 77027"]}, "phone": "+17137509398", "display_phone": "(713) 750-9398", "distance": 5431.055715419055}, {"id": "gOICzAHTAqfSiFGkNH2yzQ", "alias": "moon-rabbit-houston", "name": "Moon Rabbit", "image_url": "https://s3-media4.fl.yelpcdn.com/bphoto/6udPxvNTCBT1CAcVWkkscA/o.jpg", "is_closed": false, "url": "https://www.yelp.com/biz/moon-rabbit-houston?adjust_creative=XXt1Nge7yivmjq1WyN0Lzw&utm_campaign=yelp_api_v3&utm_medium=api_v3_business_search&utm_source=XXt1Nge7yivmjq1WyN0Lzw", "review_count": 213, "categories": [{"alias": "vietnamese", "title": "Vietnamese"}], "rating": 4.5, "coordinates": {"latitude": 29.80292, "longitude": -95.40829}, "transactions": [], "price": "$$", "location": {"address1": "605 W 19th St", "address2": "", "address3": null, "city": "Houston", "zip_code": "77008", "country": "US", "state": "TX", "display_address": ["605 W 19th St", "Houston, TX 77008"]}, "phone": "+17136843991", "display_phone": "(713) 684-3991", "distance": 5565.374486224038}, {"id": "bAV4UMF7XTOCNAi8-ekBhA", "alias": "krisp-korean-fried-chicken-houston-3", "name": "Krisp Korean Fried Chicken", "image_url": "https://s3-media3.fl.yelpcdn.com/bphoto/mV-QKr-y1gvCk3qow7mUjw/o.jpg", "is_closed": false, "url": "https://www.yelp.com/biz/krisp-korean-fried-chicken-houston-3?adjust_creative=XXt1Nge7yivmjq1WyN0Lzw&utm_campaign=yelp_api_v3&utm_medium=api_v3_business_search&utm_source=XXt1Nge7yivmjq1WyN0Lzw", "review_count": 271, "categories": [{"alias": "chickenshop", "title": "Chicken Shop"}, {"alias": "korean", "title": "Korean"}], "rating": 4.5, "coordinates": {"latitude": 29.797722, "longitude": -95.525493}, "transactions": ["delivery", "pickup"], "price": "$$", "location": {"address1": "9486 Long Point Rd", "address2": null, "address3": null, "city": "Houston", "zip_code": "77055", "country": "US", "state": "TX", "display_address": ["9486 Long Point Rd", "Houston, TX 77055"]}, "phone": "+17134922535", "display_phone": "(713) 492-2535", "distance": 7351.7456017724135}, {"id": "0Y43kRX-FXSwgE9uP5x_qA", "alias": "dona-letis-houston-2", "name": "Dona Leti's", "image_url": "https://s3-media4.fl.yelpcdn.com/bphoto/OwUh9tYLqeVPopG4Kr9WpQ/o.jpg", "is_closed": false, "url": "https://www.yelp.com/biz/dona-letis-houston-2?adjust_creative=XXt1Nge7yivmjq1WyN0Lzw&utm_campaign=yelp_api_v3&utm_medium=api_v3_business_search&utm_source=XXt1Nge7yivmjq1WyN0Lzw", "review_count": 230, "categories": [{"alias": "cocktailbars", "title": "Cocktail Bars"}, {"alias": "tacos", "title": "Tacos"}], "rating": 4.0, "coordinates": {"latitude": 29.77844, "longitude": -95.42978}, "transactions": [], "price": "$$", "location": {"address1": "7340 Washington Ave", "address2": "", "address3": null, "city": "Houston", "zip_code": "77007", "country": "US", "state": "TX", "display_address": ["7340 Washington Ave", "Houston, TX 77007"]}, "phone": "+18328583917", "display_phone": "(832) 858-3917", "distance": 2467.7941220005628}, {"id": "AhTCGjD5lMXiUn8fhXlXgw", "alias": "cabo-bobs-houston", "name": "Cabo Bob's", "image_url": "https://s3-media1.fl.yelpcdn.com/bphoto/11qzNguHrWhX5HZqeCxTMw/o.jpg", "is_closed": false, "url": "https://www.yelp.com/biz/cabo-bobs-houston?adjust_creative=XXt1Nge7yivmjq1WyN0Lzw&utm_campaign=yelp_api_v3&utm_medium=api_v3_business_search&utm_source=XXt1Nge7yivmjq1WyN0Lzw", "review_count": 262, "categories": [{"alias": "mexican", "title": "Mexican"}], "rating": 4.5, "coordinates": {"latitude": 29.749092, "longitude": -95.486472}, "transactions": ["delivery"], "price": "$", "location": {"address1": "1810 Fountain View Dr", "address2": null, "address3": "", "city": "Houston", "zip_code": "77057", "country": "US", "state": "TX", "display_address": ["1810 Fountain View Dr", "Houston, TX 77057"]}, "phone": "+18328747004", "display_phone": "(832) 874-7004", "distance": 4079.263333823545}, {"id": "3Xc_c-5wLZMbVVNX8KuuAQ", "alias": "xeo-yum-houston", "name": "Xeo Yum", "image_url": "https://s3-media2.fl.yelpcdn.com/bphoto/oDBzoGhZW-GiuC-4zE95wA/o.jpg", "is_closed": false, "url": "https://www.yelp.com/biz/xeo-yum-houston?adjust_creative=XXt1Nge7yivmjq1WyN0Lzw&utm_campaign=yelp_api_v3&utm_medium=api_v3_business_search&utm_source=XXt1Nge7yivmjq1WyN0Lzw", "review_count": 8, "categories": [{"alias": "coffee", "title": "Coffee & Tea"}, {"alias": "vietnamese", "title": "Vietnamese"}], "rating": 5.0, "coordinates": {"latitude": 29.746456, "longitude": -95.377976}, "transactions": [], "location": {"address1": "606 Dennis St", "address2": "Ste 211", "address3": null, "city": "Houston", "zip_code": "77006", "country": "US", "state": "TX", "display_address": ["606 Dennis St", "Ste 211", "Houston, TX 77006"]}, "phone": "", "display_phone": "", "distance": 7986.734480452898}, {"id": "2zBObKm-il80UVKzYTrG6w", "alias": "yuk-dae-jang-houston", "name": "Yuk Dae Jang", "image_url": "https://s3-media1.fl.yelpcdn.com/bphoto/Hah7NIA0Jl3LajrNtQPq0w/o.jpg", "is_closed": false, "url": "https://www.yelp.com/biz/yuk-dae-jang-houston?adjust_creative=XXt1Nge7yivmjq1WyN0Lzw&utm_campaign=yelp_api_v3&utm_medium=api_v3_business_search&utm_source=XXt1Nge7yivmjq1WyN0Lzw", "review_count": 42, "categories": [{"alias": "korean", "title": "Korean"}, {"alias": "noodles", "title": "Noodles"}, {"alias": "soup", "title": "Soup"}], "rating": 4.0, "coordinates": {"latitude": 29.70620028368392, "longitude": -95.55231881779125}, "transactions": ["delivery", "pickup"], "location": {"address1": "6650 Corporate Dr", "address2": "Ste D", "address3": "", "city": "Houston", "zip_code": "77036", "country": "US", "state": "TX", "display_address": ["6650 Corporate Dr", "Ste D", "Houston, TX 77036"]}, "phone": "+12818885620", "display_phone": "(281) 888-5620", "distance": 12018.190831013677}, {"id": "GySi8cCYfkm_usS12Di-iQ", "alias": "stuffed-belly-houston", "name": "Stuffed Belly", "image_url": "https://s3-media4.fl.yelpcdn.com/bphoto/qNcNTZWzNTX4ZuWP9fuQVw/o.jpg", "is_closed": false, "url": "https://www.yelp.com/biz/stuffed-belly-houston?adjust_creative=XXt1Nge7yivmjq1WyN0Lzw&utm_campaign=yelp_api_v3&utm_medium=api_v3_business_search&utm_source=XXt1Nge7yivmjq1WyN0Lzw", "review_count": 52, "categories": [{"alias": "sandwiches", "title": "Sandwiches"}, {"alias": "burgers", "title": "Burgers"}], "rating": 4.5, "coordinates": {"latitude": 29.80274, "longitude": -95.49142}, "transactions": [], "location": {"address1": "8133 Long Point Rd", "address2": "", "address3": null, "city": "Houston", "zip_code": "77055", "country": "US", "state": "TX", "display_address": ["8133 Long Point Rd", "Houston, TX 77055"]}, "phone": "+18322245422", "display_phone": "(832) 224-5422", "distance": 4825.914585575824}, {"id": "ZfC2qb1tXNipKQddVXKBNA", "alias": "ikto-houston", "name": "IKTO", "image_url": "https://s3-media3.fl.yelpcdn.com/bphoto/tgS8zo1m83aBZbJzFV1QaA/o.jpg", "is_closed": false, "url": "https://www.yelp.com/biz/ikto-houston?adjust_creative=XXt1Nge7yivmjq1WyN0Lzw&utm_campaign=yelp_api_v3&utm_medium=api_v3_business_search&utm_source=XXt1Nge7yivmjq1WyN0Lzw", "review_count": 31, "categories": [{"alias": "cocktailbars", "title": "Cocktail Bars"}, {"alias": "empanadas", "title": "Empanadas"}, {"alias": "seafood", "title": "Seafood"}], "rating": 4.0, "coordinates": {"latitude": 29.790224, "longitude": -95.40921}, "transactions": [], "price": "$$", "location": {"address1": "1221 W 11th St", "address2": "", "address3": null, "city": "Houston", "zip_code": "77008", "country": "US", "state": "TX", "display_address": ["1221 W 11th St", "Houston, TX 77008"]}, "phone": "", "display_phone": "", "distance": 4780.998941217412}, {"id": "r0c9T3wXFqEHrBhAXccwlA", "alias": "meat-cheese-project-houston", "name": "Meat+Cheese Project", "image_url": "https://s3-media2.fl.yelpcdn.com/bphoto/iPnVGWWZvUYihDRLzkzOOg/o.jpg", "is_closed": false, "url": "https://www.yelp.com/biz/meat-cheese-project-houston?adjust_creative=XXt1Nge7yivmjq1WyN0Lzw&utm_campaign=yelp_api_v3&utm_medium=api_v3_business_search&utm_source=XXt1Nge7yivmjq1WyN0Lzw", "review_count": 15, "categories": [{"alias": "burgers", "title": "Burgers"}, {"alias": "wine_bars", "title": "Wine Bars"}, {"alias": "sandwiches", "title": "Sandwiches"}], "rating": 4.0, "coordinates": {"latitude": 29.78295, "longitude": -95.43611}, "transactions": ["delivery", "pickup"], "location": {"address1": "8200 Washington Ave", "address2": null, "address3": "", "city": "Houston", "zip_code": "77007", "country": "US", "state": "TX", "display_address": ["8200 Washington Ave", "Houston, TX 77007"]}, "phone": "", "display_phone": "", "distance": 2095.439382960097}, {"id": "36laMC_BB-nr9CV8BDqk_g", "alias": "the-rice-box-houston-5", "name": "The Rice Box", "image_url": "https://s3-media1.fl.yelpcdn.com/bphoto/ivRkKmEUbx7kgDt1V0FhYg/o.jpg", "is_closed": false, "url": "https://www.yelp.com/biz/the-rice-box-houston-5?adjust_creative=XXt1Nge7yivmjq1WyN0Lzw&utm_campaign=yelp_api_v3&utm_medium=api_v3_business_search&utm_source=XXt1Nge7yivmjq1WyN0Lzw", "review_count": 925, "categories": [{"alias": "asianfusion", "title": "Asian Fusion"}, {"alias": "chinese", "title": "Chinese"}], "rating": 4.0, "coordinates": {"latitude": 29.8037, "longitude": -95.4017}, "transactions": ["delivery", "pickup"], "price": "$$", "location": {"address1": "300 W 20th St", "address2": "", "address3": null, "city": "Houston", "zip_code": "77008", "country": "US", "state": "TX", "display_address": ["300 W 20th St", "Houston, TX 77008"]}, "phone": "+17134088678", "display_phone": "(713) 408-8678", "distance": 6133.1933806781235}, {"id": "wtoR5KnlPD-McyqECxGn_g", "alias": "nandos-houston-2", "name": "Nando's", "image_url": "https://s3-media4.fl.yelpcdn.com/bphoto/Z00t4-QIT6i8zTSKO3_Tjw/o.jpg", "is_closed": false, "url": "https://www.yelp.com/biz/nandos-houston-2?adjust_creative=XXt1Nge7yivmjq1WyN0Lzw&utm_campaign=yelp_api_v3&utm_medium=api_v3_business_search&utm_source=XXt1Nge7yivmjq1WyN0Lzw", "review_count": 43, "categories": [{"alias": "southafrican", "title": "South African"}, {"alias": "chickenshop", "title": "Chicken Shop"}, {"alias": "cocktailbars", "title": "Cocktail Bars"}], "rating": 3.5, "coordinates": {"latitude": 29.74924855725062, "longitude": -95.45977407539894}, "transactions": [], "price": "$$", "location": {"address1": "1717 Post Oak Blvd", "address2": "Ste C", "address3": null, "city": "Houston", "zip_code": "77056", "country": "US", "state": "TX", "display_address": ["1717 Post Oak Blvd", "Ste C", "Houston, TX 77056"]}, "phone": "+18326699930", "display_phone": "(832) 669-9930", "distance": 2715.9829230208375}, {"id": "M70GJghogh5noUtvaZEb7g", "alias": "93-til-houston", "name": "93' Til", "image_url": "https://s3-media2.fl.yelpcdn.com/bphoto/qO7RMzHf92HZWY7JdEMTFw/o.jpg", "is_closed": false, "url": "https://www.yelp.com/biz/93-til-houston?adjust_creative=XXt1Nge7yivmjq1WyN0Lzw&utm_campaign=yelp_api_v3&utm_medium=api_v3_business_search&utm_source=XXt1Nge7yivmjq1WyN0Lzw", "review_count": 176, "categories": [{"alias": "newamerican", "title": "American (New)"}, {"alias": "bars", "title": "Bars"}], "rating": 4.5, "coordinates": {"latitude": 29.735724, "longitude": -95.399468}, "transactions": ["delivery"], "price": "$$", "location": {"address1": "1601 W Main St", "address2": "", "address3": null, "city": "Houston", "zip_code": "77006", "country": "US", "state": "TX", "display_address": ["1601 W Main St", "Houston, TX 77006"]}, "phone": "+12818466405", "display_phone": "(281) 846-6405", "distance": 6772.619864706449}, {"id": "0bd6swPMJORx2_4wK80spw", "alias": "tamashi-ramen-and-sushi-houston-10", "name": "Tamashi Ramen and Sushi", "image_url": "https://s3-media4.fl.yelpcdn.com/bphoto/cyfAOA7VjJUj2jCi2pakgQ/o.jpg", "is_closed": false, "url": "https://www.yelp.com/biz/tamashi-ramen-and-sushi-houston-10?adjust_creative=XXt1Nge7yivmjq1WyN0Lzw&utm_campaign=yelp_api_v3&utm_medium=api_v3_business_search&utm_source=XXt1Nge7yivmjq1WyN0Lzw", "review_count": 641, "categories": [{"alias": "ramen", "title": "Ramen"}, {"alias": "sushi", "title": "Sushi Bars"}], "rating": 4.5, "coordinates": {"latitude": 29.7884065, "longitude": -95.4678997}, "transactions": ["pickup"], "price": "$$", "location": {"address1": "1106 Silber Rd", "address2": "Ste D1", "address3": "", "city": "Houston", "zip_code": "77055", "country": "US", "state": "TX", "display_address": ["1106 Silber Rd", "Ste D1", "Houston, TX 77055"]}, "phone": "+18325199572", "display_phone": "(832) 519-9572", "distance": 2036.4636444805878}, {"id": "Eaani_7M6xAsasMnG4t5HQ", "alias": "joey-uptown-houston-2", "name": "JOEY Uptown", "image_url": "https://s3-media1.fl.yelpcdn.com/bphoto/ogaDQfdQeBS9YjCoZBGoBQ/o.jpg", "is_closed": false, "url": "https://www.yelp.com/biz/joey-uptown-houston-2?adjust_creative=XXt1Nge7yivmjq1WyN0Lzw&utm_campaign=yelp_api_v3&utm_medium=api_v3_business_search&utm_source=XXt1Nge7yivmjq1WyN0Lzw", "review_count": 972, "categories": [{"alias": "newamerican", "title": "American (New)"}, {"alias": "steak", "title": "Steakhouses"}, {"alias": "bars", "title": "Bars"}], "rating": 4.5, "coordinates": {"latitude": 29.740252, "longitude": -95.462682}, "transactions": ["delivery"], "location": {"address1": "5045 Westheimer Rd", "address2": "Ste X01", "address3": null, "city": "Houston", "zip_code": "77056", "country": "US", "state": "TX", "display_address": ["5045 Westheimer Rd", "Ste X01", "Houston, TX 77056"]}, "phone": "+13466465639", "display_phone": "(346) 646-5639", "distance": 3758.4678979984983}, {"id": "ySBsjzp78jA0TIfTysoRrw", "alias": "tacos-do\u00f1a-lena-houston", "name": "Tacos Do\u00f1a Lena", "image_url": "https://s3-media4.fl.yelpcdn.com/bphoto/UuufmNbpffSP_WqlCQFxpQ/o.jpg", "is_closed": false, "url": "https://www.yelp.com/biz/tacos-do%C3%B1a-lena-houston?adjust_creative=XXt1Nge7yivmjq1WyN0Lzw&utm_campaign=yelp_api_v3&utm_medium=api_v3_business_search&utm_source=XXt1Nge7yivmjq1WyN0Lzw", "review_count": 811, "categories": [{"alias": "tacos", "title": "Tacos"}], "rating": 4.5, "coordinates": {"latitude": 29.811402, "longitude": -95.51024}, "transactions": ["delivery"], "price": "$", "location": {"address1": "8788 Hammerly Blvd", "address2": "Ste G", "address3": "", "city": "Houston", "zip_code": "77080", "country": "US", "state": "TX", "display_address": ["8788 Hammerly Blvd", "Ste G", "Houston, TX 77080"]}, "phone": "+17139936486", "display_phone": "(713) 993-6486", "distance": 6836.717078424322}, {"id": "XfiyofQyCQ-I3j1x-m9O8g", "alias": "the-blind-goat-houston-2", "name": "The Blind Goat", "image_url": "https://s3-media2.fl.yelpcdn.com/bphoto/gVnbBdNum7k2GIvTeHsO7Q/o.jpg", "is_closed": false, "url": "https://www.yelp.com/biz/the-blind-goat-houston-2?adjust_creative=XXt1Nge7yivmjq1WyN0Lzw&utm_campaign=yelp_api_v3&utm_medium=api_v3_business_search&utm_source=XXt1Nge7yivmjq1WyN0Lzw", "review_count": 109, "categories": [{"alias": "vietnamese", "title": "Vietnamese"}, {"alias": "cocktailbars", "title": "Cocktail Bars"}, {"alias": "asianfusion", "title": "Asian Fusion"}], "rating": 4.0, "coordinates": {"latitude": 29.80227, "longitude": -95.49177}, "transactions": [], "price": "$$$", "location": {"address1": "8145 Long Point Rd", "address2": "", "address3": null, "city": "Houston", "zip_code": "77055", "country": "US", "state": "TX", "display_address": ["8145 Long Point Rd", "Houston, TX 77055"]}, "phone": "+13462981660", "display_phone": "(346) 298-1660", "distance": 4817.406364271089}, {"id": "0-HP4KRhvLgMEEJ0gjqIIw", "alias": "little-patagonia-houston-2", "name": "Little Patagonia", "image_url": "https://s3-media3.fl.yelpcdn.com/bphoto/kAYXvoqQTB_LTUgrMIpRrw/o.jpg", "is_closed": false, "url": "https://www.yelp.com/biz/little-patagonia-houston-2?adjust_creative=XXt1Nge7yivmjq1WyN0Lzw&utm_campaign=yelp_api_v3&utm_medium=api_v3_business_search&utm_source=XXt1Nge7yivmjq1WyN0Lzw", "review_count": 33, "categories": [{"alias": "empanadas", "title": "Empanadas"}, {"alias": "argentine", "title": "Argentine"}], "rating": 4.5, "coordinates": {"latitude": 29.7387306, "longitude": -95.47025209456154}, "transactions": [], "price": "$", "location": {"address1": "5393 Westheimer Rd", "address2": "Ste B", "address3": null, "city": "Houston", "zip_code": "77056", "country": "US", "state": "TX", "display_address": ["5393 Westheimer Rd", "Ste B", "Houston, TX 77056"]}, "phone": "+18328046905", "display_phone": "(832) 804-6905", "distance": 4123.749527356471}, {"id": "QxrLhiyRbrIx9bPdwULNIA", "alias": "soju-pocha-houston-2", "name": "Soju Pocha", "image_url": "https://s3-media4.fl.yelpcdn.com/bphoto/L5aYCVQEJWWrt0lW5X4xQQ/o.jpg", "is_closed": false, "url": "https://www.yelp.com/biz/soju-pocha-houston-2?adjust_creative=XXt1Nge7yivmjq1WyN0Lzw&utm_campaign=yelp_api_v3&utm_medium=api_v3_business_search&utm_source=XXt1Nge7yivmjq1WyN0Lzw", "review_count": 22, "categories": [{"alias": "karaoke", "title": "Karaoke"}, {"alias": "korean", "title": "Korean"}], "rating": 4.0, "coordinates": {"latitude": 29.794031738345584, "longitude": -95.5431386}, "transactions": [], "location": {"address1": "10049 Long Point Rd", "address2": null, "address3": "", "city": "Houston", "zip_code": "77055", "country": "US", "state": "TX", "display_address": ["10049 Long Point Rd", "Houston, TX 77055"]}, "phone": "+12818466729", "display_phone": "(281) 846-6729", "distance": 8840.368812077077}, {"id": "-29-Wp5Rr4JNf4EaN0OmcQ", "alias": "hawaiian-bros-island-grill-houston", "name": "Hawaiian Bros Island Grill", "image_url": "https://s3-media4.fl.yelpcdn.com/bphoto/5FwMImlRH85Zjx3-vn2wRQ/o.jpg", "is_closed": false, "url": "https://www.yelp.com/biz/hawaiian-bros-island-grill-houston?adjust_creative=XXt1Nge7yivmjq1WyN0Lzw&utm_campaign=yelp_api_v3&utm_medium=api_v3_business_search&utm_source=XXt1Nge7yivmjq1WyN0Lzw", "review_count": 204, "categories": [{"alias": "hawaiian", "title": "Hawaiian"}, {"alias": "desserts", "title": "Desserts"}, {"alias": "salad", "title": "Salad"}], "rating": 4.0, "coordinates": {"latitude": 29.738104391346685, "longitude": -95.500416}, "transactions": ["delivery", "pickup"], "price": "$$", "location": {"address1": "6522 Westheimer Rd", "address2": null, "address3": "", "city": "Houston", "zip_code": "77057", "country": "US", "state": "TX", "display_address": ["6522 Westheimer Rd", "Houston, TX 77057"]}, "phone": "+12813053007", "display_phone": "(281) 305-3007", "distance": 5895.783796786687}, {"id": "24CtuevOqpbyAaXjrZLq1A", "alias": "roostar-vietnamese-grill-houston-3", "name": "Roostar Vietnamese Grill", "image_url": "https://s3-media4.fl.yelpcdn.com/bphoto/n6KtnV7uyhNHiEkFQbqLeQ/o.jpg", "is_closed": false, "url": "https://www.yelp.com/biz/roostar-vietnamese-grill-houston-3?adjust_creative=XXt1Nge7yivmjq1WyN0Lzw&utm_campaign=yelp_api_v3&utm_medium=api_v3_business_search&utm_source=XXt1Nge7yivmjq1WyN0Lzw", "review_count": 1097, "categories": [{"alias": "vietnamese", "title": "Vietnamese"}, {"alias": "sandwiches", "title": "Sandwiches"}, {"alias": "vegetarian", "title": "Vegetarian"}], "rating": 4.5, "coordinates": {"latitude": 29.7313251, "longitude": -95.4753633}, "transactions": ["delivery", "pickup"], "price": "$", "location": {"address1": "5551 Richmond Ave", "address2": null, "address3": "", "city": "Houston", "zip_code": "77056", "country": "US", "state": "TX", "display_address": ["5551 Richmond Ave", "Houston, TX 77056"]}, "phone": "+18327673319", "display_phone": "(832) 767-3319", "distance": 5069.468625281214}, {"id": "uxC7VWWWK6PQOvNw0-fOnA", "alias": "tumble-22-houston-2", "name": "Tumble 22", "image_url": "https://s3-media3.fl.yelpcdn.com/bphoto/VeZSTb0SexH5WKLT-Hidpg/o.jpg", "is_closed": false, "url": "https://www.yelp.com/biz/tumble-22-houston-2?adjust_creative=XXt1Nge7yivmjq1WyN0Lzw&utm_campaign=yelp_api_v3&utm_medium=api_v3_business_search&utm_source=XXt1Nge7yivmjq1WyN0Lzw", "review_count": 31, "categories": [{"alias": "chickenshop", "title": "Chicken Shop"}, {"alias": "desserts", "title": "Desserts"}, {"alias": "sandwiches", "title": "Sandwiches"}], "rating": 4.5, "coordinates": {"latitude": 29.7679, "longitude": -95.372638}, "transactions": ["delivery", "pickup"], "location": {"address1": "1017 Houston Ave", "address2": null, "address3": "", "city": "Houston", "zip_code": "77007", "country": "US", "state": "TX", "display_address": ["1017 Houston Ave", "Houston, TX 77007"]}, "phone": "+12815009190", "display_phone": "(281) 500-9190", "distance": 7941.082702937726}, {"id": "RoU8KznQMrRFcIjYVtdZMw", "alias": "the-pit-room-houston", "name": "The Pit Room", "image_url": "https://s3-media3.fl.yelpcdn.com/bphoto/KkligACrcO8g-9bn5-O02w/o.jpg", "is_closed": false, "url": "https://www.yelp.com/biz/the-pit-room-houston?adjust_creative=XXt1Nge7yivmjq1WyN0Lzw&utm_campaign=yelp_api_v3&utm_medium=api_v3_business_search&utm_source=XXt1Nge7yivmjq1WyN0Lzw", "review_count": 2789, "categories": [{"alias": "bbq", "title": "Barbeque"}, {"alias": "southern", "title": "Southern"}], "rating": 4.5, "coordinates": {"latitude": 29.7342352703345, "longitude": -95.3939679771603}, "transactions": ["delivery", "pickup"], "price": "$$", "location": {"address1": "1201 Richmond Ave", "address2": "", "address3": "", "city": "Houston", "zip_code": "77006", "country": "US", "state": "TX", "display_address": ["1201 Richmond Ave", "Houston, TX 77006"]}, "phone": "+12818881929", "display_phone": "(281) 888-1929", "distance": 7295.941195950041}, {"id": "3URV6UebBqDQJBzPNAp7XA", "alias": "tiger-noodle-house-houston-2", "name": "Tiger Noodle House", "image_url": "https://s3-media1.fl.yelpcdn.com/bphoto/fdB0wvvwE-z7QlgCQp8p0w/o.jpg", "is_closed": false, "url": "https://www.yelp.com/biz/tiger-noodle-house-houston-2?adjust_creative=XXt1Nge7yivmjq1WyN0Lzw&utm_campaign=yelp_api_v3&utm_medium=api_v3_business_search&utm_source=XXt1Nge7yivmjq1WyN0Lzw", "review_count": 150, "categories": [{"alias": "szechuan", "title": "Szechuan"}], "rating": 4.0, "coordinates": {"latitude": 29.74158, "longitude": -95.46178}, "transactions": ["delivery", "pickup"], "price": "$$", "location": {"address1": "5000 Westheimer Rd", "address2": "Ste 624", "address3": "", "city": "Houston", "zip_code": "77056", "country": "US", "state": "TX", "display_address": ["5000 Westheimer Rd", "Ste 624", "Houston, TX 77056"]}, "phone": "+17132428591", "display_phone": "(713) 242-8591", "distance": 3479.9791123324894}, {"id": "UbX9_pNqlJqDK_f8IZKvXA", "alias": "buffburger-houston", "name": "BuffBurger", "image_url": "https://s3-media2.fl.yelpcdn.com/bphoto/L4NlsWVAVR1ea6W-ublLsw/o.jpg", "is_closed": false, "url": "https://www.yelp.com/biz/buffburger-houston?adjust_creative=XXt1Nge7yivmjq1WyN0Lzw&utm_campaign=yelp_api_v3&utm_medium=api_v3_business_search&utm_source=XXt1Nge7yivmjq1WyN0Lzw", "review_count": 598, "categories": [{"alias": "burgers", "title": "Burgers"}], "rating": 4.0, "coordinates": {"latitude": 29.7851634817767, "longitude": -95.4836534841309}, "transactions": ["delivery", "pickup"], "price": "$$", "location": {"address1": "1014 Wirt Rd", "address2": "Ste 220", "address3": "", "city": "Houston", "zip_code": "77055", "country": "US", "state": "TX", "display_address": ["1014 Wirt Rd", "Ste 220", "Houston, TX 77055"]}, "phone": "+12815019773", "display_phone": "(281) 501-9773", "distance": 3090.186016912071}, {"id": "TLagvISDZ4UcFZWFqsbQTw", "alias": "street-food-thai-market-houston-2", "name": "Street Food Thai Market", "image_url": "https://s3-media1.fl.yelpcdn.com/bphoto/8C2kuv5XiOANvRATAN559g/o.jpg", "is_closed": false, "url": "https://www.yelp.com/biz/street-food-thai-market-houston-2?adjust_creative=XXt1Nge7yivmjq1WyN0Lzw&utm_campaign=yelp_api_v3&utm_medium=api_v3_business_search&utm_source=XXt1Nge7yivmjq1WyN0Lzw", "review_count": 649, "categories": [{"alias": "thai", "title": "Thai"}, {"alias": "laotian", "title": "Laotian"}], "rating": 4.5, "coordinates": {"latitude": 29.80417, "longitude": -95.38505}, "transactions": ["delivery"], "price": "$$", "location": {"address1": "1010 W Cavalcade St", "address2": "Unit D", "address3": "", "city": "Houston", "zip_code": "77009", "country": "US", "state": "TX", "display_address": ["1010 W Cavalcade St", "Unit D", "Houston, TX 77009"]}, "phone": "+13464063177", "display_phone": "(346) 406-3177", "distance": 7542.303709624037}, {"id": "ZUtFIxtTKRRhZ2fuvl6_cg", "alias": "travelers-table-houston", "name": "Traveler's Table", "image_url": "https://s3-media1.fl.yelpcdn.com/bphoto/uldZO0NrCG8JXgMHjRSncg/o.jpg", "is_closed": false, "url": "https://www.yelp.com/biz/travelers-table-houston?adjust_creative=XXt1Nge7yivmjq1WyN0Lzw&utm_campaign=yelp_api_v3&utm_medium=api_v3_business_search&utm_source=XXt1Nge7yivmjq1WyN0Lzw", "review_count": 1637, "categories": [{"alias": "tapasmallplates", "title": "Tapas/Small Plates"}, {"alias": "newamerican", "title": "American (New)"}], "rating": 4.5, "coordinates": {"latitude": 29.74473685745363, "longitude": -95.38830193179416}, "transactions": ["delivery", "pickup"], "price": "$$", "location": {"address1": "520 Westheimer Rd", "address2": "", "address3": null, "city": "Houston", "zip_code": "77006", "country": "US", "state": "TX", "display_address": ["520 Westheimer Rd", "Houston, TX 77006"]}, "phone": "+18324095785", "display_phone": "(832) 409-5785", "distance": 7153.024939590009}, {"id": "nAMLvssDVn3o-QN7kz0tKw", "alias": "yoyos-hot-dog-houston-18", "name": "Yoyo's Hot Dog", "image_url": "https://s3-media4.fl.yelpcdn.com/bphoto/XjZT1HtBRs3iZVjC6Mhqsg/o.jpg", "is_closed": false, "url": "https://www.yelp.com/biz/yoyos-hot-dog-houston-18?adjust_creative=XXt1Nge7yivmjq1WyN0Lzw&utm_campaign=yelp_api_v3&utm_medium=api_v3_business_search&utm_source=XXt1Nge7yivmjq1WyN0Lzw", "review_count": 14, "categories": [{"alias": "hotdog", "title": "Hot Dogs"}, {"alias": "foodstands", "title": "Food Stands"}], "rating": 5.0, "coordinates": {"latitude": 29.770711692244436, "longitude": -95.40821655397576}, "transactions": [], "location": {"address1": "4620 Washington Ave", "address2": "", "address3": null, "city": "Houston", "zip_code": "77007", "country": "US", "state": "TX", "display_address": ["4620 Washington Ave", "Houston, TX 77007"]}, "phone": "+12817834180", "display_phone": "(281) 783-4180", "distance": 4496.68510386016}, {"id": "lvPKIOptlfBKyg7f1vWd7w", "alias": "squable-houston", "name": "Squable", "image_url": "https://s3-media1.fl.yelpcdn.com/bphoto/TMADOTuAwCydjz4uDF8j-g/o.jpg", "is_closed": false, "url": "https://www.yelp.com/biz/squable-houston?adjust_creative=XXt1Nge7yivmjq1WyN0Lzw&utm_campaign=yelp_api_v3&utm_medium=api_v3_business_search&utm_source=XXt1Nge7yivmjq1WyN0Lzw", "review_count": 502, "categories": [{"alias": "modern_european", "title": "Modern European"}, {"alias": "newamerican", "title": "American (New)"}], "rating": 4.5, "coordinates": {"latitude": 29.802594, "longitude": -95.409436}, "transactions": ["delivery"], "price": "$$", "location": {"address1": "632 W 19th St", "address2": "", "address3": null, "city": "Houston", "zip_code": "77008", "country": "US", "state": "TX", "display_address": ["632 W 19th St", "Houston, TX 77008"]}, "phone": "+18328347362", "display_phone": "(832) 834-7362", "distance": 5451.455710542877}, {"id": "AIrP31QEPQ24n3Wak9TZNQ", "alias": "liberty-taco-houston-2", "name": "Liberty Taco", "image_url": "https://s3-media4.fl.yelpcdn.com/bphoto/_q_TQfy5SQLbbHTVyoAKBA/o.jpg", "is_closed": false, "url": "https://www.yelp.com/biz/liberty-taco-houston-2?adjust_creative=XXt1Nge7yivmjq1WyN0Lzw&utm_campaign=yelp_api_v3&utm_medium=api_v3_business_search&utm_source=XXt1Nge7yivmjq1WyN0Lzw", "review_count": 834, "categories": [{"alias": "tacos", "title": "Tacos"}, {"alias": "breakfast_brunch", "title": "Breakfast & Brunch"}], "rating": 4.5, "coordinates": {"latitude": 29.7325893491507, "longitude": -95.4560000449419}, "transactions": ["delivery", "pickup"], "price": "$", "location": {"address1": "4703 Richmond Ave", "address2": "Ste A", "address3": null, "city": "Houston", "zip_code": "77027", "country": "US", "state": "TX", "display_address": ["4703 Richmond Ave", "Ste A", "Houston, TX 77027"]}, "phone": "+17132390881", "display_phone": "(713) 239-0881", "distance": 4525.79072364202}, {"id": "Ai_DdeIq4oQ5uXc8Vs3mfA", "alias": "laynes-chicken-fingers-houston", "name": "Layne's Chicken Fingers", "image_url": "https://s3-media2.fl.yelpcdn.com/bphoto/FT6R_XM30z760J4FkzNSyQ/o.jpg", "is_closed": false, "url": "https://www.yelp.com/biz/laynes-chicken-fingers-houston?adjust_creative=XXt1Nge7yivmjq1WyN0Lzw&utm_campaign=yelp_api_v3&utm_medium=api_v3_business_search&utm_source=XXt1Nge7yivmjq1WyN0Lzw", "review_count": 38, "categories": [{"alias": "chicken_wings", "title": "Chicken Wings"}, {"alias": "sandwiches", "title": "Sandwiches"}], "rating": 4.0, "coordinates": {"latitude": 29.81379999963967, "longitude": -95.4290998}, "transactions": ["delivery", "pickup"], "location": {"address1": "3008 Ella Blvd", "address2": null, "address3": "", "city": "Houston", "zip_code": "77018", "country": "US", "state": "TX", "display_address": ["3008 Ella Blvd", "Houston, TX 77018"]}, "phone": "+17132445299", "display_phone": "(713) 244-5299", "distance": 5139.399121868924}, {"id": "uWjW1VGyGOg4Msz1LAnQzw", "alias": "jun-houston", "name": "Jun", "image_url": "https://s3-media2.fl.yelpcdn.com/bphoto/DD9xqeDLz8y3VJ2OZ_kA4g/o.jpg", "is_closed": false, "url": "https://www.yelp.com/biz/jun-houston?adjust_creative=XXt1Nge7yivmjq1WyN0Lzw&utm_campaign=yelp_api_v3&utm_medium=api_v3_business_search&utm_source=XXt1Nge7yivmjq1WyN0Lzw", "review_count": 108, "categories": [{"alias": "newamerican", "title": "American (New)"}, {"alias": "cocktailbars", "title": "Cocktail Bars"}], "rating": 4.0, "coordinates": {"latitude": 29.803712, "longitude": -95.3937}, "transactions": [], "location": {"address1": "420 E 20th St", "address2": "Ste A", "address3": null, "city": "Houston", "zip_code": "77008", "country": "US", "state": "TX", "display_address": ["420 E 20th St", "Ste A", "Houston, TX 77008"]}, "phone": "", "display_phone": "", "distance": 6791.802608943302}, {"id": "lvhxEoKsLSjyOOKZwn_vzQ", "alias": "street-to-kitchen-houston", "name": "Street to Kitchen", "image_url": "https://s3-media3.fl.yelpcdn.com/bphoto/nY22uwMrA-vx6Yr8hJcD5A/o.jpg", "is_closed": false, "url": "https://www.yelp.com/biz/street-to-kitchen-houston?adjust_creative=XXt1Nge7yivmjq1WyN0Lzw&utm_campaign=yelp_api_v3&utm_medium=api_v3_business_search&utm_source=XXt1Nge7yivmjq1WyN0Lzw", "review_count": 279, "categories": [{"alias": "thai", "title": "Thai"}], "rating": 4.5, "coordinates": {"latitude": 29.7393295683378, "longitude": -95.3110434114933}, "transactions": ["delivery", "pickup"], "price": "$$", "location": {"address1": "6501 Harrisburg Blvd", "address2": null, "address3": "", "city": "Houston", "zip_code": "77011", "country": "US", "state": "TX", "display_address": ["6501 Harrisburg Blvd", "Houston, TX 77011"]}, "phone": "+12815013435", "display_phone": "(281) 501-3435", "distance": 14373.252182227545}, {"id": "ZUxa2ODZnz4jN_tX6c6Qhg", "alias": "las-tortas-perronas-houston-12", "name": "Las Tortas Perronas", "image_url": "https://s3-media2.fl.yelpcdn.com/bphoto/XPF2vgb_RgnNnR7DPSG1cg/o.jpg", "is_closed": false, "url": "https://www.yelp.com/biz/las-tortas-perronas-houston-12?adjust_creative=XXt1Nge7yivmjq1WyN0Lzw&utm_campaign=yelp_api_v3&utm_medium=api_v3_business_search&utm_source=XXt1Nge7yivmjq1WyN0Lzw", "review_count": 609, "categories": [{"alias": "mexican", "title": "Mexican"}, {"alias": "sandwiches", "title": "Sandwiches"}], "rating": 4.5, "coordinates": {"latitude": 29.80462, "longitude": -95.50133}, "transactions": ["delivery"], "price": "$", "location": {"address1": "1837 Bingle Rd", "address2": "", "address3": "", "city": "Houston", "zip_code": "77055", "country": "US", "state": "TX", "display_address": ["1837 Bingle Rd", "Houston, TX 77055"]}, "phone": "+17134611900", "display_phone": "(713) 461-1900", "distance": 5677.6689043149745}, {"id": "VdQrJJztAVf3J9tRDDs31w", "alias": "zoa-moroccan-kitchen-houston-2", "name": "ZOA Moroccan Kitchen", "image_url": "https://s3-media2.fl.yelpcdn.com/bphoto/IEMA0rFVnqvFgLwYEW2kBQ/o.jpg", "is_closed": false, "url": "https://www.yelp.com/biz/zoa-moroccan-kitchen-houston-2?adjust_creative=XXt1Nge7yivmjq1WyN0Lzw&utm_campaign=yelp_api_v3&utm_medium=api_v3_business_search&utm_source=XXt1Nge7yivmjq1WyN0Lzw", "review_count": 7, "categories": [{"alias": "moroccan", "title": "Moroccan"}, {"alias": "mediterranean", "title": "Mediterranean"}, {"alias": "halal", "title": "Halal"}], "rating": 5.0, "coordinates": {"latitude": 29.733758, "longitude": -95.426561}, "transactions": ["delivery", "pickup"], "location": {"address1": "3303 Richmond Ave", "address2": null, "address3": "", "city": "Houston", "zip_code": "77098", "country": "US", "state": "TX", "display_address": ["3303 Richmond Ave", "Houston, TX 77098"]}, "phone": "+13467182118", "display_phone": "(346) 718-2118", "distance": 5166.766807014894}], "total": 20400, "region": {"center": {"longitude": -95.4547119140625, "latitude": 29.773275441610096}}}