{"businesses": [{"id": "xzkqbPukxN_jA0BH8aSdlw", "alias": "hampton-inn-and-suites-los-angeles-hollywood-los-angeles-3", "name": "Hampton Inn & Suites Los Angeles/Hollywood", "image_url": "https://s3-media2.fl.yelpcdn.com/bphoto/UU-Os3-kr598w6kkD-az6A/o.jpg", "is_closed": false, "url": "https://www.yelp.com/biz/hampton-inn-and-suites-los-angeles-hollywood-los-angeles-3?adjust_creative=pbWTcU6Cnh6ec5O1K-PUAQ&utm_campaign=yelp_api_v3&utm_medium=api_v3_business_search&utm_source=pbWTcU6Cnh6ec5O1K-PUAQ", "review_count": 89, "categories": [{"alias": "hotels", "title": "Hotels"}], "rating": 4.0, "coordinates": {"latitude": 34.09178898092595, "longitude": -118.3272616728209}, "transactions": [], "price": "$$", "location": {"address1": "1133 Vine St", "address2": "", "address3": null, "city": "Los Angeles", "zip_code": "90038", "country": "US", "state": "CA", "display_address": ["1133 Vine St", "Los Angeles, CA 90038"]}, "phone": "+13239526900", "display_phone": "(323) 952-6900", "distance": 3401.4246492953275}, {"id": "KbR7YjDlYg5xjnGaPEEoSA", "alias": "the-prospect-hollywood-hollywood", "name": "The Prospect Hollywood", "image_url": "https://s3-media1.fl.yelpcdn.com/bphoto/hSLc1ghRmp2yvYkgpJi0-A/o.jpg", "is_closed": false, "url": "https://www.yelp.com/biz/the-prospect-hollywood-hollywood?adjust_creative=pbWTcU6Cnh6ec5O1K-PUAQ&utm_campaign=yelp_api_v3&utm_medium=api_v3_business_search&utm_source=pbWTcU6Cnh6ec5O1K-PUAQ", "review_count": 37, "categories": [{"alias": "hotels", "title": "Hotels"}], "rating": 5.0, "coordinates": {"latitude": 34.104681, "longitude": -118.33449183}, "transactions": [], "price": "$$", "location": {"address1": "1850 N Cherokee Ave", "address2": null, "address3": null, "city": "Hollywood", "zip_code": "90028", "country": "US", "state": "CA", "display_address": ["1850 N Cherokee Ave", "Hollywood, CA 90028"]}, "phone": "+13102995222", "display_phone": "(310) 299-5222", "distance": 4937.764648769107}, {"id": "J7fJobWvknhzRylQcBpW-A", "alias": "el-royale-hotel-studio-city-2", "name": "El Royale Hotel Studio City", "image_url": "https://s3-media4.fl.yelpcdn.com/bphoto/ANVq74g0weXkwKzD5bXg3Q/o.jpg", "is_closed": false, "url": "https://www.yelp.com/biz/el-royale-hotel-studio-city-2?adjust_creative=pbWTcU6Cnh6ec5O1K-PUAQ&utm_campaign=yelp_api_v3&utm_medium=api_v3_business_search&utm_source=pbWTcU6Cnh6ec5O1K-PUAQ", "review_count": 303, "categories": [{"alias": "hotels", "title": "Hotels"}], "rating": 4.5, "coordinates": {"latitude": 34.14146, "longitude": -118.37235}, "transactions": [], "price": "$", "location": {"address1": "11117 Ventura Blvd", "address2": null, "address3": "", "city": "Los Angeles", "zip_code": "91604", "country": "US", "state": "CA", "display_address": ["11117 Ventura Blvd", "Los Angeles, CA 91604"]}, "phone": "+13238291860", "display_phone": "(323) 829-1860", "distance": 10044.866181603651}, {"id": "lJL53qxKdR6-cUSiXM_mhw", "alias": "hotel-normandie-los-angeles", "name": "Hotel Normandie", "image_url": "https://s3-media3.fl.yelpcdn.com/bphoto/MvhywPoBGAovpF8xdKNNWQ/o.jpg", "is_closed": false, "url": "https://www.yelp.com/biz/hotel-normandie-los-angeles?adjust_creative=pbWTcU6Cnh6ec5O1K-PUAQ&utm_campaign=yelp_api_v3&utm_medium=api_v3_business_search&utm_source=pbWTcU6Cnh6ec5O1K-PUAQ", "review_count": 280, "categories": [{"alias": "hotels", "title": "Hotels"}], "rating": 4.0, "coordinates": {"latitude": 34.0633173, "longitude": -118.3005522}, "transactions": [], "price": "$$", "location": {"address1": "605 S Normandie Ave", "address2": "", "address3": "", "city": "Los Angeles", "zip_code": "90005", "country": "US", "state": "CA", "display_address": ["605 S Normandie Ave", "Los Angeles, CA 90005"]}, "phone": "+12133888138", "display_phone": "(213) 388-8138", "distance": 1928.2422941261996}, {"id": "ZCFoBTJyEJUoMAF49zQzfA", "alias": "magic-castle-hotel-los-angeles", "name": "Magic Castle Hotel", "image_url": "https://s3-media4.fl.yelpcdn.com/bphoto/MZMbCdWwvP5VI1kXRm0mRg/o.jpg", "is_closed": false, "url": "https://www.yelp.com/biz/magic-castle-hotel-los-angeles?adjust_creative=pbWTcU6Cnh6ec5O1K-PUAQ&utm_campaign=yelp_api_v3&utm_medium=api_v3_business_search&utm_source=pbWTcU6Cnh6ec5O1K-PUAQ", "review_count": 348, "categories": [{"alias": "hotels", "title": "Hotels"}], "rating": 4.5, "coordinates": {"latitude": 34.10447, "longitude": -118.34252}, "transactions": [], "price": "$$", "location": {"address1": "7025 Franklin Ave", "address2": "", "address3": "", "city": "Los Angeles", "zip_code": "90028", "country": "US", "state": "CA", "display_address": ["7025 Franklin Ave", "Los Angeles, CA 90028"]}, "phone": "+13238510800", "display_phone": "(323) 851-0800", "distance": 5144.0623558175585}, {"id": "5lplA1T6vqwKNkYAtyrcbQ", "alias": "new-seoul-hotel-los-angeles", "name": "New Seoul Hotel", "image_url": "https://s3-media1.fl.yelpcdn.com/bphoto/91l_OY8rEszcHSAMIxDPoQ/o.jpg", "is_closed": false, "url": "https://www.yelp.com/biz/new-seoul-hotel-los-angeles?adjust_creative=pbWTcU6Cnh6ec5O1K-PUAQ&utm_campaign=yelp_api_v3&utm_medium=api_v3_business_search&utm_source=pbWTcU6Cnh6ec5O1K-PUAQ", "review_count": 47, "categories": [{"alias": "hotels", "title": "Hotels"}], "rating": 4.0, "coordinates": {"latitude": 34.051927138294, "longitude": -118.290242727448}, "transactions": [], "price": "$$", "location": {"address1": "2666 W Olympic Blvd", "address2": "", "address3": "", "city": "Los Angeles", "zip_code": "90006", "country": "US", "state": "CA", "display_address": ["2666 W Olympic Blvd", "Los Angeles, CA 90006"]}, "phone": "+12133816262", "display_phone": "(213) 381-6262", "distance": 3063.1262327305126}, {"id": "oz-l9zWBlNURcPj_5UnABw", "alias": "hilton-los-angeles-universal-city-universal-city", "name": "Hilton Los Angeles/Universal City", "image_url": "https://s3-media3.fl.yelpcdn.com/bphoto/Se3__Bam94e84_Fdf1vCLw/o.jpg", "is_closed": false, "url": "https://www.yelp.com/biz/hilton-los-angeles-universal-city-universal-city?adjust_creative=pbWTcU6Cnh6ec5O1K-PUAQ&utm_campaign=yelp_api_v3&utm_medium=api_v3_business_search&utm_source=pbWTcU6Cnh6ec5O1K-PUAQ", "review_count": 973, "categories": [{"alias": "hotels", "title": "Hotels"}, {"alias": "venues", "title": "Venues & Event Spaces"}], "rating": 3.5, "coordinates": {"latitude": 34.13695059358747, "longitude": -118.35840049428592}, "transactions": [], "price": "$$$", "location": {"address1": "555 Universal Hollywood Dr", "address2": "", "address3": "", "city": "Universal City", "zip_code": "91608", "country": "US", "state": "CA", "display_address": ["555 Universal Hollywood Dr", "Universal City, CA 91608"]}, "phone": "+18185062500", "display_phone": "(818) 506-2500", "distance": 9046.511446446282}, {"id": "CdvkO9oop3UJtccpSvSHiQ", "alias": "short-stories-hotel-los-angeles-3", "name": "Short Stories Hotel", "image_url": "https://s3-media4.fl.yelpcdn.com/bphoto/5-l57jxCfTlvYE1TNOujug/o.jpg", "is_closed": false, "url": "https://www.yelp.com/biz/short-stories-hotel-los-angeles-3?adjust_creative=pbWTcU6Cnh6ec5O1K-PUAQ&utm_campaign=yelp_api_v3&utm_medium=api_v3_business_search&utm_source=pbWTcU6Cnh6ec5O1K-PUAQ", "review_count": 27, "categories": [{"alias": "hotels", "title": "Hotels"}], "rating": 4.5, "coordinates": {"latitude": 34.07375, "longitude": -118.36176}, "transactions": [], "location": {"address1": "115 S Fairfax Ave", "address2": "", "address3": null, "city": "Los Angeles", "zip_code": "90036", "country": "US", "state": "CA", "display_address": ["115 S Fairfax Ave", "Los Angeles, CA 90036"]}, "phone": "+13239373930", "display_phone": "(323) 937-3930", "distance": 3942.586149852847}, {"id": "qFpElmlcnX9UDE6_8CC3IQ", "alias": "the-aster-los-angeles", "name": "The Aster", "image_url": "https://s3-media3.fl.yelpcdn.com/bphoto/lx9JsGMcWElJVwwybuZ9dw/o.jpg", "is_closed": false, "url": "https://www.yelp.com/biz/the-aster-los-angeles?adjust_creative=pbWTcU6Cnh6ec5O1K-PUAQ&utm_campaign=yelp_api_v3&utm_medium=api_v3_business_search&utm_source=pbWTcU6Cnh6ec5O1K-PUAQ", "review_count": 7, "categories": [{"alias": "hotels", "title": "Hotels"}], "rating": 5.0, "coordinates": {"latitude": 34.102365, "longitude": -118.327228}, "transactions": [], "location": {"address1": "1717 Vine St", "address2": "", "address3": null, "city": "Los Angeles", "zip_code": "90028", "country": "US", "state": "CA", "display_address": ["1717 Vine St", "Los Angeles, CA 90028"]}, "phone": "+13239621717", "display_phone": "(323) 962-1717", "distance": 4566.472898048133}, {"id": "U8jnACD9KEZNXBqD83lvFQ", "alias": "villa-brasil-motel-los-angeles", "name": "Villa Brasil Motel", "image_url": "https://s3-media1.fl.yelpcdn.com/bphoto/JyeYryIkDUBaKBj7ad8t9w/o.jpg", "is_closed": false, "url": "https://www.yelp.com/biz/villa-brasil-motel-los-angeles?adjust_creative=pbWTcU6Cnh6ec5O1K-PUAQ&utm_campaign=yelp_api_v3&utm_medium=api_v3_business_search&utm_source=pbWTcU6Cnh6ec5O1K-PUAQ", "review_count": 123, "categories": [{"alias": "hotels", "title": "Hotels"}], "rating": 4.5, "coordinates": {"latitude": 33.9992, "longitude": -118.41825}, "transactions": [], "price": "$", "location": {"address1": "11740 W Washington Blvd", "address2": "", "address3": "", "city": "Los Angeles", "zip_code": "90066", "country": "US", "state": "CA", "display_address": ["11740 W Washington Blvd", "Los Angeles, CA 90066"]}, "phone": "+13103501171", "display_phone": "(310) 350-1171", "distance": 11319.962990736021}, {"id": "weqYtE-PTIm6MBltTztRcQ", "alias": "snooty-fox-motor-inn-los-angeles-3", "name": "Snooty Fox Motor Inn", "image_url": "https://s3-media3.fl.yelpcdn.com/bphoto/_oYHC0FrFpEU6-Mgm3IovQ/o.jpg", "is_closed": false, "url": "https://www.yelp.com/biz/snooty-fox-motor-inn-los-angeles-3?adjust_creative=pbWTcU6Cnh6ec5O1K-PUAQ&utm_campaign=yelp_api_v3&utm_medium=api_v3_business_search&utm_source=pbWTcU6Cnh6ec5O1K-PUAQ", "review_count": 34, "categories": [{"alias": "hotels", "title": "Hotels"}], "rating": 3.0, "coordinates": {"latitude": 34.00881454818373, "longitude": -118.30875827286032}, "transactions": [], "price": "$", "location": {"address1": "4120 S Western Ave", "address2": "", "address3": "", "city": "Los Angeles", "zip_code": "90062", "country": "US", "state": "CA", "display_address": ["4120 S Western Ave", "Los Angeles, CA 90062"]}, "phone": "+13232940083", "display_phone": "(323) 294-0083", "distance": 5982.459176794288}, {"id": "VID0gqCw40xPO1vqwqUkfw", "alias": "cara-hotel-los-angeles", "name": "Cara Hotel", "image_url": "https://s3-media3.fl.yelpcdn.com/bphoto/SMq_olKaaRmWo0Z7MEXpVQ/o.jpg", "is_closed": false, "url": "https://www.yelp.com/biz/cara-hotel-los-angeles?adjust_creative=pbWTcU6Cnh6ec5O1K-PUAQ&utm_campaign=yelp_api_v3&utm_medium=api_v3_business_search&utm_source=pbWTcU6Cnh6ec5O1K-PUAQ", "review_count": 283, "categories": [{"alias": "hotels", "title": "Hotels"}], "rating": 3.5, "coordinates": {"latitude": 34.102806, "longitude": -118.309047}, "transactions": [], "location": {"address1": "1730 N Western Ave", "address2": "", "address3": null, "city": "Los Angeles", "zip_code": "90027", "country": "US", "state": "CA", "display_address": ["1730 N Western Ave", "Los Angeles, CA 90027"]}, "phone": "+13236728990", "display_phone": "(323) 672-8990", "distance": 4721.715530582117}, {"id": "s0txVgg7AV8ioc0tKB4JMA", "alias": "terranea-resort-rancho-palos-verdes", "name": "Terranea Resort", "image_url": "https://s3-media1.fl.yelpcdn.com/bphoto/ns8wfHK6__JMq7FM_S8pAA/o.jpg", "is_closed": false, "url": "https://www.yelp.com/biz/terranea-resort-rancho-palos-verdes?adjust_creative=pbWTcU6Cnh6ec5O1K-PUAQ&utm_campaign=yelp_api_v3&utm_medium=api_v3_business_search&utm_source=pbWTcU6Cnh6ec5O1K-PUAQ", "review_count": 1731, "categories": [{"alias": "resorts", "title": "Resorts"}], "rating": 3.5, "coordinates": {"latitude": 33.74072, "longitude": -118.39642}, "transactions": [], "location": {"address1": "100 Terranea Way", "address2": "", "address3": "", "city": "Rancho Palos Verdes", "zip_code": "90275", "country": "US", "state": "CA", "display_address": ["100 Terranea Way", "Rancho Palos Verdes, CA 90275"]}, "phone": "+13102652836", "display_phone": "(310) 265-2836", "distance": 36640.48662169073}, {"id": "1kQ42qnTsllIIYMuraxbew", "alias": "doubletree-by-hilton-hotel-los-angeles-downtown-los-angeles", "name": "DoubleTree by Hilton Hotel Los Angeles Downtown", "image_url": "https://s3-media3.fl.yelpcdn.com/bphoto/jNWcCaO7ukZYPh6JXUdAtQ/o.jpg", "is_closed": false, "url": "https://www.yelp.com/biz/doubletree-by-hilton-hotel-los-angeles-downtown-los-angeles?adjust_creative=pbWTcU6Cnh6ec5O1K-PUAQ&utm_campaign=yelp_api_v3&utm_medium=api_v3_business_search&utm_source=pbWTcU6Cnh6ec5O1K-PUAQ", "review_count": 588, "categories": [{"alias": "hotels", "title": "Hotels"}], "rating": 3.0, "coordinates": {"latitude": 34.0503518762409, "longitude": -118.24276796543}, "transactions": [], "price": "$$", "location": {"address1": "120 S Los Angeles St", "address2": "", "address3": "", "city": "Los Angeles", "zip_code": "90012", "country": "US", "state": "CA", "display_address": ["120 S Los Angeles St", "Los Angeles, CA 90012"]}, "phone": "+12136291200", "display_phone": "(213) 629-1200", "distance": 7349.113823583413}, {"id": "VJJ21FfUU4wkKBx56FUMHA", "alias": "the-garland-north-hollywood-2", "name": "The Garland", "image_url": "https://s3-media3.fl.yelpcdn.com/bphoto/PU0o9y1ePWMwV1Pi0cmXaw/o.jpg", "is_closed": false, "url": "https://www.yelp.com/biz/the-garland-north-hollywood-2?adjust_creative=pbWTcU6Cnh6ec5O1K-PUAQ&utm_campaign=yelp_api_v3&utm_medium=api_v3_business_search&utm_source=pbWTcU6Cnh6ec5O1K-PUAQ", "review_count": 599, "categories": [{"alias": "hotels", "title": "Hotels"}, {"alias": "venues", "title": "Venues & Event Spaces"}], "rating": 3.5, "coordinates": {"latitude": 34.1449494, "longitude": -118.3696557}, "transactions": [], "price": "$$", "location": {"address1": "4222 Vineland Ave", "address2": "", "address3": "", "city": "North Hollywood", "zip_code": "91602", "country": "US", "state": "CA", "display_address": ["4222 Vineland Ave", "North Hollywood, CA 91602"]}, "phone": "+18189808000", "display_phone": "(818) 980-8000", "distance": 10279.787669578172}, {"id": "86el4jOfhZOhCEO_CRZ-QA", "alias": "andaz-west-hollywood-west-hollywood-3", "name": "Andaz West Hollywood", "image_url": "https://s3-media3.fl.yelpcdn.com/bphoto/HBjcc24XkPch3vzkxJacAA/o.jpg", "is_closed": false, "url": "https://www.yelp.com/biz/andaz-west-hollywood-west-hollywood-3?adjust_creative=pbWTcU6Cnh6ec5O1K-PUAQ&utm_campaign=yelp_api_v3&utm_medium=api_v3_business_search&utm_source=pbWTcU6Cnh6ec5O1K-PUAQ", "review_count": 548, "categories": [{"alias": "hotels", "title": "Hotels"}, {"alias": "venues", "title": "Venues & Event Spaces"}], "rating": 4.0, "coordinates": {"latitude": 34.0953731461763, "longitude": -118.373194728836}, "transactions": [], "price": "$$$", "location": {"address1": "8401 Sunset Blvd", "address2": "", "address3": "", "city": "West Hollywood", "zip_code": "90069", "country": "US", "state": "CA", "display_address": ["8401 Sunset Blvd", "West Hollywood, CA 90069"]}, "phone": "+13236561234", "display_phone": "(323) 656-1234", "distance": 6073.236713597733}, {"id": "6qLp5ZDaVm9L1UDjULVAKA", "alias": "the-hollywood-roosevelt-los-angeles-2", "name": "The Hollywood Roosevelt", "image_url": "https://s3-media1.fl.yelpcdn.com/bphoto/tkNEOeWbZ6c9DOY3yjIPow/o.jpg", "is_closed": false, "url": "https://www.yelp.com/biz/the-hollywood-roosevelt-los-angeles-2?adjust_creative=pbWTcU6Cnh6ec5O1K-PUAQ&utm_campaign=yelp_api_v3&utm_medium=api_v3_business_search&utm_source=pbWTcU6Cnh6ec5O1K-PUAQ", "review_count": 1246, "categories": [{"alias": "hotels", "title": "Hotels"}], "rating": 3.5, "coordinates": {"latitude": 34.1012699, "longitude": -118.3417471}, "transactions": [], "price": "$$$", "location": {"address1": "7000 Hollywood Blvd", "address2": "", "address3": "", "city": "Los Angeles", "zip_code": "90028", "country": "US", "state": "CA", "display_address": ["7000 Hollywood Blvd", "Los Angeles, CA 90028"]}, "phone": "+13238561970", "display_phone": "(323) 856-1970", "distance": 4794.382601825274}, {"id": "afsvfJXuTtz8iA79tWlNog", "alias": "holiday-inn-express-and-suites-hollywood-walk-of-fame-los-angeles", "name": "Holiday Inn Express & Suites Hollywood Walk Of Fame", "image_url": "https://s3-media2.fl.yelpcdn.com/bphoto/0VXCEl2Tay9EGXyd5wJeSg/o.jpg", "is_closed": false, "url": "https://www.yelp.com/biz/holiday-inn-express-and-suites-hollywood-walk-of-fame-los-angeles?adjust_creative=pbWTcU6Cnh6ec5O1K-PUAQ&utm_campaign=yelp_api_v3&utm_medium=api_v3_business_search&utm_source=pbWTcU6Cnh6ec5O1K-PUAQ", "review_count": 173, "categories": [{"alias": "hotels", "title": "Hotels"}], "rating": 3.5, "coordinates": {"latitude": 34.10581, "longitude": -118.33806}, "transactions": [], "price": "$$", "location": {"address1": "1921 N Highland Ave", "address2": "", "address3": "", "city": "Los Angeles", "zip_code": "90068", "country": "US", "state": "CA", "display_address": ["1921 N Highland Ave", "Los Angeles, CA 90068"]}, "phone": "+13238508151", "display_phone": "(323) 850-8151", "distance": 5172.713386599296}, {"id": "5OwDyM6_YYcbG_31e_iZAA", "alias": "kimpton-everly-hotel-los-angeles", "name": "Kimpton Everly Hotel", "image_url": "https://s3-media2.fl.yelpcdn.com/bphoto/-9jIcQQ8DA9ioRNa9teeWQ/o.jpg", "is_closed": false, "url": "https://www.yelp.com/biz/kimpton-everly-hotel-los-angeles?adjust_creative=pbWTcU6Cnh6ec5O1K-PUAQ&utm_campaign=yelp_api_v3&utm_medium=api_v3_business_search&utm_source=pbWTcU6Cnh6ec5O1K-PUAQ", "review_count": 214, "categories": [{"alias": "venues", "title": "Venues & Event Spaces"}, {"alias": "hotels", "title": "Hotels"}], "rating": 3.5, "coordinates": {"latitude": 34.10394, "longitude": -118.3248}, "transactions": [], "price": "$$$", "location": {"address1": "1800 Argyle Ave", "address2": null, "address3": null, "city": "Los Angeles", "zip_code": "90028", "country": "US", "state": "CA", "display_address": ["1800 Argyle Ave", "Los Angeles, CA 90028"]}, "phone": "+12132793532", "display_phone": "(213) 279-3532", "distance": 4726.676662463893}, {"id": "Wh5ix84uh6MO5Rs1kI02gw", "alias": "the-line-la-los-angeles", "name": "The LINE LA", "image_url": "https://s3-media1.fl.yelpcdn.com/bphoto/g8e-yHS2naN-eFRqp-xYhw/o.jpg", "is_closed": false, "url": "https://www.yelp.com/biz/the-line-la-los-angeles?adjust_creative=pbWTcU6Cnh6ec5O1K-PUAQ&utm_campaign=yelp_api_v3&utm_medium=api_v3_business_search&utm_source=pbWTcU6Cnh6ec5O1K-PUAQ", "review_count": 1068, "categories": [{"alias": "hotels", "title": "Hotels"}, {"alias": "venues", "title": "Venues & Event Spaces"}, {"alias": "cocktailbars", "title": "Cocktail Bars"}], "rating": 3.0, "coordinates": {"latitude": 34.06213, "longitude": -118.300995}, "transactions": [], "price": "$$", "location": {"address1": "3515 Wilshire Blvd", "address2": "", "address3": "", "city": "Los Angeles", "zip_code": "90010", "country": "US", "state": "CA", "display_address": ["3515 Wilshire Blvd", "Los Angeles, CA 90010"]}, "phone": "+12133817411", "display_phone": "(213) 381-7411", "distance": 1878.8329292071526}, {"id": "h6MWtlBGODH-iYNEvPmVmA", "alias": "w-hollywood-hollywood", "name": "W Hollywood", "image_url": "https://s3-media1.fl.yelpcdn.com/bphoto/xVU7Ee3cteNtz4Z12Fn4ZA/o.jpg", "is_closed": false, "url": "https://www.yelp.com/biz/w-hollywood-hollywood?adjust_creative=pbWTcU6Cnh6ec5O1K-PUAQ&utm_campaign=yelp_api_v3&utm_medium=api_v3_business_search&utm_source=pbWTcU6Cnh6ec5O1K-PUAQ", "review_count": 1032, "categories": [{"alias": "hotels", "title": "Hotels"}], "rating": 3.0, "coordinates": {"latitude": 34.100971, "longitude": -118.325872}, "transactions": [], "price": "$$$", "location": {"address1": "6250 Hollywood Blvd", "address2": "", "address3": "", "city": "Hollywood", "zip_code": "90028", "country": "US", "state": "CA", "display_address": ["6250 Hollywood Blvd", "Hollywood, CA 90028"]}, "phone": "+13237981300", "display_phone": "(323) 798-1300", "distance": 4398.506016977917}, {"id": "68svOGhi_ouGk3Wpq6Pong", "alias": "the-adler-a-hollywood-hotel-los-angeles", "name": "The Adler A Hollywood Hotel", "image_url": "https://s3-media3.fl.yelpcdn.com/bphoto/lR77xSl4L42eapl-6EXs9A/o.jpg", "is_closed": false, "url": "https://www.yelp.com/biz/the-adler-a-hollywood-hotel-los-angeles?adjust_creative=pbWTcU6Cnh6ec5O1K-PUAQ&utm_campaign=yelp_api_v3&utm_medium=api_v3_business_search&utm_source=pbWTcU6Cnh6ec5O1K-PUAQ", "review_count": 10, "categories": [{"alias": "hotels", "title": "Hotels"}], "rating": 4.0, "coordinates": {"latitude": 34.10536, "longitude": -118.32376}, "transactions": [], "price": "$$", "location": {"address1": "6141 Franklin Ave", "address2": "", "address3": null, "city": "Los Angeles", "zip_code": "90028", "country": "US", "state": "CA", "display_address": ["6141 Franklin Ave", "Los Angeles, CA 90028"]}, "phone": "", "display_phone": "", "distance": 4879.83733323449}, {"id": "z9d2ok3SrLvoLC5R0yZyVA", "alias": "pendry-west-hollywood-west-hollywood", "name": "Pendry West Hollywood", "image_url": "https://s3-media1.fl.yelpcdn.com/bphoto/caArDergQWXUy81W4YDNoQ/o.jpg", "is_closed": false, "url": "https://www.yelp.com/biz/pendry-west-hollywood-west-hollywood?adjust_creative=pbWTcU6Cnh6ec5O1K-PUAQ&utm_campaign=yelp_api_v3&utm_medium=api_v3_business_search&utm_source=pbWTcU6Cnh6ec5O1K-PUAQ", "review_count": 53, "categories": [{"alias": "hotels", "title": "Hotels"}], "rating": 4.0, "coordinates": {"latitude": 34.094546682791176, "longitude": -118.37366726249458}, "transactions": [], "price": "$$$$", "location": {"address1": "8430 Sunset Blvd", "address2": "", "address3": null, "city": "West Hollywood", "zip_code": "90069", "country": "US", "state": "CA", "display_address": ["8430 Sunset Blvd", "West Hollywood, CA 90069"]}, "phone": "+13109289000", "display_phone": "(310) 928-9000", "distance": 6051.420126898705}, {"id": "gtZ-qGne-upyaRL7hbKdqg", "alias": "1-hotel-west-hollywood-west-hollywood-2", "name": "1 Hotel West Hollywood", "image_url": "https://s3-media4.fl.yelpcdn.com/bphoto/Cye27yQcElY8qxesgwGNsQ/o.jpg", "is_closed": false, "url": "https://www.yelp.com/biz/1-hotel-west-hollywood-west-hollywood-2?adjust_creative=pbWTcU6Cnh6ec5O1K-PUAQ&utm_campaign=yelp_api_v3&utm_medium=api_v3_business_search&utm_source=pbWTcU6Cnh6ec5O1K-PUAQ", "review_count": 126, "categories": [{"alias": "venues", "title": "Venues & Event Spaces"}, {"alias": "hotels", "title": "Hotels"}], "rating": 3.5, "coordinates": {"latitude": 34.0941324, "longitude": -118.3760522}, "transactions": [], "price": "$$$", "location": {"address1": "8490 Sunset Blvd", "address2": null, "address3": null, "city": "West Hollywood", "zip_code": "90069", "country": "US", "state": "CA", "display_address": ["8490 Sunset Blvd", "West Hollywood, CA 90069"]}, "phone": "+13104241600", "display_phone": "(310) 424-1600", "distance": 6200.649847451931}, {"id": "Saq4vhRQyrnVrXadG038ew", "alias": "silver-lake-pool-and-inn-silver-lake", "name": "Silver Lake Pool & Inn", "image_url": "https://s3-media1.fl.yelpcdn.com/bphoto/yBxr-3GiyxR8ZUGosJ3CuA/o.jpg", "is_closed": false, "url": "https://www.yelp.com/biz/silver-lake-pool-and-inn-silver-lake?adjust_creative=pbWTcU6Cnh6ec5O1K-PUAQ&utm_campaign=yelp_api_v3&utm_medium=api_v3_business_search&utm_source=pbWTcU6Cnh6ec5O1K-PUAQ", "review_count": 31, "categories": [{"alias": "hotels", "title": "Hotels"}], "rating": 3.5, "coordinates": {"latitude": 34.09206, "longitude": -118.282661}, "transactions": [], "location": {"address1": "4141 Santa Monica Blvd", "address2": "", "address3": null, "city": "Silver Lake", "zip_code": "90029", "country": "US", "state": "CA", "display_address": ["4141 Santa Monica Blvd", "Silver Lake, CA 90029"]}, "phone": "+13234867225", "display_phone": "(323) 486-7225", "distance": 4919.028350265176}, {"id": "9CEqt0vodjkbTns84G6yTQ", "alias": "best-western-plus-sunset-plaza-hotel-los-angeles-2", "name": "Best Western Plus Sunset Plaza Hotel", "image_url": "https://s3-media1.fl.yelpcdn.com/bphoto/wna1Ra-e46fpT2TTP89iIQ/o.jpg", "is_closed": false, "url": "https://www.yelp.com/biz/best-western-plus-sunset-plaza-hotel-los-angeles-2?adjust_creative=pbWTcU6Cnh6ec5O1K-PUAQ&utm_campaign=yelp_api_v3&utm_medium=api_v3_business_search&utm_source=pbWTcU6Cnh6ec5O1K-PUAQ", "review_count": 182, "categories": [{"alias": "hotels", "title": "Hotels"}], "rating": 4.0, "coordinates": {"latitude": 34.095065, "longitude": -118.372671923607}, "transactions": [], "price": "$$", "location": {"address1": "8400 Sunset Blvd", "address2": "", "address3": "", "city": "Los Angeles", "zip_code": "90069", "country": "US", "state": "CA", "display_address": ["8400 Sunset Blvd", "Los Angeles, CA 90069"]}, "phone": "+13236540750", "display_phone": "(323) 654-0750", "distance": 6014.216284656613}, {"id": "u6wFTRE9RUY_LGNnIDbrzQ", "alias": "omni-los-angeles-hotel-at-california-plaza-los-angeles-2", "name": "Omni Los Angeles Hotel at California Plaza", "image_url": "https://s3-media1.fl.yelpcdn.com/bphoto/IWTBXO_pQjSPpvqMbiL66w/o.jpg", "is_closed": false, "url": "https://www.yelp.com/biz/omni-los-angeles-hotel-at-california-plaza-los-angeles-2?adjust_creative=pbWTcU6Cnh6ec5O1K-PUAQ&utm_campaign=yelp_api_v3&utm_medium=api_v3_business_search&utm_source=pbWTcU6Cnh6ec5O1K-PUAQ", "review_count": 781, "categories": [{"alias": "hotels", "title": "Hotels"}, {"alias": "venues", "title": "Venues & Event Spaces"}], "rating": 4.0, "coordinates": {"latitude": 34.052599008884606, "longitude": -118.25050399999998}, "transactions": [], "price": "$$$", "location": {"address1": "251 S Olive St", "address2": "", "address3": "", "city": "Los Angeles", "zip_code": "90012", "country": "US", "state": "CA", "display_address": ["251 S Olive St", "Los Angeles, CA 90012"]}, "phone": "+12136173300", "display_phone": "(213) 617-3300", "distance": 6605.430655439244}, {"id": "Z5zIvT1uYC5PpA5d3q1ZSg", "alias": "chateau-marmont-west-hollywood-2", "name": "Chateau Marmont", "image_url": "https://s3-media4.fl.yelpcdn.com/bphoto/YPHXxYmP1AiDzfR6RH_Utg/o.jpg", "is_closed": false, "url": "https://www.yelp.com/biz/chateau-marmont-west-hollywood-2?adjust_creative=pbWTcU6Cnh6ec5O1K-PUAQ&utm_campaign=yelp_api_v3&utm_medium=api_v3_business_search&utm_source=pbWTcU6Cnh6ec5O1K-PUAQ", "review_count": 800, "categories": [{"alias": "hotels", "title": "Hotels"}], "rating": 3.5, "coordinates": {"latitude": 34.098265, "longitude": -118.368493}, "transactions": [], "price": "$$$", "location": {"address1": "8221 W Sunset Blvd", "address2": "", "address3": "", "city": "West Hollywood", "zip_code": "90046", "country": "US", "state": "CA", "display_address": ["8221 W Sunset Blvd", "West Hollywood, CA 90046"]}, "phone": "+13236561010", "display_phone": "(323) 656-1010", "distance": 5954.623345204541}, {"id": "PEDf8tVFfzu5o5q5-iCc9w", "alias": "vibe-hotel-hollywood-los-angeles-2", "name": "Vibe Hotel Hollywood", "image_url": "https://s3-media3.fl.yelpcdn.com/bphoto/C6nknAIY-yQ_LCGnPwOIBA/o.jpg", "is_closed": false, "url": "https://www.yelp.com/biz/vibe-hotel-hollywood-los-angeles-2?adjust_creative=pbWTcU6Cnh6ec5O1K-PUAQ&utm_campaign=yelp_api_v3&utm_medium=api_v3_business_search&utm_source=pbWTcU6Cnh6ec5O1K-PUAQ", "review_count": 54, "categories": [{"alias": "hotels", "title": "Hotels"}], "rating": 3.5, "coordinates": {"latitude": 34.101392574061165, "longitude": -118.31886282029596}, "transactions": [], "price": "$", "location": {"address1": "5922 Hollywood Blvd", "address2": "", "address3": "", "city": "Los Angeles", "zip_code": "90028", "country": "US", "state": "CA", "display_address": ["5922 Hollywood Blvd", "Los Angeles, CA 90028"]}, "phone": "+13234698600", "display_phone": "(323) 469-8600", "distance": 4431.960175954585}, {"id": "0Jea8VxLRz6-CBrs2FU0tg", "alias": "courtyard-by-marriott-anaheim-theme-park-entrance-anaheim-2", "name": "Courtyard by Marriott Anaheim Theme Park Entrance", "image_url": "https://s3-media2.fl.yelpcdn.com/bphoto/IrmteImV7_h9XvPnUm4Stg/o.jpg", "is_closed": false, "url": "https://www.yelp.com/biz/courtyard-by-marriott-anaheim-theme-park-entrance-anaheim-2?adjust_creative=pbWTcU6Cnh6ec5O1K-PUAQ&utm_campaign=yelp_api_v3&utm_medium=api_v3_business_search&utm_source=pbWTcU6Cnh6ec5O1K-PUAQ", "review_count": 287, "categories": [{"alias": "hotels", "title": "Hotels"}], "rating": 4.5, "coordinates": {"latitude": 33.812348, "longitude": -117.9143765}, "transactions": [], "price": "$$$", "location": {"address1": "1420 South Harbor Blvd", "address2": "", "address3": "", "city": "Anaheim", "zip_code": "92802", "country": "US", "state": "CA", "display_address": ["1420 South Harbor Blvd", "Anaheim, CA 92802"]}, "phone": "+17142541442", "display_phone": "(714) 254-1442", "distance": 46725.048823642384}, {"id": "hYjNX12mHeERvrLvedAUjA", "alias": "sheraton-universal-hotel-universal-city", "name": "Sheraton Universal Hotel", "image_url": "https://s3-media3.fl.yelpcdn.com/bphoto/mt5e4h3qmr4ofE37bMH5SQ/o.jpg", "is_closed": false, "url": "https://www.yelp.com/biz/sheraton-universal-hotel-universal-city?adjust_creative=pbWTcU6Cnh6ec5O1K-PUAQ&utm_campaign=yelp_api_v3&utm_medium=api_v3_business_search&utm_source=pbWTcU6Cnh6ec5O1K-PUAQ", "review_count": 886, "categories": [{"alias": "hotels", "title": "Hotels"}, {"alias": "venues", "title": "Venues & Event Spaces"}], "rating": 2.5, "coordinates": {"latitude": 34.137508, "longitude": -118.35977}, "transactions": [], "price": "$$$", "location": {"address1": "333 Universal Hollywood Dr", "address2": "", "address3": "", "city": "Universal City", "zip_code": "91608", "country": "US", "state": "CA", "display_address": ["333 Universal Hollywood Dr", "Universal City, CA 91608"]}, "phone": "+18189801212", "display_phone": "(818) 980-1212", "distance": 9151.910228685842}, {"id": "xJToH_Gy8RSKWqUPVUjwLw", "alias": "the-hoxton-los-angeles-5", "name": "The Hoxton", "image_url": "https://s3-media1.fl.yelpcdn.com/bphoto/G9QprxDFATluEZ5pRoDtqg/o.jpg", "is_closed": false, "url": "https://www.yelp.com/biz/the-hoxton-los-angeles-5?adjust_creative=pbWTcU6Cnh6ec5O1K-PUAQ&utm_campaign=yelp_api_v3&utm_medium=api_v3_business_search&utm_source=pbWTcU6Cnh6ec5O1K-PUAQ", "review_count": 156, "categories": [{"alias": "hotels", "title": "Hotels"}, {"alias": "venues", "title": "Venues & Event Spaces"}], "rating": 4.5, "coordinates": {"latitude": 34.03985185842432, "longitude": -118.25856086441767}, "transactions": [], "price": "$$", "location": {"address1": "1060 S Broadway", "address2": "", "address3": null, "city": "Los Angeles", "zip_code": "90015", "country": "US", "state": "CA", "display_address": ["1060 S Broadway", "Los Angeles, CA 90015"]}, "phone": "+12137255900", "display_phone": "(213) 725-5900", "distance": 6272.023764164658}, {"id": "r4Cz6a1QjTj4_3gPSYZn-w", "alias": "hilton-garden-inn-los-angeles-hollywood-los-angeles-2", "name": "Hilton Garden Inn Los Angeles/Hollywood", "image_url": "https://s3-media1.fl.yelpcdn.com/bphoto/jsD48mV2PR9poRULuH2zsg/o.jpg", "is_closed": false, "url": "https://www.yelp.com/biz/hilton-garden-inn-los-angeles-hollywood-los-angeles-2?adjust_creative=pbWTcU6Cnh6ec5O1K-PUAQ&utm_campaign=yelp_api_v3&utm_medium=api_v3_business_search&utm_source=pbWTcU6Cnh6ec5O1K-PUAQ", "review_count": 229, "categories": [{"alias": "hotels", "title": "Hotels"}], "rating": 2.5, "coordinates": {"latitude": 34.1066235070457, "longitude": -118.337791718704}, "transactions": [], "price": "$$", "location": {"address1": "2005 N Highland Ave", "address2": "", "address3": "", "city": "Los Angeles", "zip_code": "90068", "country": "US", "state": "CA", "display_address": ["2005 N Highland Ave", "Los Angeles, CA 90068"]}, "phone": "+13238768600", "display_phone": "(323) 876-8600", "distance": 5230.647166043927}, {"id": "Nh3L9PtJZTSGhfeAxKO3Gg", "alias": "jw-marriott-los-angeles-l-a-live-los-angeles", "name": "JW Marriott Los Angeles L.A. LIVE", "image_url": "https://s3-media1.fl.yelpcdn.com/bphoto/Nw2nmHai9KG3lGd9S1COjw/o.jpg", "is_closed": false, "url": "https://www.yelp.com/biz/jw-marriott-los-angeles-l-a-live-los-angeles?adjust_creative=pbWTcU6Cnh6ec5O1K-PUAQ&utm_campaign=yelp_api_v3&utm_medium=api_v3_business_search&utm_source=pbWTcU6Cnh6ec5O1K-PUAQ", "review_count": 943, "categories": [{"alias": "hotels", "title": "Hotels"}, {"alias": "venues", "title": "Venues & Event Spaces"}], "rating": 4.0, "coordinates": {"latitude": 34.045237613517564, "longitude": -118.26647042631456}, "transactions": [], "price": "$$$", "location": {"address1": "900 West Olympic Blvd", "address2": "", "address3": "", "city": "Los Angeles", "zip_code": "90015", "country": "US", "state": "CA", "display_address": ["900 West Olympic Blvd", "Los Angeles, CA 90015"]}, "phone": "+12137658600", "display_phone": "(213) 765-8600", "distance": 5375.537254240456}, {"id": "MUgU4NH9miqByhfPA_G5nw", "alias": "waldorf-astoria-beverly-hills-beverly-hills", "name": "Waldorf Astoria Beverly Hills", "image_url": "https://s3-media2.fl.yelpcdn.com/bphoto/W8NzCkyDgMGey3xoWq7ETA/o.jpg", "is_closed": false, "url": "https://www.yelp.com/biz/waldorf-astoria-beverly-hills-beverly-hills?adjust_creative=pbWTcU6Cnh6ec5O1K-PUAQ&utm_campaign=yelp_api_v3&utm_medium=api_v3_business_search&utm_source=pbWTcU6Cnh6ec5O1K-PUAQ", "review_count": 384, "categories": [{"alias": "hotels", "title": "Hotels"}], "rating": 4.0, "coordinates": {"latitude": 34.066668581274584, "longitude": -118.41143444180489}, "transactions": [], "price": "$$$$", "location": {"address1": "9850 Wilshire Blvd", "address2": null, "address3": "", "city": "Beverly Hills", "zip_code": "90210", "country": "US", "state": "CA", "display_address": ["9850 Wilshire Blvd", "Beverly Hills, CA 90210"]}, "phone": "+13108606666", "display_phone": "(310) 860-6666", "distance": 8314.512392991735}, {"id": "9Rn2q77hnhz4bee7MT7ndg", "alias": "springhill-suites-by-marriott-los-angeles-burbank-downtown-burbank-2", "name": "Springhill Suites by Marriott Los Angeles Burbank/Downtown", "image_url": "https://s3-media1.fl.yelpcdn.com/bphoto/N44fjgdje7ONyAU6sXI1RQ/o.jpg", "is_closed": false, "url": "https://www.yelp.com/biz/springhill-suites-by-marriott-los-angeles-burbank-downtown-burbank-2?adjust_creative=pbWTcU6Cnh6ec5O1K-PUAQ&utm_campaign=yelp_api_v3&utm_medium=api_v3_business_search&utm_source=pbWTcU6Cnh6ec5O1K-PUAQ", "review_count": 203, "categories": [{"alias": "hotels", "title": "Hotels"}, {"alias": "venues", "title": "Venues & Event Spaces"}], "rating": 3.5, "coordinates": {"latitude": 34.1774374, "longitude": -118.3043975}, "transactions": [], "price": "$$", "location": {"address1": "549 S San Fernando Blvd", "address2": null, "address3": null, "city": "Burbank", "zip_code": "91502", "country": "US", "state": "CA", "display_address": ["549 S San Fernando Blvd", "Burbank, CA 91502"]}, "phone": "+18185242730", "display_phone": "(818) 524-2730", "distance": 12976.201789699153}, {"id": "Ft8ussF3uVAiEb8E8SW-VA", "alias": "residence-inn-by-marriott-los-angeles-l-a-live-los-angeles-2", "name": "Residence Inn by Marriott Los Angeles L.A. LIVE", "image_url": "https://s3-media3.fl.yelpcdn.com/bphoto/Ttl-JxRghaFS7vCeoPT2kg/o.jpg", "is_closed": false, "url": "https://www.yelp.com/biz/residence-inn-by-marriott-los-angeles-l-a-live-los-angeles-2?adjust_creative=pbWTcU6Cnh6ec5O1K-PUAQ&utm_campaign=yelp_api_v3&utm_medium=api_v3_business_search&utm_source=pbWTcU6Cnh6ec5O1K-PUAQ", "review_count": 179, "categories": [{"alias": "hotels", "title": "Hotels"}], "rating": 3.5, "coordinates": {"latitude": 34.0459567822529, "longitude": -118.265858888626}, "transactions": [], "price": "$$", "location": {"address1": "901 W Olympic Blvd", "address2": null, "address3": null, "city": "Los Angeles", "zip_code": "90015", "country": "US", "state": "CA", "display_address": ["901 W Olympic Blvd", "Los Angeles, CA 90015"]}, "phone": "+12134439200", "display_phone": "(213) 443-9200", "distance": 5402.309450942406}, {"id": "HLSSW8FZXWd3X50bh6dJww", "alias": "aventura-hotel-los-angeles-2", "name": "Aventura Hotel", "image_url": "https://s3-media3.fl.yelpcdn.com/bphoto/5KWuCZEsApcx0Vo-ADvbiQ/o.jpg", "is_closed": false, "url": "https://www.yelp.com/biz/aventura-hotel-los-angeles-2?adjust_creative=pbWTcU6Cnh6ec5O1K-PUAQ&utm_campaign=yelp_api_v3&utm_medium=api_v3_business_search&utm_source=pbWTcU6Cnh6ec5O1K-PUAQ", "review_count": 229, "categories": [{"alias": "hotels", "title": "Hotels"}], "rating": 3.5, "coordinates": {"latitude": 34.05216, "longitude": -118.29757}, "transactions": [], "price": "$$", "location": {"address1": "1020 Fedora St", "address2": "", "address3": "", "city": "Los Angeles", "zip_code": "90006", "country": "US", "state": "CA", "display_address": ["1020 Fedora St", "Los Angeles, CA 90006"]}, "phone": "+12133861020", "display_phone": "(213) 386-1020", "distance": 2442.3554279669656}, {"id": "CfwSkrc_BeL0vbeooL7GNw", "alias": "the-moment-hotel-los-angeles", "name": "The Moment Hotel", "image_url": "https://s3-media4.fl.yelpcdn.com/bphoto/C0Ta6dQNHt72LpYUQFFmpg/o.jpg", "is_closed": false, "url": "https://www.yelp.com/biz/the-moment-hotel-los-angeles?adjust_creative=pbWTcU6Cnh6ec5O1K-PUAQ&utm_campaign=yelp_api_v3&utm_medium=api_v3_business_search&utm_source=pbWTcU6Cnh6ec5O1K-PUAQ", "review_count": 158, "categories": [{"alias": "hotels", "title": "Hotels"}, {"alias": "bars", "title": "Bars"}], "rating": 3.5, "coordinates": {"latitude": 34.0977950874632, "longitude": -118.351559154529}, "transactions": [], "price": "$", "location": {"address1": "7370 Sunset Blvd", "address2": "", "address3": "", "city": "Los Angeles", "zip_code": "90046", "country": "US", "state": "CA", "display_address": ["7370 Sunset Blvd", "Los Angeles, CA 90046"]}, "phone": "+13238225030", "display_phone": "(323) 822-5030", "distance": 4892.095790838062}, {"id": "NVQxyxYMZOHzNj8dmBuHEg", "alias": "motel-sakura-glendale", "name": "Motel Sakura", "image_url": "https://s3-media4.fl.yelpcdn.com/bphoto/96m2VaQGFHmP0RxFwGTSFA/o.jpg", "is_closed": false, "url": "https://www.yelp.com/biz/motel-sakura-glendale?adjust_creative=pbWTcU6Cnh6ec5O1K-PUAQ&utm_campaign=yelp_api_v3&utm_medium=api_v3_business_search&utm_source=pbWTcU6Cnh6ec5O1K-PUAQ", "review_count": 90, "categories": [{"alias": "hotels", "title": "Hotels"}], "rating": 4.5, "coordinates": {"latitude": 34.14246, "longitude": -118.23145}, "transactions": [], "price": "$", "location": {"address1": "1500 E Colorado St", "address2": "", "address3": "", "city": "Glendale", "zip_code": "91205", "country": "US", "state": "CA", "display_address": ["1500 E Colorado St", "Glendale, CA 91205"]}, "phone": "+18182438999", "display_phone": "(818) 243-8999", "distance": 12217.828792193712}], "total": 1800, "region": {"center": {"longitude": -118.32138061523438, "latitude": 34.0615895441259}}}