{"businesses": [{"id": "2oav5QoWgnvTI2gO5xFMjw", "alias": "kimpton-hotel-monaco-philadelphia-philadelphia", "name": "Kimpton Hotel Monaco Philadelphia", "image_url": "https://s3-media1.fl.yelpcdn.com/bphoto/D_jciqK6-4VBlCoNXFbsWg/o.jpg", "is_closed": false, "url": "https://www.yelp.com/biz/kimpton-hotel-monaco-philadelphia-philadelphia?adjust_creative=XXt1Nge7yivmjq1WyN0Lzw&utm_campaign=yelp_api_v3&utm_medium=api_v3_business_search&utm_source=XXt1Nge7yivmjq1WyN0Lzw", "review_count": 556, "categories": [{"alias": "hotels", "title": "Hotels"}, {"alias": "venues", "title": "Venues & Event Spaces"}, {"alias": "wedding_planning", "title": "Wedding Planning"}], "rating": 4.0, "coordinates": {"latitude": 39.9491236493681, "longitude": -75.1488953439232}, "transactions": [], "price": "$$$", "location": {"address1": "433 Chestnut St", "address2": "", "address3": "", "city": "Philadelphia", "zip_code": "19106", "country": "US", "state": "PA", "display_address": ["433 Chestnut St", "Philadelphia, PA 19106"]}, "phone": "+12159252111", "display_phone": "(215) 925-2111", "distance": 6473.673671824467}, {"id": "ZLjUCF2UaML7S5pSmn5BKg", "alias": "canopy-by-hilton-philadelphia-center-city-philadelphia", "name": "Canopy by Hilton Philadelphia Center City", "image_url": "https://s3-media4.fl.yelpcdn.com/bphoto/meCWyB8f07SJh-I_b_V2qw/o.jpg", "is_closed": false, "url": "https://www.yelp.com/biz/canopy-by-hilton-philadelphia-center-city-philadelphia?adjust_creative=XXt1Nge7yivmjq1WyN0Lzw&utm_campaign=yelp_api_v3&utm_medium=api_v3_business_search&utm_source=XXt1Nge7yivmjq1WyN0Lzw", "review_count": 70, "categories": [{"alias": "hotels", "title": "Hotels"}, {"alias": "venues", "title": "Venues & Event Spaces"}], "rating": 4.0, "coordinates": {"latitude": 39.95093856442642, "longitude": -75.15995743009414}, "transactions": [], "location": {"address1": "1180 Ludlow St", "address2": null, "address3": null, "city": "Philadelphia", "zip_code": "19107", "country": "US", "state": "PA", "display_address": ["1180 Ludlow St", "Philadelphia, PA 19107"]}, "phone": "+12152589400", "display_phone": "(215) 258-9400", "distance": 6743.5698892129385}, {"id": "3QPAh9VvYNTnqAFgBeBcng", "alias": "alexander-inn-philadelphia", "name": "Alexander Inn", "image_url": "https://s3-media1.fl.yelpcdn.com/bphoto/NgbRiQiyxXDSCEmm8h5GsQ/o.jpg", "is_closed": false, "url": "https://www.yelp.com/biz/alexander-inn-philadelphia?adjust_creative=XXt1Nge7yivmjq1WyN0Lzw&utm_campaign=yelp_api_v3&utm_medium=api_v3_business_search&utm_source=XXt1Nge7yivmjq1WyN0Lzw", "review_count": 190, "categories": [{"alias": "hotels", "title": "Hotels"}], "rating": 4.0, "coordinates": {"latitude": 39.946396817965, "longitude": -75.1609669487829}, "transactions": [], "price": "$$", "location": {"address1": "301 S 12th St", "address2": "", "address3": "", "city": "Philadelphia", "zip_code": "19107", "country": "US", "state": "PA", "display_address": ["301 S 12th St", "Philadelphia, PA 19107"]}, "phone": "+12159233535", "display_phone": "(215) 923-3535", "distance": 7219.100176056096}, {"id": "KDrvibHl2PVee08Ytj6KHg", "alias": "feather-nest-inn-cherry-hill", "name": "Feather Nest Inn", "image_url": "https://s3-media1.fl.yelpcdn.com/bphoto/9mshDQ6-YzSr2h7WNJYhBQ/o.jpg", "is_closed": false, "url": "https://www.yelp.com/biz/feather-nest-inn-cherry-hill?adjust_creative=XXt1Nge7yivmjq1WyN0Lzw&utm_campaign=yelp_api_v3&utm_medium=api_v3_business_search&utm_source=XXt1Nge7yivmjq1WyN0Lzw", "review_count": 56, "categories": [{"alias": "hotels", "title": "Hotels"}], "rating": 3.0, "coordinates": {"latitude": 39.934355, "longitude": -75.052146}, "transactions": [], "price": "$$$", "location": {"address1": "703 Hampton Rd", "address2": "", "address3": "", "city": "Cherry Hill", "zip_code": "08002", "country": "US", "state": "NJ", "display_address": ["703 Hampton Rd", "Cherry Hill, NJ 08002"]}, "phone": "+18566630411", "display_phone": "(856) 663-0411", "distance": 9329.383967721407}, {"id": "EaBgGhjd8rB9KVvCXKaiAw", "alias": "aloft-philadelphia-downtown-philadelphia", "name": "Aloft Philadelphia Downtown", "image_url": "https://s3-media4.fl.yelpcdn.com/bphoto/5lTIxcRzKSv2TUIqpWICaQ/o.jpg", "is_closed": false, "url": "https://www.yelp.com/biz/aloft-philadelphia-downtown-philadelphia?adjust_creative=XXt1Nge7yivmjq1WyN0Lzw&utm_campaign=yelp_api_v3&utm_medium=api_v3_business_search&utm_source=XXt1Nge7yivmjq1WyN0Lzw", "review_count": 126, "categories": [{"alias": "hotels", "title": "Hotels"}], "rating": 3.5, "coordinates": {"latitude": 39.954614, "longitude": -75.162815}, "transactions": [], "price": "$$", "location": {"address1": "101 North Broad St", "address2": null, "address3": null, "city": "Philadelphia", "zip_code": "19107", "country": "US", "state": "PA", "display_address": ["101 North Broad St", "Philadelphia, PA 19107"]}, "phone": "+12156072020", "display_phone": "(215) 607-2020", "distance": 6540.174829751835}, {"id": "X_AVbwQcF3dcSWP6TlErcw", "alias": "independence-park-hotel-philadelphia", "name": "Independence Park Hotel", "image_url": "https://s3-media4.fl.yelpcdn.com/bphoto/0wVvf7mO1rTLTGl6wEG6Zg/o.jpg", "is_closed": false, "url": "https://www.yelp.com/biz/independence-park-hotel-philadelphia?adjust_creative=XXt1Nge7yivmjq1WyN0Lzw&utm_campaign=yelp_api_v3&utm_medium=api_v3_business_search&utm_source=XXt1Nge7yivmjq1WyN0Lzw", "review_count": 47, "categories": [{"alias": "hotels", "title": "Hotels"}], "rating": 4.5, "coordinates": {"latitude": 39.94866940893205, "longitude": -75.14546813902386}, "transactions": [], "price": "$$", "location": {"address1": "235 Chestnut St", "address2": "", "address3": "", "city": "Philadelphia", "zip_code": "19106", "country": "US", "state": "PA", "display_address": ["235 Chestnut St", "Philadelphia, PA 19106"]}, "phone": "+12159224443", "display_phone": "(215) 922-4443", "distance": 6406.022288069254}, {"id": "jMqEQYBIztLtcvnTujfHUA", "alias": "hyatt-centric-center-city-philadelphia-philadelphia", "name": "Hyatt Centric Center City Philadelphia", "image_url": "https://s3-media2.fl.yelpcdn.com/bphoto/yS-sYq22scZ_tjLE3lqSjA/o.jpg", "is_closed": false, "url": "https://www.yelp.com/biz/hyatt-centric-center-city-philadelphia-philadelphia?adjust_creative=XXt1Nge7yivmjq1WyN0Lzw&utm_campaign=yelp_api_v3&utm_medium=api_v3_business_search&utm_source=XXt1Nge7yivmjq1WyN0Lzw", "review_count": 59, "categories": [{"alias": "hotels", "title": "Hotels"}, {"alias": "venues", "title": "Venues & Event Spaces"}], "rating": 4.0, "coordinates": {"latitude": 39.9492143616538, "longitude": -75.1680718053089}, "transactions": [], "location": {"address1": "1620 Chancellor St", "address2": null, "address3": "", "city": "Philadelphia", "zip_code": "19103", "country": "US", "state": "PA", "display_address": ["1620 Chancellor St", "Philadelphia, PA 19103"]}, "phone": "+12159851234", "display_phone": "(215) 985-1234", "distance": 7326.788438052474}, {"id": "egk4EEv8KcmI6ZFyUieVeQ", "alias": "four-seasons-hotel-philadelphia-at-comcast-center-philadelphia", "name": "Four Seasons Hotel Philadelphia at Comcast Center", "image_url": "https://s3-media4.fl.yelpcdn.com/bphoto/YoW0Jc36A4Opwp8iIUqcrw/o.jpg", "is_closed": false, "url": "https://www.yelp.com/biz/four-seasons-hotel-philadelphia-at-comcast-center-philadelphia?adjust_creative=XXt1Nge7yivmjq1WyN0Lzw&utm_campaign=yelp_api_v3&utm_medium=api_v3_business_search&utm_source=XXt1Nge7yivmjq1WyN0Lzw", "review_count": 49, "categories": [{"alias": "hotels", "title": "Hotels"}], "rating": 4.0, "coordinates": {"latitude": 39.9550013332216, "longitude": -75.170976}, "transactions": [], "location": {"address1": "1 N 19th St", "address2": "", "address3": "Comcast Center", "city": "Philadelphia", "zip_code": "19103", "country": "US", "state": "PA", "display_address": ["1 N 19th St", "Comcast Center", "Philadelphia, PA 19103"]}, "phone": "+12154195000", "display_phone": "(215) 419-5000", "distance": 6941.267421013405}, {"id": "A9El2DdT9Qx2tfFc_f279A", "alias": "kimpton-hotel-palomar-philadelphia-philadelphia", "name": "Kimpton Hotel Palomar Philadelphia", "image_url": "https://s3-media2.fl.yelpcdn.com/bphoto/wB3ouripzl6_vn413bUdUg/o.jpg", "is_closed": false, "url": "https://www.yelp.com/biz/kimpton-hotel-palomar-philadelphia-philadelphia?adjust_creative=XXt1Nge7yivmjq1WyN0Lzw&utm_campaign=yelp_api_v3&utm_medium=api_v3_business_search&utm_source=XXt1Nge7yivmjq1WyN0Lzw", "review_count": 469, "categories": [{"alias": "hotels", "title": "Hotels"}, {"alias": "venues", "title": "Venues & Event Spaces"}, {"alias": "wedding_planning", "title": "Wedding Planning"}], "rating": 4.0, "coordinates": {"latitude": 39.9508274, "longitude": -75.1687186}, "transactions": [], "price": "$$$", "location": {"address1": "117 S 17th St", "address2": "", "address3": "", "city": "Philadelphia", "zip_code": "19103", "country": "US", "state": "PA", "display_address": ["117 S 17th St", "Philadelphia, PA 19103"]}, "phone": "+12155635006", "display_phone": "(215) 563-5006", "distance": 7175.537060906628}, {"id": "s_OFqCbmDpRmg8zqrnCUqA", "alias": "lokal-hotel-fishtown-philadelphia", "name": "Lokal Hotel Fishtown", "image_url": "https://s3-media2.fl.yelpcdn.com/bphoto/veoNYVf0PAGU7C5chGg0mg/o.jpg", "is_closed": false, "url": "https://www.yelp.com/biz/lokal-hotel-fishtown-philadelphia?adjust_creative=XXt1Nge7yivmjq1WyN0Lzw&utm_campaign=yelp_api_v3&utm_medium=api_v3_business_search&utm_source=XXt1Nge7yivmjq1WyN0Lzw", "review_count": 4, "categories": [{"alias": "hotels", "title": "Hotels"}], "rating": 5.0, "coordinates": {"latitude": 39.97244, "longitude": -75.1349}, "transactions": [], "location": {"address1": "1421 N Front St", "address2": null, "address3": "", "city": "Philadelphia", "zip_code": "19125", "country": "US", "state": "PA", "display_address": ["1421 N Front St", "Philadelphia, PA 19125"]}, "phone": "+12677024345", "display_phone": "(267) 702-4345", "distance": 3623.5023084473883}, {"id": "zQtNKN93h_lheye3nocSrA", "alias": "residence-inn-by-marriott-philadelphia-bala-cynwyd-bala-cynwyd", "name": "Residence Inn By Marriott Philadelphia Bala Cynwyd", "image_url": "https://s3-media2.fl.yelpcdn.com/bphoto/Z5MpslGFLkIVYjXeJxfydw/o.jpg", "is_closed": false, "url": "https://www.yelp.com/biz/residence-inn-by-marriott-philadelphia-bala-cynwyd-bala-cynwyd?adjust_creative=XXt1Nge7yivmjq1WyN0Lzw&utm_campaign=yelp_api_v3&utm_medium=api_v3_business_search&utm_source=XXt1Nge7yivmjq1WyN0Lzw", "review_count": 14, "categories": [{"alias": "hotels", "title": "Hotels"}], "rating": 4.0, "coordinates": {"latitude": 40.015981, "longitude": -75.214226}, "transactions": [], "price": "$$", "location": {"address1": "615 Righters Ferry Rd", "address2": null, "address3": null, "city": "Bala Cynwyd", "zip_code": "19004", "country": "US", "state": "PA", "display_address": ["615 Righters Ferry Rd", "Bala Cynwyd, PA 19004"]}, "phone": "+16107470550", "display_phone": "(610) 747-0550", "distance": 8370.992539771496}, {"id": "bTNwrkDJ2HSIQo5egSX37g", "alias": "days-inn-by-wyndham-philadelphia-roosevelt-boulevard-philadelphia", "name": "Days Inn by Wyndham Philadelphia - Roosevelt Boulevard", "image_url": "https://s3-media3.fl.yelpcdn.com/bphoto/9Pn-R5jhJ2PslBBgeDkv5g/o.jpg", "is_closed": false, "url": "https://www.yelp.com/biz/days-inn-by-wyndham-philadelphia-roosevelt-boulevard-philadelphia?adjust_creative=XXt1Nge7yivmjq1WyN0Lzw&utm_campaign=yelp_api_v3&utm_medium=api_v3_business_search&utm_source=XXt1Nge7yivmjq1WyN0Lzw", "review_count": 27, "categories": [{"alias": "hotels", "title": "Hotels"}], "rating": 1.0, "coordinates": {"latitude": 40.02993, "longitude": -75.1063099}, "transactions": [], "price": "$", "location": {"address1": "4200 Roosevelt Blvd", "address2": "", "address3": "", "city": "Philadelphia", "zip_code": "19124", "country": "US", "state": "PA", "display_address": ["4200 Roosevelt Blvd", "Philadelphia, PA 19124"]}, "phone": "+18003291073", "display_phone": "(800) 329-1073", "distance": 3233.661251298063}, {"id": "55gCXlWDDCdttR3yRss1xw", "alias": "the-rittenhouse-hotel-philadelphia", "name": "The Rittenhouse Hotel", "image_url": "https://s3-media4.fl.yelpcdn.com/bphoto/yZ47jNbCZPKDi5iLKaAtkg/o.jpg", "is_closed": false, "url": "https://www.yelp.com/biz/the-rittenhouse-hotel-philadelphia?adjust_creative=XXt1Nge7yivmjq1WyN0Lzw&utm_campaign=yelp_api_v3&utm_medium=api_v3_business_search&utm_source=XXt1Nge7yivmjq1WyN0Lzw", "review_count": 132, "categories": [{"alias": "hotels", "title": "Hotels"}], "rating": 4.0, "coordinates": {"latitude": 39.9494757, "longitude": -75.1731119}, "transactions": [], "price": "$$$", "location": {"address1": "210 W Rittenhouse Sq", "address2": "", "address3": "", "city": "Philadelphia", "zip_code": "19103", "country": "US", "state": "PA", "display_address": ["210 W Rittenhouse Sq", "Philadelphia, PA 19103"]}, "phone": "+12155469000", "display_phone": "(215) 546-9000", "distance": 7520.612623799121}, {"id": "kM0CewxK3Ize1SF92bfJYQ", "alias": "hilton-philadelphia-at-penns-landing-philadelphia", "name": "Hilton Philadelphia at Penn's Landing", "image_url": "https://s3-media1.fl.yelpcdn.com/bphoto/O07FndNViW1FlCgC62rQSw/o.jpg", "is_closed": false, "url": "https://www.yelp.com/biz/hilton-philadelphia-at-penns-landing-philadelphia?adjust_creative=XXt1Nge7yivmjq1WyN0Lzw&utm_campaign=yelp_api_v3&utm_medium=api_v3_business_search&utm_source=XXt1Nge7yivmjq1WyN0Lzw", "review_count": 207, "categories": [{"alias": "hotels", "title": "Hotels"}], "rating": 3.5, "coordinates": {"latitude": 39.9452075533, "longitude": -75.1413550139}, "transactions": [], "price": "$$$", "location": {"address1": "201 S Christopher Columbus Blvd", "address2": null, "address3": "", "city": "Philadelphia", "zip_code": "19106", "country": "US", "state": "PA", "display_address": ["201 S Christopher Columbus Blvd", "Philadelphia, PA 19106"]}, "phone": "+12155216500", "display_phone": "(215) 521-6500", "distance": 6650.426956914393}, {"id": "QMHd6Z2djm_SBLzGhLvFqw", "alias": "courtyard-by-marriott-philadelphia-south-at-the-navy-yard-philadelphia", "name": "Courtyard by Marriott Philadelphia South at The Navy Yard", "image_url": "https://s3-media2.fl.yelpcdn.com/bphoto/ikRM3Ry9o3dEOUP5pMW7Yw/o.jpg", "is_closed": false, "url": "https://www.yelp.com/biz/courtyard-by-marriott-philadelphia-south-at-the-navy-yard-philadelphia?adjust_creative=XXt1Nge7yivmjq1WyN0Lzw&utm_campaign=yelp_api_v3&utm_medium=api_v3_business_search&utm_source=XXt1Nge7yivmjq1WyN0Lzw", "review_count": 68, "categories": [{"alias": "hotels", "title": "Hotels"}], "rating": 4.0, "coordinates": {"latitude": 39.8954545139884, "longitude": -75.1717264504013}, "transactions": [], "price": "$$", "location": {"address1": "1001 Intrepid Ave", "address2": "", "address3": "", "city": "Philadelphia", "zip_code": "19112", "country": "US", "state": "PA", "display_address": ["1001 Intrepid Ave", "Philadelphia, PA 19112"]}, "phone": "+12156449200", "display_phone": "(215) 644-9200", "distance": 12732.303549829761}, {"id": "dvph41fD_t6Kd_ChSpmNSA", "alias": "the-ritz-carlton-philadelphia-philadelphia", "name": "The Ritz-Carlton, Philadelphia", "image_url": "https://s3-media2.fl.yelpcdn.com/bphoto/iv1MQ2wSFjUP2_PgKkVbow/o.jpg", "is_closed": false, "url": "https://www.yelp.com/biz/the-ritz-carlton-philadelphia-philadelphia?adjust_creative=XXt1Nge7yivmjq1WyN0Lzw&utm_campaign=yelp_api_v3&utm_medium=api_v3_business_search&utm_source=XXt1Nge7yivmjq1WyN0Lzw", "review_count": 357, "categories": [{"alias": "hotels", "title": "Hotels"}, {"alias": "venues", "title": "Venues & Event Spaces"}], "rating": 3.5, "coordinates": {"latitude": 39.951445641402, "longitude": -75.1641494035721}, "transactions": [], "price": "$$$", "location": {"address1": "10 Avenue of the Arts", "address2": "", "address3": "", "city": "Philadelphia", "zip_code": "19102", "country": "US", "state": "PA", "display_address": ["10 Avenue of the Arts", "Philadelphia, PA 19102"]}, "phone": "+12155238000", "display_phone": "(215) 523-8000", "distance": 6894.881801947202}, {"id": "EgI6S-JxwpxICPsqmaggiw", "alias": "sofitel-philadelphia-philadelphia", "name": "Sofitel Philadelphia", "image_url": "https://s3-media4.fl.yelpcdn.com/bphoto/21UjLmXLP9IUsKTRVcz9ig/o.jpg", "is_closed": false, "url": "https://www.yelp.com/biz/sofitel-philadelphia-philadelphia?adjust_creative=XXt1Nge7yivmjq1WyN0Lzw&utm_campaign=yelp_api_v3&utm_medium=api_v3_business_search&utm_source=XXt1Nge7yivmjq1WyN0Lzw", "review_count": 410, "categories": [{"alias": "hotels", "title": "Hotels"}], "rating": 4.0, "coordinates": {"latitude": 39.9507904, "longitude": -75.1690826}, "transactions": [], "price": "$$", "location": {"address1": "120 S 17th St", "address2": "", "address3": "", "city": "Philadelphia", "zip_code": "19103", "country": "US", "state": "PA", "display_address": ["120 S 17th St", "Philadelphia, PA 19103"]}, "phone": "+12155698300", "display_phone": "(215) 569-8300", "distance": 7212.398974202131}, {"id": "_AVG0GvrMfBRK5jyuwSwrg", "alias": "pod-philly-hotel-philadelphia", "name": "Motto By Hilton Philadelphia Rittenhouse Square", "image_url": "https://s3-media2.fl.yelpcdn.com/bphoto/-3i0J8nJl6tLTiAVkDflrA/o.jpg", "is_closed": false, "url": "https://www.yelp.com/biz/pod-philly-hotel-philadelphia?adjust_creative=XXt1Nge7yivmjq1WyN0Lzw&utm_campaign=yelp_api_v3&utm_medium=api_v3_business_search&utm_source=XXt1Nge7yivmjq1WyN0Lzw", "review_count": 77, "categories": [{"alias": "hotels", "title": "Hotels"}], "rating": 3.5, "coordinates": {"latitude": 39.9525, "longitude": -75.17128}, "transactions": [], "price": "$$", "location": {"address1": "31 S 19th St", "address2": "", "address3": null, "city": "Philadelphia", "zip_code": "19103", "country": "US", "state": "PA", "display_address": ["31 S 19th St", "Philadelphia, PA 19103"]}, "phone": "+12674940440", "display_phone": "(267) 494-0440", "distance": 7193.047982766743}, {"id": "lZX5_8qspEXtMJGFQ0-Mow", "alias": "philadelphia-marriott-downtown-philadelphia-3", "name": "Philadelphia Marriott Downtown", "image_url": "https://s3-media4.fl.yelpcdn.com/bphoto/7Pm1N8gs0_iJ8eLgAw8s6g/o.jpg", "is_closed": false, "url": "https://www.yelp.com/biz/philadelphia-marriott-downtown-philadelphia-3?adjust_creative=XXt1Nge7yivmjq1WyN0Lzw&utm_campaign=yelp_api_v3&utm_medium=api_v3_business_search&utm_source=XXt1Nge7yivmjq1WyN0Lzw", "review_count": 653, "categories": [{"alias": "hotels", "title": "Hotels"}], "rating": 3.0, "coordinates": {"latitude": 39.952644, "longitude": -75.160634}, "transactions": [], "price": "$$", "location": {"address1": "1201 Market Street", "address2": "(guest entrance at 1200 Filbert Street).", "address3": "", "city": "Philadelphia", "zip_code": "19107", "country": "US", "state": "PA", "display_address": ["1201 Market Street", "(guest entrance at 1200 Filbert Street).", "Philadelphia, PA 19107"]}, "phone": "+12156252900", "display_phone": "(215) 625-2900", "distance": 6615.50181207044}, {"id": "M4y3CIkX3uG9HPN4ZNqD_g", "alias": "the-franklin-residences-philadelphia", "name": "The Franklin Residences", "image_url": "https://s3-media2.fl.yelpcdn.com/bphoto/bvy0l6qaB9tQDs8Vbn2CmQ/o.jpg", "is_closed": false, "url": "https://www.yelp.com/biz/the-franklin-residences-philadelphia?adjust_creative=XXt1Nge7yivmjq1WyN0Lzw&utm_campaign=yelp_api_v3&utm_medium=api_v3_business_search&utm_source=XXt1Nge7yivmjq1WyN0Lzw", "review_count": 16, "categories": [{"alias": "hotels", "title": "Hotels"}, {"alias": "apartments", "title": "Apartments"}], "rating": 4.5, "coordinates": {"latitude": 39.9496074, "longitude": -75.1548857}, "transactions": [], "price": "$$$", "location": {"address1": "834 Chestnut St", "address2": "", "address3": "", "city": "Philadelphia", "zip_code": "19107", "country": "US", "state": "PA", "display_address": ["834 Chestnut St", "Philadelphia, PA 19107"]}, "phone": "+18332572914", "display_phone": "(833) 257-2914", "distance": 6684.370812439193}, {"id": "jTI5Xjk27An8ceJ6VwpXiQ", "alias": "doubletree-by-hilton-hotel-philadelphia-center-city-philadelphia-2", "name": "DoubleTree by Hilton Hotel Philadelphia Center City", "image_url": "https://s3-media2.fl.yelpcdn.com/bphoto/MUxn1kxEnK7e2IDNB6Pa7Q/o.jpg", "is_closed": false, "url": "https://www.yelp.com/biz/doubletree-by-hilton-hotel-philadelphia-center-city-philadelphia-2?adjust_creative=XXt1Nge7yivmjq1WyN0Lzw&utm_campaign=yelp_api_v3&utm_medium=api_v3_business_search&utm_source=XXt1Nge7yivmjq1WyN0Lzw", "review_count": 360, "categories": [{"alias": "hotels", "title": "Hotels"}], "rating": 3.0, "coordinates": {"latitude": 39.9479028004048, "longitude": -75.1640327274799}, "transactions": [], "price": "$$", "location": {"address1": "237 S Broad St", "address2": "", "address3": "", "city": "Philadelphia", "zip_code": "19107", "country": "US", "state": "PA", "display_address": ["237 S Broad St", "Philadelphia, PA 19107"]}, "phone": "+12158931600", "display_phone": "(215) 893-1600", "distance": 7215.424621388809}, {"id": "Uo-rsPFXJhmND3iVs8-PFg", "alias": "hilton-garden-inn-camden-waterfront-philadelphia-camden", "name": "Hilton Garden Inn Camden Waterfront Philadelphia", "image_url": "https://s3-media1.fl.yelpcdn.com/bphoto/4QoPNL5zCS6WFZ4Dci-9Ig/o.jpg", "is_closed": false, "url": "https://www.yelp.com/biz/hilton-garden-inn-camden-waterfront-philadelphia-camden?adjust_creative=XXt1Nge7yivmjq1WyN0Lzw&utm_campaign=yelp_api_v3&utm_medium=api_v3_business_search&utm_source=XXt1Nge7yivmjq1WyN0Lzw", "review_count": 18, "categories": [{"alias": "hotels", "title": "Hotels"}], "rating": 4.0, "coordinates": {"latitude": 39.949913998357, "longitude": -75.1302874}, "transactions": [], "price": "$$", "location": {"address1": "1 Penn St", "address2": null, "address3": null, "city": "Camden", "zip_code": "08102", "country": "US", "state": "NJ", "display_address": ["1 Penn St", "Camden, NJ 08102"]}, "phone": "+18567560070", "display_phone": "(856) 756-0070", "distance": 5911.750139152634}, {"id": "VVokGr5J70qB3g5bRWnbsQ", "alias": "ave-blue-bell-blue-bell-2", "name": "AVE Blue Bell", "image_url": "https://s3-media3.fl.yelpcdn.com/bphoto/arIAtlch9afmPOizssYZJQ/o.jpg", "is_closed": false, "url": "https://www.yelp.com/biz/ave-blue-bell-blue-bell-2?adjust_creative=XXt1Nge7yivmjq1WyN0Lzw&utm_campaign=yelp_api_v3&utm_medium=api_v3_business_search&utm_source=XXt1Nge7yivmjq1WyN0Lzw", "review_count": 14, "categories": [{"alias": "apartments", "title": "Apartments"}, {"alias": "hotels", "title": "Hotels"}], "rating": 5.0, "coordinates": {"latitude": 40.14455, "longitude": -75.28728167}, "transactions": [], "location": {"address1": "1600 Union Meeting Rd", "address2": "", "address3": null, "city": "Blue Bell", "zip_code": "19422", "country": "US", "state": "PA", "display_address": ["1600 Union Meeting Rd", "Blue Bell, PA 19422"]}, "phone": "+18334651205", "display_phone": "(833) 465-1205", "distance": 21391.887868724298}, {"id": "awoL_ZkakGAihaPyBfbs1g", "alias": "pineapple-hill-bed-and-breakfast-inn-new-hope", "name": "Pineapple Hill Bed & Breakfast Inn", "image_url": "https://s3-media3.fl.yelpcdn.com/bphoto/WklehdZmqbERwxSdQA9Ofw/o.jpg", "is_closed": false, "url": "https://www.yelp.com/biz/pineapple-hill-bed-and-breakfast-inn-new-hope?adjust_creative=XXt1Nge7yivmjq1WyN0Lzw&utm_campaign=yelp_api_v3&utm_medium=api_v3_business_search&utm_source=XXt1Nge7yivmjq1WyN0Lzw", "review_count": 50, "categories": [{"alias": "hotels", "title": "Hotels"}, {"alias": "bedbreakfast", "title": "Bed & Breakfast"}], "rating": 5.0, "coordinates": {"latitude": 40.311353, "longitude": -74.90732}, "transactions": [], "price": "$$", "location": {"address1": "1324 River Rd", "address2": "", "address3": "", "city": "New Hope", "zip_code": "18938", "country": "US", "state": "PA", "display_address": ["1324 River Rd", "New Hope, PA 18938"]}, "phone": "+12158621790", "display_phone": "(215) 862-1790", "distance": 38744.03634018448}, {"id": "xTCSNzu7387VHOPO7DkEzA", "alias": "the-notary-hotel-autograph-collection-philadelphia-3", "name": "The Notary Hotel, Autograph Collection", "image_url": "https://s3-media2.fl.yelpcdn.com/bphoto/2Eykz_y1czBx4tCWYnhQMg/o.jpg", "is_closed": false, "url": "https://www.yelp.com/biz/the-notary-hotel-autograph-collection-philadelphia-3?adjust_creative=XXt1Nge7yivmjq1WyN0Lzw&utm_campaign=yelp_api_v3&utm_medium=api_v3_business_search&utm_source=XXt1Nge7yivmjq1WyN0Lzw", "review_count": 311, "categories": [{"alias": "hotels", "title": "Hotels"}], "rating": 3.5, "coordinates": {"latitude": 39.95301378048078, "longitude": -75.16174173315032}, "transactions": [], "price": "$$$", "location": {"address1": "21 North Juniper St", "address2": "", "address3": "", "city": "Philadelphia", "zip_code": "19107", "country": "US", "state": "PA", "display_address": ["21 North Juniper St", "Philadelphia, PA 19107"]}, "phone": "+12154963200", "display_phone": "(215) 496-3200", "distance": 6634.601518208012}, {"id": "CFlW9bfl4N63fZpQsZIkRQ", "alias": "the-logan-philadelphia-curio-collection-by-hilton-philadelphia", "name": "The Logan Philadelphia, Curio Collection by Hilton", "image_url": "https://s3-media1.fl.yelpcdn.com/bphoto/OiEQL4tUpvUq1tA9GPXvxQ/o.jpg", "is_closed": false, "url": "https://www.yelp.com/biz/the-logan-philadelphia-curio-collection-by-hilton-philadelphia?adjust_creative=XXt1Nge7yivmjq1WyN0Lzw&utm_campaign=yelp_api_v3&utm_medium=api_v3_business_search&utm_source=XXt1Nge7yivmjq1WyN0Lzw", "review_count": 255, "categories": [{"alias": "hotels", "title": "Hotels"}], "rating": 3.5, "coordinates": {"latitude": 39.9569323, "longitude": -75.1702705}, "transactions": [], "price": "$$$", "location": {"address1": "One Logan Sq", "address2": "", "address3": "", "city": "Philadelphia", "zip_code": "19103", "country": "US", "state": "PA", "display_address": ["One Logan Sq", "Philadelphia, PA 19103"]}, "phone": "+12159631500", "display_phone": "(215) 963-1500", "distance": 6740.235250528401}, {"id": "mlb7G66nkwYddPBfldUtIQ", "alias": "lokal-hotel-philadelphia", "name": "Lokal Hotel", "image_url": "https://s3-media2.fl.yelpcdn.com/bphoto/rUwFAdZMj4-2ATzwvzQiGQ/o.jpg", "is_closed": false, "url": "https://www.yelp.com/biz/lokal-hotel-philadelphia?adjust_creative=XXt1Nge7yivmjq1WyN0Lzw&utm_campaign=yelp_api_v3&utm_medium=api_v3_business_search&utm_source=XXt1Nge7yivmjq1WyN0Lzw", "review_count": 17, "categories": [{"alias": "hotels", "title": "Hotels"}], "rating": 4.5, "coordinates": {"latitude": 39.95323, "longitude": -75.14478}, "transactions": [], "price": "$$$", "location": {"address1": "139 N 3rd St", "address2": "", "address3": null, "city": "Philadelphia", "zip_code": "19106", "country": "US", "state": "PA", "display_address": ["139 N 3rd St", "Philadelphia, PA 19106"]}, "phone": "+12677024345", "display_phone": "(267) 702-4345", "distance": 5912.479617100328}, {"id": "KGBjEO-FilXoCK_Pk-jsvA", "alias": "penns-view-hotel-philadelphia", "name": "Penn's View Hotel", "image_url": "https://s3-media1.fl.yelpcdn.com/bphoto/fYkWSqNNfy5eIBOwd5IJsg/o.jpg", "is_closed": false, "url": "https://www.yelp.com/biz/penns-view-hotel-philadelphia?adjust_creative=XXt1Nge7yivmjq1WyN0Lzw&utm_campaign=yelp_api_v3&utm_medium=api_v3_business_search&utm_source=XXt1Nge7yivmjq1WyN0Lzw", "review_count": 115, "categories": [{"alias": "hotels", "title": "Hotels"}], "rating": 4.0, "coordinates": {"latitude": 39.950201, "longitude": -75.142285}, "transactions": [], "price": "$$", "location": {"address1": "14 N Front St", "address2": "", "address3": "", "city": "Philadelphia", "zip_code": "19106", "country": "US", "state": "PA", "display_address": ["14 N Front St", "Philadelphia, PA 19106"]}, "phone": "+12159227600", "display_phone": "(215) 922-7600", "distance": 6150.322254854466}, {"id": "AiE4poNDQB7YSom1DFHdEQ", "alias": "inn-of-the-dove-romantic-suites-with-jacuzzi-and-fireplace-bensalem-2", "name": "Inn of the Dove - Romantic Suites with Jacuzzi & Fireplace", "image_url": "https://s3-media1.fl.yelpcdn.com/bphoto/QdxANh5eP4iP5nXGRPHkcg/o.jpg", "is_closed": false, "url": "https://www.yelp.com/biz/inn-of-the-dove-romantic-suites-with-jacuzzi-and-fireplace-bensalem-2?adjust_creative=XXt1Nge7yivmjq1WyN0Lzw&utm_campaign=yelp_api_v3&utm_medium=api_v3_business_search&utm_source=XXt1Nge7yivmjq1WyN0Lzw", "review_count": 59, "categories": [{"alias": "hotels", "title": "Hotels"}], "rating": 3.0, "coordinates": {"latitude": 40.1271513017833, "longitude": -74.96723291565401}, "transactions": [], "price": "$$$", "location": {"address1": "3901 Old Street Rd", "address2": "", "address3": "", "city": "Bensalem", "zip_code": "19020", "country": "US", "state": "PA", "display_address": ["3901 Old Street Rd", "Bensalem, PA 19020"]}, "phone": "+12156383683", "display_phone": "(215) 638-3683", "distance": 18892.154150859034}, {"id": "mKJZREPhvsVgHebHK8dFew", "alias": "the-dwight-d-philadelphia", "name": "The Dwight D", "image_url": "https://s3-media4.fl.yelpcdn.com/bphoto/MJBtPyHlBcno3UjiYVUJCg/o.jpg", "is_closed": false, "url": "https://www.yelp.com/biz/the-dwight-d-philadelphia?adjust_creative=XXt1Nge7yivmjq1WyN0Lzw&utm_campaign=yelp_api_v3&utm_medium=api_v3_business_search&utm_source=XXt1Nge7yivmjq1WyN0Lzw", "review_count": 26, "categories": [{"alias": "hotels", "title": "Hotels"}], "rating": 4.5, "coordinates": {"latitude": 39.9479408, "longitude": -75.16819}, "transactions": [], "price": "$$", "location": {"address1": "256 S 16th St", "address2": null, "address3": "", "city": "Philadelphia", "zip_code": "19102", "country": "US", "state": "PA", "display_address": ["256 S 16th St", "Philadelphia, PA 19102"]}, "phone": "+12157721901", "display_phone": "(215) 772-1901", "distance": 7401.443886016259}, {"id": "9cNzuj5NeG4c96JvcbUaoQ", "alias": "best-western-plus-philadelphia-pennsauken-hotel-pennsauken", "name": "Best Western Plus Philadelphia-Pennsauken Hotel", "image_url": "https://s3-media2.fl.yelpcdn.com/bphoto/AfiQxL-yEciikaAk5NK_Qg/o.jpg", "is_closed": false, "url": "https://www.yelp.com/biz/best-western-plus-philadelphia-pennsauken-hotel-pennsauken?adjust_creative=XXt1Nge7yivmjq1WyN0Lzw&utm_campaign=yelp_api_v3&utm_medium=api_v3_business_search&utm_source=XXt1Nge7yivmjq1WyN0Lzw", "review_count": 10, "categories": [{"alias": "hotels", "title": "Hotels"}], "rating": 4.5, "coordinates": {"latitude": 39.93363, "longitude": -75.07762}, "transactions": [], "location": {"address1": "7050 Kaighns Ave", "address2": null, "address3": null, "city": "Pennsauken", "zip_code": "08109", "country": "US", "state": "NJ", "display_address": ["7050 Kaighns Ave", "Pennsauken, NJ 08109"]}, "phone": "+18563330900", "display_phone": "(856) 333-0900", "distance": 8351.763378847118}, {"id": "-D_3emciINpjvYXsHCf8OA", "alias": "aka-rittenhouse-square-philadelphia-2", "name": "AKA Rittenhouse Square", "image_url": "https://s3-media1.fl.yelpcdn.com/bphoto/3lpVw93KCm1OKfoEnBNxUg/o.jpg", "is_closed": false, "url": "https://www.yelp.com/biz/aka-rittenhouse-square-philadelphia-2?adjust_creative=XXt1Nge7yivmjq1WyN0Lzw&utm_campaign=yelp_api_v3&utm_medium=api_v3_business_search&utm_source=XXt1Nge7yivmjq1WyN0Lzw", "review_count": 42, "categories": [{"alias": "hotels", "title": "Hotels"}, {"alias": "apartments", "title": "Apartments"}], "rating": 4.5, "coordinates": {"latitude": 39.950366973877, "longitude": -75.1704177856445}, "transactions": [], "price": "$$$", "location": {"address1": "135 S 18th St", "address2": "", "address3": "", "city": "Philadelphia", "zip_code": "19103", "country": "US", "state": "PA", "display_address": ["135 S 18th St", "Philadelphia, PA 19103"]}, "phone": "+12158257000", "display_phone": "(215) 825-7000", "distance": 7311.301014819115}, {"id": "sBZClv18j7gr1HIGIMXNcA", "alias": "hampton-inn-philadelphia-center-city-convention-center-philadelphia-2", "name": "Hampton Inn Philadelphia Center City-Convention Center", "image_url": "https://s3-media2.fl.yelpcdn.com/bphoto/CZaX2cCCTdTLCK38AKVBwg/o.jpg", "is_closed": false, "url": "https://www.yelp.com/biz/hampton-inn-philadelphia-center-city-convention-center-philadelphia-2?adjust_creative=XXt1Nge7yivmjq1WyN0Lzw&utm_campaign=yelp_api_v3&utm_medium=api_v3_business_search&utm_source=XXt1Nge7yivmjq1WyN0Lzw", "review_count": 201, "categories": [{"alias": "hotels", "title": "Hotels"}], "rating": 3.5, "coordinates": {"latitude": 39.9562835950677, "longitude": -75.1607483625412}, "transactions": [], "price": "$$", "location": {"address1": "1301 Race St", "address2": "", "address3": "", "city": "Philadelphia", "zip_code": "19107", "country": "US", "state": "PA", "display_address": ["1301 Race St", "Philadelphia, PA 19107"]}, "phone": "+12156659100", "display_phone": "(215) 665-9100", "distance": 6288.428191749767}, {"id": "qluIWCzDpeZfddykm_2gYg", "alias": "north-american-motor-inns-philadelphia-2", "name": "North American Motor Inns", "image_url": "https://s3-media2.fl.yelpcdn.com/bphoto/xZp-iKKd0EKPus2irFDb2g/o.jpg", "is_closed": false, "url": "https://www.yelp.com/biz/north-american-motor-inns-philadelphia-2?adjust_creative=XXt1Nge7yivmjq1WyN0Lzw&utm_campaign=yelp_api_v3&utm_medium=api_v3_business_search&utm_source=XXt1Nge7yivmjq1WyN0Lzw", "review_count": 32, "categories": [{"alias": "hotels", "title": "Hotels"}], "rating": 1.0, "coordinates": {"latitude": 40.0034506, "longitude": -75.2213462}, "transactions": [], "price": "$", "location": {"address1": "4444 City Ave", "address2": "", "address3": "", "city": "Philadelphia", "zip_code": "19131", "country": "US", "state": "PA", "display_address": ["4444 City Ave", "Philadelphia, PA 19131"]}, "phone": "+12158783100", "display_phone": "(215) 878-3100", "distance": 8832.412720617816}, {"id": "zJErbOQMKX-MwHs_ulV7DA", "alias": "philadelphia-marriott-old-city-philadelphia-2", "name": "Philadelphia Marriott Old City", "image_url": "https://s3-media1.fl.yelpcdn.com/bphoto/Gu531F4beFj_Isz8p_cQmw/o.jpg", "is_closed": false, "url": "https://www.yelp.com/biz/philadelphia-marriott-old-city-philadelphia-2?adjust_creative=XXt1Nge7yivmjq1WyN0Lzw&utm_campaign=yelp_api_v3&utm_medium=api_v3_business_search&utm_source=XXt1Nge7yivmjq1WyN0Lzw", "review_count": 244, "categories": [{"alias": "hotels", "title": "Hotels"}, {"alias": "venues", "title": "Venues & Event Spaces"}], "rating": 3.0, "coordinates": {"latitude": 39.9452460633252, "longitude": -75.1433300971985}, "transactions": [], "price": "$$$", "location": {"address1": "One Dock St", "address2": "2nd and Walnut St", "address3": "", "city": "Philadelphia", "zip_code": "19106", "country": "US", "state": "PA", "display_address": ["One Dock St", "2nd and Walnut St", "Philadelphia, PA 19106"]}, "phone": "+12152386000", "display_phone": "(215) 238-6000", "distance": 6699.427306928442}, {"id": "xV32Y7jne4duaM3H_r_ryQ", "alias": "holiday-inn-express-philadelphia-penns-landing-philadelphia-2", "name": "Holiday Inn Express Philadelphia - Penns Landing", "image_url": "https://s3-media2.fl.yelpcdn.com/bphoto/bgomW14H-ynAajTU9Aut5Q/o.jpg", "is_closed": false, "url": "https://www.yelp.com/biz/holiday-inn-express-philadelphia-penns-landing-philadelphia-2?adjust_creative=XXt1Nge7yivmjq1WyN0Lzw&utm_campaign=yelp_api_v3&utm_medium=api_v3_business_search&utm_source=XXt1Nge7yivmjq1WyN0Lzw", "review_count": 100, "categories": [{"alias": "hotels", "title": "Hotels"}, {"alias": "venues", "title": "Venues & Event Spaces"}], "rating": 3.0, "coordinates": {"latitude": 39.95246442275664, "longitude": -75.14053193193818}, "transactions": [], "price": "$$", "location": {"address1": "100 N Columbus Blvd", "address2": null, "address3": null, "city": "Philadelphia", "zip_code": "19106", "country": "US", "state": "PA", "display_address": ["100 N Columbus Blvd", "Philadelphia, PA 19106"]}, "phone": "+12156277900", "display_phone": "(215) 627-7900", "distance": 5863.009085652576}, {"id": "La-xKvOupbntNTUQqd4U0A", "alias": "marriott-philadelphia-west-west-conshohocken", "name": "Marriott Philadelphia West", "image_url": "https://s3-media3.fl.yelpcdn.com/bphoto/i29ogFKSjPB-0rJVpghFRA/o.jpg", "is_closed": false, "url": "https://www.yelp.com/biz/marriott-philadelphia-west-west-conshohocken?adjust_creative=XXt1Nge7yivmjq1WyN0Lzw&utm_campaign=yelp_api_v3&utm_medium=api_v3_business_search&utm_source=XXt1Nge7yivmjq1WyN0Lzw", "review_count": 101, "categories": [{"alias": "hotels", "title": "Hotels"}, {"alias": "venues", "title": "Venues & Event Spaces"}], "rating": 3.5, "coordinates": {"latitude": 40.06887, "longitude": -75.309733}, "transactions": [], "price": "$$", "location": {"address1": "111 Crawford Ave", "address2": "", "address3": "", "city": "West Conshohocken", "zip_code": "19428", "country": "US", "state": "PA", "display_address": ["111 Crawford Ave", "West Conshohocken, PA 19428"]}, "phone": "+16109415600", "display_phone": "(610) 941-5600", "distance": 17955.872012175416}, {"id": "M_VgZkZ21k0-Q8j7pKk9PA", "alias": "the-maj-hotel-philadelphia", "name": "The MAJ Hotel", "image_url": "https://s3-media2.fl.yelpcdn.com/bphoto/p2lQPyu0VOWZz7ru6WS-cw/o.jpg", "is_closed": false, "url": "https://www.yelp.com/biz/the-maj-hotel-philadelphia?adjust_creative=XXt1Nge7yivmjq1WyN0Lzw&utm_campaign=yelp_api_v3&utm_medium=api_v3_business_search&utm_source=XXt1Nge7yivmjq1WyN0Lzw", "review_count": 7, "categories": [{"alias": "hotels", "title": "Hotels"}], "rating": 4.0, "coordinates": {"latitude": 39.96450706436352, "longitude": -75.17538941048515}, "transactions": [], "location": {"address1": "2225 Spring Garden St", "address2": null, "address3": "", "city": "Philadelphia", "zip_code": "19130", "country": "US", "state": "PA", "display_address": ["2225 Spring Garden St", "Philadelphia, PA 19130"]}, "phone": "+12157895885", "display_phone": "(215) 789-5885", "distance": 6462.346475607791}, {"id": "dSdnWJxvhLwvsDfRI1lKuQ", "alias": "residence-inn-philadelphia-airport-philadelphia-3", "name": "Residence Inn Philadelphia Airport", "image_url": "https://s3-media4.fl.yelpcdn.com/bphoto/Y7J1XdG6uAXOkRIqNXuWpg/o.jpg", "is_closed": false, "url": "https://www.yelp.com/biz/residence-inn-philadelphia-airport-philadelphia-3?adjust_creative=XXt1Nge7yivmjq1WyN0Lzw&utm_campaign=yelp_api_v3&utm_medium=api_v3_business_search&utm_source=XXt1Nge7yivmjq1WyN0Lzw", "review_count": 25, "categories": [{"alias": "hotels", "title": "Hotels"}], "rating": 3.5, "coordinates": {"latitude": 39.8957530955092, "longitude": -75.2363016307334}, "transactions": [], "price": "$$", "location": {"address1": "3701 Island Ave", "address2": "", "address3": null, "city": "Philadelphia", "zip_code": "19153", "country": "US", "state": "PA", "display_address": ["3701 Island Ave", "Philadelphia, PA 19153"]}, "phone": "+12159218011", "display_phone": "(215) 921-8011", "distance": 15568.526894121705}, {"id": "Pd-r2emx-k0GB3f2Iv4-zA", "alias": "roosevelt-inn-philadelphia", "name": "Roosevelt Inn", "image_url": "https://s3-media3.fl.yelpcdn.com/bphoto/HCk_77ppAgCGIfhfx_Ua9w/o.jpg", "is_closed": false, "url": "https://www.yelp.com/biz/roosevelt-inn-philadelphia?adjust_creative=XXt1Nge7yivmjq1WyN0Lzw&utm_campaign=yelp_api_v3&utm_medium=api_v3_business_search&utm_source=XXt1Nge7yivmjq1WyN0Lzw", "review_count": 15, "categories": [{"alias": "hotels", "title": "Hotels"}], "rating": 2.0, "coordinates": {"latitude": 40.0505701, "longitude": -75.0516049}, "transactions": [], "price": "$$", "location": {"address1": "7600 Roosevelt Blvd", "address2": "Ste 1", "address3": "", "city": "Philadelphia", "zip_code": "19152", "country": "US", "state": "PA", "display_address": ["7600 Roosevelt Blvd", "Ste 1", "Philadelphia, PA 19152"]}, "phone": "+12153387600", "display_phone": "(215) 338-7600", "distance": 7791.003150722614}], "total": 477, "region": {"center": {"longitude": -75.11764526367188, "latitude": 40.00218959599397}}}