{"businesses": [{"id": "UzksnYYQvh2tThSGTqUslA", "alias": "2am-izakaya-chicago", "name": "2AM Izakaya", "image_url": "https://s3-media3.fl.yelpcdn.com/bphoto/PddeGAGRNQ6Hn2aR77a7GA/o.jpg", "is_closed": false, "url": "https://www.yelp.com/biz/2am-izakaya-chicago?adjust_creative=pbWTcU6Cnh6ec5O1K-PUAQ&utm_campaign=yelp_api_v3&utm_medium=api_v3_business_search&utm_source=pbWTcU6Cnh6ec5O1K-PUAQ", "review_count": 31, "categories": [{"alias": "japanese", "title": "Japanese"}, {"alias": "sushi", "title": "Sushi Bars"}, {"alias": "chinese", "title": "Chinese"}], "rating": 4.5, "coordinates": {"latitude": 41.92228, "longitude": -87.64465}, "transactions": ["pickup", "delivery", "restaurant_reservation"], "location": {"address1": "2218 N Lincoln Ave", "address2": null, "address3": "", "city": "Chicago", "zip_code": "60614", "country": "US", "state": "IL", "display_address": ["2218 N Lincoln Ave", "Chicago, IL 60614"]}, "phone": "+17738822363", "display_phone": "(773) 882-2363", "distance": 3342.3695439821613}, {"id": "0IYXh7l_VppKw5y97FehoA", "alias": "kasama-chicago", "name": "Kasama", "image_url": "https://s3-media3.fl.yelpcdn.com/bphoto/qm_DeNgDB2FazPVeufAjMw/o.jpg", "is_closed": false, "url": "https://www.yelp.com/biz/kasama-chicago?adjust_creative=pbWTcU6Cnh6ec5O1K-PUAQ&utm_campaign=yelp_api_v3&utm_medium=api_v3_business_search&utm_source=pbWTcU6Cnh6ec5O1K-PUAQ", "review_count": 627, "categories": [{"alias": "filipino", "title": "Filipino"}, {"alias": "bakeries", "title": "Bakeries"}, {"alias": "newamerican", "title": "American (New)"}], "rating": 4.5, "coordinates": {"latitude": 41.899692, "longitude": -87.6756}, "transactions": ["delivery"], "price": "$$", "location": {"address1": "1001 N Winchester Ave", "address2": null, "address3": null, "city": "Chicago", "zip_code": "60622", "country": "US", "state": "IL", "display_address": ["1001 N Winchester Ave", "Chicago, IL 60622"]}, "phone": "+17736973790", "display_phone": "(773) 697-3790", "distance": 632.4563327023815}, {"id": "HaX1xkisTWetyKUkuBAzzQ", "alias": "mother-s-ruin-chicago", "name": "Mother\u2019s Ruin", "image_url": "https://s3-media2.fl.yelpcdn.com/bphoto/lIyMost6yTW01pG13F9eOA/o.jpg", "is_closed": false, "url": "https://www.yelp.com/biz/mother-s-ruin-chicago?adjust_creative=pbWTcU6Cnh6ec5O1K-PUAQ&utm_campaign=yelp_api_v3&utm_medium=api_v3_business_search&utm_source=pbWTcU6Cnh6ec5O1K-PUAQ", "review_count": 64, "categories": [{"alias": "newamerican", "title": "American (New)"}, {"alias": "burgers", "title": "Burgers"}, {"alias": "cocktailbars", "title": "Cocktail Bars"}], "rating": 4.5, "coordinates": {"latitude": 41.93495, "longitude": -87.71647}, "transactions": ["pickup", "delivery"], "price": "$$", "location": {"address1": "2943 N Milwaukee Ave", "address2": "", "address3": null, "city": "Chicago", "zip_code": "60618", "country": "US", "state": "IL", "display_address": ["2943 N Milwaukee Ave", "Chicago, IL 60618"]}, "phone": "", "display_phone": "", "distance": 4608.914021211013}, {"id": "gzhkdb6YoiFm5s3vriG1AA", "alias": "gretel-chicago", "name": "Gretel", "image_url": "https://s3-media1.fl.yelpcdn.com/bphoto/TcPX2gC7mrXzK4qNyQUKgQ/o.jpg", "is_closed": false, "url": "https://www.yelp.com/biz/gretel-chicago?adjust_creative=pbWTcU6Cnh6ec5O1K-PUAQ&utm_campaign=yelp_api_v3&utm_medium=api_v3_business_search&utm_source=pbWTcU6Cnh6ec5O1K-PUAQ", "review_count": 230, "categories": [{"alias": "beer_and_wine", "title": "Beer, Wine & Spirits"}, {"alias": "cocktailbars", "title": "Cocktail Bars"}], "rating": 4.5, "coordinates": {"latitude": 41.917275, "longitude": -87.698577}, "transactions": ["pickup", "delivery"], "price": "$$", "location": {"address1": "2833 W Armitage Ave", "address2": "", "address3": null, "city": "Chicago", "zip_code": "60647", "country": "US", "state": "IL", "display_address": ["2833 W Armitage Ave", "Chicago, IL 60647"]}, "phone": "+17737703427", "display_phone": "(773) 770-3427", "distance": 2186.522107761795}, {"id": "xJEA6P6VS-Ukl9dmjleDkw", "alias": "silli-kori-chicago", "name": "Silli Kori", "image_url": "https://s3-media4.fl.yelpcdn.com/bphoto/dOZes2V6IT5KWp3otOixwg/o.jpg", "is_closed": false, "url": "https://www.yelp.com/biz/silli-kori-chicago?adjust_creative=pbWTcU6Cnh6ec5O1K-PUAQ&utm_campaign=yelp_api_v3&utm_medium=api_v3_business_search&utm_source=pbWTcU6Cnh6ec5O1K-PUAQ", "review_count": 341, "categories": [{"alias": "thai", "title": "Thai"}, {"alias": "asianfusion", "title": "Asian Fusion"}], "rating": 4.5, "coordinates": {"latitude": 41.90286, "longitude": -87.67935}, "transactions": ["pickup", "delivery"], "price": "$$", "location": {"address1": "2053 W Division St", "address2": "", "address3": "", "city": "Chicago", "zip_code": "60622", "country": "US", "state": "IL", "display_address": ["2053 W Division St", "Chicago, IL 60622"]}, "phone": "+17733845352", "display_phone": "(773) 384-5352", "distance": 281.5520944725917}, {"id": "ruWJerAc9VW23GvegYddnQ", "alias": "gaijin-chicago", "name": "Gaijin", "image_url": "https://s3-media2.fl.yelpcdn.com/bphoto/U9ImjwjCTrEUL0KKt-zbtA/o.jpg", "is_closed": false, "url": "https://www.yelp.com/biz/gaijin-chicago?adjust_creative=pbWTcU6Cnh6ec5O1K-PUAQ&utm_campaign=yelp_api_v3&utm_medium=api_v3_business_search&utm_source=pbWTcU6Cnh6ec5O1K-PUAQ", "review_count": 598, "categories": [{"alias": "japanese", "title": "Japanese"}], "rating": 4.5, "coordinates": {"latitude": 41.88583, "longitude": -87.65182}, "transactions": ["pickup", "delivery"], "price": "$$", "location": {"address1": "950 W Lake St", "address2": null, "address3": "", "city": "Chicago", "zip_code": "60607", "country": "US", "state": "IL", "display_address": ["950 W Lake St", "Chicago, IL 60607"]}, "phone": "+13122651348", "display_phone": "(312) 265-1348", "distance": 3045.941580084704}, {"id": "m5gfWEQI7BYTKWMYF-X-Ug", "alias": "no-vacancy-chicago", "name": "No Vacancy", "image_url": "https://s3-media1.fl.yelpcdn.com/bphoto/DKEnONNHZxSvVjMHV8LqAw/o.jpg", "is_closed": false, "url": "https://www.yelp.com/biz/no-vacancy-chicago?adjust_creative=pbWTcU6Cnh6ec5O1K-PUAQ&utm_campaign=yelp_api_v3&utm_medium=api_v3_business_search&utm_source=pbWTcU6Cnh6ec5O1K-PUAQ", "review_count": 49, "categories": [{"alias": "newamerican", "title": "American (New)"}, {"alias": "wine_bars", "title": "Wine Bars"}, {"alias": "beer_and_wine", "title": "Beer, Wine & Spirits"}], "rating": 4.5, "coordinates": {"latitude": 41.89115, "longitude": -87.63375}, "transactions": [], "price": "$$", "location": {"address1": "509 N Wells St", "address2": "", "address3": null, "city": "Chicago", "zip_code": "60654", "country": "US", "state": "IL", "display_address": ["509 N Wells St", "Chicago, IL 60654"]}, "phone": "+13125006666", "display_phone": "(312) 500-6666", "distance": 3963.514739521561}, {"id": "iPwFyQNiZHbKNCxO7RRCVw", "alias": "cheba-hut-toasted-subs-chicago-7", "name": "Cheba Hut Toasted Subs", "image_url": "https://s3-media1.fl.yelpcdn.com/bphoto/4vjaOx07FgHNrpKu9bq_IQ/o.jpg", "is_closed": false, "url": "https://www.yelp.com/biz/cheba-hut-toasted-subs-chicago-7?adjust_creative=pbWTcU6Cnh6ec5O1K-PUAQ&utm_campaign=yelp_api_v3&utm_medium=api_v3_business_search&utm_source=pbWTcU6Cnh6ec5O1K-PUAQ", "review_count": 99, "categories": [{"alias": "sandwiches", "title": "Sandwiches"}], "rating": 4.5, "coordinates": {"latitude": 41.90342, "longitude": -87.67677018724892}, "transactions": ["pickup", "delivery"], "location": {"address1": "1948 W Division St", "address2": "", "address3": null, "city": "Chicago", "zip_code": "60622", "country": "US", "state": "IL", "display_address": ["1948 W Division St", "Chicago, IL 60622"]}, "phone": "+18723153191", "display_phone": "(872) 315-3191", "distance": 210.18721464722677}, {"id": "B3s6h5OFne0C5ygKSevJpA", "alias": "rudy-s-ramen-chicago", "name": "Rudy\u2019s Ramen", "image_url": "https://s3-media3.fl.yelpcdn.com/bphoto/cD8AffxQWeFaQM1zwyMgmg/o.jpg", "is_closed": false, "url": "https://www.yelp.com/biz/rudy-s-ramen-chicago?adjust_creative=pbWTcU6Cnh6ec5O1K-PUAQ&utm_campaign=yelp_api_v3&utm_medium=api_v3_business_search&utm_source=pbWTcU6Cnh6ec5O1K-PUAQ", "review_count": 29, "categories": [{"alias": "ramen", "title": "Ramen"}], "rating": 5.0, "coordinates": {"latitude": 41.90252543864915, "longitude": -87.66536544877775}, "transactions": [], "location": {"address1": "1146 N Milwaukee Ave", "address2": "", "address3": null, "city": "Chicago", "zip_code": "60642", "country": "US", "state": "IL", "display_address": ["1146 N Milwaukee Ave", "Chicago, IL 60642"]}, "phone": "", "display_phone": "", "distance": 1067.1346983559918}, {"id": "W2QV6SILHer3qB_-CZ1z1A", "alias": "etta-bucktown-chicago", "name": "etta - Bucktown", "image_url": "https://s3-media2.fl.yelpcdn.com/bphoto/1aDZP_Y9Y3nD9MxADI7O_A/o.jpg", "is_closed": false, "url": "https://www.yelp.com/biz/etta-bucktown-chicago?adjust_creative=pbWTcU6Cnh6ec5O1K-PUAQ&utm_campaign=yelp_api_v3&utm_medium=api_v3_business_search&utm_source=pbWTcU6Cnh6ec5O1K-PUAQ", "review_count": 1029, "categories": [{"alias": "pizza", "title": "Pizza"}, {"alias": "newamerican", "title": "American (New)"}, {"alias": "breakfast_brunch", "title": "Breakfast & Brunch"}], "rating": 4.5, "coordinates": {"latitude": 41.910731, "longitude": -87.674285}, "transactions": ["pickup", "delivery"], "price": "$$$", "location": {"address1": "1840 W North Ave", "address2": null, "address3": "", "city": "Chicago", "zip_code": "60622", "country": "US", "state": "IL", "display_address": ["1840 W North Ave", "Chicago, IL 60622"]}, "phone": "+13127574444", "display_phone": "(312) 757-4444", "distance": 680.8200736644957}, {"id": "WKnFuCJs6k2R4jvClolFBg", "alias": "hawaiian-bros-island-grill-chicago", "name": "Hawaiian Bros Island Grill", "image_url": "https://s3-media2.fl.yelpcdn.com/bphoto/lJ-6ABdhRqfNySNNjhPh5g/o.jpg", "is_closed": false, "url": "https://www.yelp.com/biz/hawaiian-bros-island-grill-chicago?adjust_creative=pbWTcU6Cnh6ec5O1K-PUAQ&utm_campaign=yelp_api_v3&utm_medium=api_v3_business_search&utm_source=pbWTcU6Cnh6ec5O1K-PUAQ", "review_count": 120, "categories": [{"alias": "hawaiian", "title": "Hawaiian"}], "rating": 4.0, "coordinates": {"latitude": 41.94543907, "longitude": -87.7094453}, "transactions": ["pickup", "delivery"], "location": {"address1": "3517 N Spaulding Ave", "address2": null, "address3": "", "city": "Chicago", "zip_code": "60618", "country": "US", "state": "IL", "display_address": ["3517 N Spaulding Ave", "Chicago, IL 60618"]}, "phone": "+13127553918", "display_phone": "(312) 755-3918", "distance": 5189.407398570411}, {"id": "c1OT7xxXi3W_7an_Ra4Pvw", "alias": "same-same-chicago", "name": "Same Same", "image_url": "https://s3-media4.fl.yelpcdn.com/bphoto/6bzU7exBPPpa9tlzKd2H3w/o.jpg", "is_closed": false, "url": "https://www.yelp.com/biz/same-same-chicago?adjust_creative=pbWTcU6Cnh6ec5O1K-PUAQ&utm_campaign=yelp_api_v3&utm_medium=api_v3_business_search&utm_source=pbWTcU6Cnh6ec5O1K-PUAQ", "review_count": 209, "categories": [{"alias": "thai", "title": "Thai"}, {"alias": "cocktailbars", "title": "Cocktail Bars"}], "rating": 4.5, "coordinates": {"latitude": 41.94349, "longitude": -87.67942}, "transactions": ["pickup", "delivery"], "price": "$$", "location": {"address1": "2022 W Roscoe St", "address2": "", "address3": null, "city": "Chicago", "zip_code": "60618", "country": "US", "state": "IL", "display_address": ["2022 W Roscoe St", "Chicago, IL 60618"]}, "phone": "+17736978688", "display_phone": "(773) 697-8688", "distance": 4255.7184635774065}, {"id": "T4j4q9Z3OFTTBA39Uv6lLA", "alias": "bad-habit-chicago", "name": "Bad Habit", "image_url": "https://s3-media2.fl.yelpcdn.com/bphoto/nY_1gc4wtrJVV0aZ7XBzZg/o.jpg", "is_closed": false, "url": "https://www.yelp.com/biz/bad-habit-chicago?adjust_creative=pbWTcU6Cnh6ec5O1K-PUAQ&utm_campaign=yelp_api_v3&utm_medium=api_v3_business_search&utm_source=pbWTcU6Cnh6ec5O1K-PUAQ", "review_count": 10, "categories": [{"alias": "cocktailbars", "title": "Cocktail Bars"}, {"alias": "burgers", "title": "Burgers"}], "rating": 4.5, "coordinates": {"latitude": 41.9188328905871, "longitude": -87.68991989999999}, "transactions": ["pickup", "delivery"], "location": {"address1": "2047 N Milwaukee Ave", "address2": null, "address3": "", "city": "Chicago", "zip_code": "60647", "country": "US", "state": "IL", "display_address": ["2047 N Milwaukee Ave", "Chicago, IL 60647"]}, "phone": "+17739002449", "display_phone": "(773) 900-2449", "distance": 1823.0107910446955}, {"id": "IqJKz6-IBIbcfUcotMXO8Q", "alias": "cafe-istanbul-chicago-4", "name": "Cafe Istanbul", "image_url": "https://s3-media4.fl.yelpcdn.com/bphoto/p9ItsZSsPz7hILRYWkteZQ/o.jpg", "is_closed": false, "url": "https://www.yelp.com/biz/cafe-istanbul-chicago-4?adjust_creative=pbWTcU6Cnh6ec5O1K-PUAQ&utm_campaign=yelp_api_v3&utm_medium=api_v3_business_search&utm_source=pbWTcU6Cnh6ec5O1K-PUAQ", "review_count": 278, "categories": [{"alias": "turkish", "title": "Turkish"}, {"alias": "mediterranean", "title": "Mediterranean"}], "rating": 4.5, "coordinates": {"latitude": 41.9034987, "longitude": -87.6778866}, "transactions": ["pickup", "delivery"], "price": "$$", "location": {"address1": "2014 W Division St", "address2": null, "address3": null, "city": "Chicago", "zip_code": "60622", "country": "US", "state": "IL", "display_address": ["2014 W Division St", "Chicago, IL 60622"]}, "phone": "+17736619487", "display_phone": "(773) 661-9487", "distance": 184.9197312063482}, {"id": "4i1Ny2zIE1VJSU9gLMkHqg", "alias": "lula-cafe-chicago-3", "name": "Lula Cafe", "image_url": "https://s3-media1.fl.yelpcdn.com/bphoto/WBaOhBGCbl5wZHf1UA8AoQ/o.jpg", "is_closed": false, "url": "https://www.yelp.com/biz/lula-cafe-chicago-3?adjust_creative=pbWTcU6Cnh6ec5O1K-PUAQ&utm_campaign=yelp_api_v3&utm_medium=api_v3_business_search&utm_source=pbWTcU6Cnh6ec5O1K-PUAQ", "review_count": 2169, "categories": [{"alias": "newamerican", "title": "American (New)"}, {"alias": "breakfast_brunch", "title": "Breakfast & Brunch"}, {"alias": "desserts", "title": "Desserts"}], "rating": 4.5, "coordinates": {"latitude": 41.927668036295, "longitude": -87.706845233929}, "transactions": ["pickup", "delivery"], "price": "$$", "location": {"address1": "2537 N Kedzie Blvd", "address2": "", "address3": "", "city": "Chicago", "zip_code": "60647", "country": "US", "state": "IL", "display_address": ["2537 N Kedzie Blvd", "Chicago, IL 60647"]}, "phone": "+17734899554", "display_phone": "(773) 489-9554", "distance": 3471.884150522768}, {"id": "L12zP2yCgoKm_NLwW_HIDw", "alias": "quesabirria-jalisco-chicago-9", "name": "Quesabirria Jalisco", "image_url": "https://s3-media3.fl.yelpcdn.com/bphoto/F7yhgtgDsmAitulijvZpmQ/o.jpg", "is_closed": false, "url": "https://www.yelp.com/biz/quesabirria-jalisco-chicago-9?adjust_creative=pbWTcU6Cnh6ec5O1K-PUAQ&utm_campaign=yelp_api_v3&utm_medium=api_v3_business_search&utm_source=pbWTcU6Cnh6ec5O1K-PUAQ", "review_count": 39, "categories": [{"alias": "tacos", "title": "Tacos"}, {"alias": "halal", "title": "Halal"}], "rating": 4.5, "coordinates": {"latitude": 41.85803128798182, "longitude": -87.65953999999999}, "transactions": ["pickup", "delivery"], "price": "$$", "location": {"address1": "1314 W 18th St", "address2": "", "address3": null, "city": "Chicago", "zip_code": "60608", "country": "US", "state": "IL", "display_address": ["1314 W 18th St", "Chicago, IL 60608"]}, "phone": "+17737712123", "display_phone": "(773) 771-2123", "distance": 5453.264090278116}, {"id": "fDpryalBDQhHoll8UKRaXw", "alias": "way-out-chicago", "name": "Way Out", "image_url": "https://s3-media2.fl.yelpcdn.com/bphoto/puRdxBtTnDVjNGwqGgvGgg/o.jpg", "is_closed": false, "url": "https://www.yelp.com/biz/way-out-chicago?adjust_creative=pbWTcU6Cnh6ec5O1K-PUAQ&utm_campaign=yelp_api_v3&utm_medium=api_v3_business_search&utm_source=pbWTcU6Cnh6ec5O1K-PUAQ", "review_count": 29, "categories": [{"alias": "chicken_wings", "title": "Chicken Wings"}, {"alias": "cocktailbars", "title": "Cocktail Bars"}], "rating": 4.5, "coordinates": {"latitude": 41.91716335791234, "longitude": -87.70767779475786}, "transactions": ["pickup"], "location": {"address1": "3213 W Armitage Ave", "address2": null, "address3": null, "city": "Chicago", "zip_code": "60617", "country": "US", "state": "IL", "display_address": ["3213 W Armitage Ave", "Chicago, IL 60617"]}, "phone": "+17737998750", "display_phone": "(773) 799-8750", "distance": 2812.2261438736755}, {"id": "K7WtATWZfa3MW3oLhnvwhg", "alias": "gyuro-ramen-chicago", "name": "Gyuro Ramen", "image_url": "https://s3-media3.fl.yelpcdn.com/bphoto/8O83nNyiHwcCvgmLOybjRQ/o.jpg", "is_closed": false, "url": "https://www.yelp.com/biz/gyuro-ramen-chicago?adjust_creative=pbWTcU6Cnh6ec5O1K-PUAQ&utm_campaign=yelp_api_v3&utm_medium=api_v3_business_search&utm_source=pbWTcU6Cnh6ec5O1K-PUAQ", "review_count": 159, "categories": [{"alias": "ramen", "title": "Ramen"}], "rating": 4.5, "coordinates": {"latitude": 41.88495, "longitude": -87.65411}, "transactions": ["pickup", "delivery"], "price": "$$", "location": {"address1": "171 N Aberdeen St", "address2": null, "address3": "", "city": "Chicago", "zip_code": "60607", "country": "US", "state": "IL", "display_address": ["171 N Aberdeen St", "Chicago, IL 60607"]}, "phone": "+13126249414", "display_phone": "(312) 624-9414", "distance": 2962.1120169967535}, {"id": "CMrVujJr0QdlhdX7nFBM3w", "alias": "chengdu-impression-wicker-park-chicago", "name": "Chengdu Impression - Wicker Park", "image_url": "https://s3-media4.fl.yelpcdn.com/bphoto/JfR_YZ5GD9zqq4tZYSaemg/o.jpg", "is_closed": false, "url": "https://www.yelp.com/biz/chengdu-impression-wicker-park-chicago?adjust_creative=pbWTcU6Cnh6ec5O1K-PUAQ&utm_campaign=yelp_api_v3&utm_medium=api_v3_business_search&utm_source=pbWTcU6Cnh6ec5O1K-PUAQ", "review_count": 73, "categories": [{"alias": "szechuan", "title": "Szechuan"}, {"alias": "noodles", "title": "Noodles"}, {"alias": "soup", "title": "Soup"}], "rating": 4.0, "coordinates": {"latitude": 41.90517, "longitude": -87.66973}, "transactions": ["pickup", "delivery"], "price": "$$", "location": {"address1": "1300 N Milwaukee Ave", "address2": "", "address3": null, "city": "Chicago", "zip_code": "60622", "country": "US", "state": "IL", "display_address": ["1300 N Milwaukee Ave", "Chicago, IL 60622"]}, "phone": "+17736616767", "display_phone": "(773) 661-6767", "distance": 671.3327387685973}, {"id": "ERYEi0job-Kwca1lkOcRhg", "alias": "noodlebird-chicago", "name": "NoodleBird", "image_url": "https://s3-media2.fl.yelpcdn.com/bphoto/GCdFIUMr58KVBJ7nG2bx7A/o.jpg", "is_closed": false, "url": "https://www.yelp.com/biz/noodlebird-chicago?adjust_creative=pbWTcU6Cnh6ec5O1K-PUAQ&utm_campaign=yelp_api_v3&utm_medium=api_v3_business_search&utm_source=pbWTcU6Cnh6ec5O1K-PUAQ", "review_count": 75, "categories": [{"alias": "asianfusion", "title": "Asian Fusion"}, {"alias": "noodles", "title": "Noodles"}], "rating": 4.5, "coordinates": {"latitude": 41.93194357461772, "longitude": -87.7023888774715}, "transactions": ["pickup", "delivery"], "location": {"address1": "2957 W Diversey", "address2": "", "address3": null, "city": "Chicago", "zip_code": "60647", "country": "US", "state": "IL", "display_address": ["2957 W Diversey", "Chicago, IL 60647"]}, "phone": "+17737544000", "display_phone": "(773) 754-4000", "distance": 3608.467579372991}, {"id": "6_5Wwx5VexENdBP7e8xZfg", "alias": "dong-ne-korean-cuisine-chicago-2", "name": "Dong Ne: Korean cuisine ", "image_url": "https://s3-media2.fl.yelpcdn.com/bphoto/d2ziul5xyya3uJkMyR_88g/o.jpg", "is_closed": false, "url": "https://www.yelp.com/biz/dong-ne-korean-cuisine-chicago-2?adjust_creative=pbWTcU6Cnh6ec5O1K-PUAQ&utm_campaign=yelp_api_v3&utm_medium=api_v3_business_search&utm_source=pbWTcU6Cnh6ec5O1K-PUAQ", "review_count": 39, "categories": [{"alias": "korean", "title": "Korean"}], "rating": 4.0, "coordinates": {"latitude": 41.9380738223779, "longitude": -87.64449571346918}, "transactions": ["pickup", "delivery"], "location": {"address1": "3108 N Broadway", "address2": null, "address3": "", "city": "Chicago", "zip_code": "60657", "country": "US", "state": "IL", "display_address": ["3108 N Broadway", "Chicago, IL 60657"]}, "phone": "+17733608036", "display_phone": "(773) 360-8036", "distance": 4579.473285294177}, {"id": "IFzqwKn-88ohRfhdLg4wKQ", "alias": "soju-bbq-chicago", "name": "SoJu BBQ", "image_url": "https://s3-media4.fl.yelpcdn.com/bphoto/ChQyUTxbj7bXqV_x7t3NdA/o.jpg", "is_closed": false, "url": "https://www.yelp.com/biz/soju-bbq-chicago?adjust_creative=pbWTcU6Cnh6ec5O1K-PUAQ&utm_campaign=yelp_api_v3&utm_medium=api_v3_business_search&utm_source=pbWTcU6Cnh6ec5O1K-PUAQ", "review_count": 251, "categories": [{"alias": "korean", "title": "Korean"}, {"alias": "asianfusion", "title": "Asian Fusion"}, {"alias": "chicken_wings", "title": "Chicken Wings"}], "rating": 4.5, "coordinates": {"latitude": 41.8803115441906, "longitude": -87.6669892108769}, "transactions": ["pickup", "delivery"], "price": "$$", "location": {"address1": "36 S Ashland", "address2": "", "address3": null, "city": "Chicago", "zip_code": "60607", "country": "US", "state": "IL", "display_address": ["36 S Ashland", "Chicago, IL 60607"]}, "phone": "+13128775206", "display_phone": "(312) 877-5206", "distance": 2903.3371373422824}, {"id": "okaqMJEoHfHblpKz9Q-CMA", "alias": "the-perch-chicago", "name": "The Perch", "image_url": "https://s3-media2.fl.yelpcdn.com/bphoto/y36Dc58MtanAReDehpZWRg/o.jpg", "is_closed": false, "url": "https://www.yelp.com/biz/the-perch-chicago?adjust_creative=pbWTcU6Cnh6ec5O1K-PUAQ&utm_campaign=yelp_api_v3&utm_medium=api_v3_business_search&utm_source=pbWTcU6Cnh6ec5O1K-PUAQ", "review_count": 448, "categories": [{"alias": "breweries", "title": "Breweries"}, {"alias": "newamerican", "title": "American (New)"}], "rating": 4.5, "coordinates": {"latitude": 41.90348, "longitude": -87.676221}, "transactions": ["pickup", "delivery"], "price": "$$", "location": {"address1": "1932 W Division", "address2": null, "address3": "", "city": "Chicago", "zip_code": "60622", "country": "US", "state": "IL", "display_address": ["1932 W Division", "Chicago, IL 60622"]}, "phone": "", "display_phone": "", "distance": 236.9803378049482}, {"id": "eBJTUe8eTQhucEx0nWLiiQ", "alias": "kfire-korean-bbq-chicago-4", "name": "KFire Korean BBQ", "image_url": "https://s3-media4.fl.yelpcdn.com/bphoto/HHogv6_LQjGr611IWj_oAw/o.jpg", "is_closed": false, "url": "https://www.yelp.com/biz/kfire-korean-bbq-chicago-4?adjust_creative=pbWTcU6Cnh6ec5O1K-PUAQ&utm_campaign=yelp_api_v3&utm_medium=api_v3_business_search&utm_source=pbWTcU6Cnh6ec5O1K-PUAQ", "review_count": 122, "categories": [{"alias": "korean", "title": "Korean"}, {"alias": "bbq", "title": "Barbeque"}], "rating": 4.5, "coordinates": {"latitude": 41.92695, "longitude": -87.70439}, "transactions": ["pickup", "delivery"], "price": "$$", "location": {"address1": "2528 N Milwaukee Ave", "address2": null, "address3": "", "city": "Chicago", "zip_code": "60647", "country": "US", "state": "IL", "display_address": ["2528 N Milwaukee Ave", "Chicago, IL 60647"]}, "phone": "+17735720323", "display_phone": "(773) 572-0323", "distance": 3300.9407090404334}, {"id": "EYjyi_lytYaM1Ty7-kNKSg", "alias": "phodega-chicago", "name": "Phodega", "image_url": "https://s3-media4.fl.yelpcdn.com/bphoto/lYq4As8StRZzfYfTes0AaQ/o.jpg", "is_closed": false, "url": "https://www.yelp.com/biz/phodega-chicago?adjust_creative=pbWTcU6Cnh6ec5O1K-PUAQ&utm_campaign=yelp_api_v3&utm_medium=api_v3_business_search&utm_source=pbWTcU6Cnh6ec5O1K-PUAQ", "review_count": 240, "categories": [{"alias": "vietnamese", "title": "Vietnamese"}, {"alias": "hainan", "title": "Hainan"}, {"alias": "noodles", "title": "Noodles"}], "rating": 4.5, "coordinates": {"latitude": 41.90334127310094, "longitude": -87.6758734}, "transactions": ["pickup", "delivery"], "price": "$$", "location": {"address1": "1924 W Division St", "address2": "", "address3": null, "city": "Chicago", "zip_code": "60622", "country": "US", "state": "IL", "display_address": ["1924 W Division St", "Chicago, IL 60622"]}, "phone": "+17736878187", "display_phone": "(773) 687-8187", "distance": 255.67232133916767}, {"id": "AlB1xoCG1rVEep3kmb4-Fw", "alias": "chicago-pickle-chicago", "name": "Chicago Pickle", "image_url": "https://s3-media2.fl.yelpcdn.com/bphoto/jXbGloVMYZUyvwVQNHmwkg/o.jpg", "is_closed": false, "url": "https://www.yelp.com/biz/chicago-pickle-chicago?adjust_creative=pbWTcU6Cnh6ec5O1K-PUAQ&utm_campaign=yelp_api_v3&utm_medium=api_v3_business_search&utm_source=pbWTcU6Cnh6ec5O1K-PUAQ", "review_count": 3, "categories": [{"alias": "sandwiches", "title": "Sandwiches"}, {"alias": "cheesesteaks", "title": "Cheesesteaks"}, {"alias": "chicken_wings", "title": "Chicken Wings"}], "rating": 5.0, "coordinates": {"latitude": 41.93679479326978, "longitude": -87.71974369999995}, "transactions": ["pickup", "delivery"], "location": {"address1": "3055 N Milwaukee Ave", "address2": "", "address3": null, "city": "Chicago", "zip_code": "60618", "country": "US", "state": "IL", "display_address": ["3055 N Milwaukee Ave", "Chicago, IL 60618"]}, "phone": "+17737998306", "display_phone": "(773) 799-8306", "distance": 4943.40023247168}, {"id": "0ucCbCekcn5XdzvRXnHl2w", "alias": "desert-hawk-chicago", "name": "Desert Hawk", "image_url": "https://s3-media3.fl.yelpcdn.com/bphoto/ml3TiGRv-ToG9N_kQs1cYA/o.jpg", "is_closed": false, "url": "https://www.yelp.com/biz/desert-hawk-chicago?adjust_creative=pbWTcU6Cnh6ec5O1K-PUAQ&utm_campaign=yelp_api_v3&utm_medium=api_v3_business_search&utm_source=pbWTcU6Cnh6ec5O1K-PUAQ", "review_count": 6, "categories": [{"alias": "tradamerican", "title": "American (Traditional)"}, {"alias": "bars", "title": "Bars"}], "rating": 5.0, "coordinates": {"latitude": 41.90288666670101, "longitude": -87.67917606979607}, "transactions": [], "location": {"address1": "2049 W Division St", "address2": "", "address3": null, "city": "Chicago", "zip_code": "60622", "country": "US", "state": "IL", "display_address": ["2049 W Division St", "Chicago, IL 60622"]}, "phone": "", "display_phone": "", "distance": 278.3819277891997}, {"id": "b2N01JkMCWNYy1D2uH341A", "alias": "wazwan-chicago-chicago-2", "name": "Wazwan - Chicago", "image_url": "https://s3-media2.fl.yelpcdn.com/bphoto/TWPokUaDRw63UxC5fihEhw/o.jpg", "is_closed": false, "url": "https://www.yelp.com/biz/wazwan-chicago-chicago-2?adjust_creative=pbWTcU6Cnh6ec5O1K-PUAQ&utm_campaign=yelp_api_v3&utm_medium=api_v3_business_search&utm_source=pbWTcU6Cnh6ec5O1K-PUAQ", "review_count": 116, "categories": [{"alias": "indpak", "title": "Indian"}, {"alias": "halal", "title": "Halal"}], "rating": 4.5, "coordinates": {"latitude": 41.90354, "longitude": -87.67166}, "transactions": ["delivery"], "price": "$$", "location": {"address1": "1742 W Division St", "address2": null, "address3": null, "city": "Chicago", "zip_code": "60607", "country": "US", "state": "IL", "display_address": ["1742 W Division St", "Chicago, IL 60607"]}, "phone": "+13127226911", "display_phone": "(312) 722-6911", "distance": 531.5251952577823}, {"id": "XkhxVTNUb098Gpv5qNKZBA", "alias": "kababish-bbq-and-grill-chicago", "name": "Kababish - BBQ & Grill", "image_url": "https://s3-media2.fl.yelpcdn.com/bphoto/hQABqh4elh3WTogUhR-2nQ/o.jpg", "is_closed": false, "url": "https://www.yelp.com/biz/kababish-bbq-and-grill-chicago?adjust_creative=pbWTcU6Cnh6ec5O1K-PUAQ&utm_campaign=yelp_api_v3&utm_medium=api_v3_business_search&utm_source=pbWTcU6Cnh6ec5O1K-PUAQ", "review_count": 84, "categories": [{"alias": "indpak", "title": "Indian"}, {"alias": "pakistani", "title": "Pakistani"}, {"alias": "bbq", "title": "Barbeque"}], "rating": 4.5, "coordinates": {"latitude": 41.91049, "longitude": -87.6436}, "transactions": ["pickup", "delivery"], "location": {"address1": "1554 N Larrabee St", "address2": "", "address3": null, "city": "Chicago", "zip_code": "60610", "country": "US", "state": "IL", "display_address": ["1554 N Larrabee St", "Chicago, IL 60610"]}, "phone": "+13122184443", "display_phone": "(312) 218-4443", "distance": 2885.529449120692}, {"id": "rp17Dfjdh7JR4GGZwj6nqg", "alias": "portillos-hot-dogs-chicago-8", "name": "Portillo's & Barnelli's Chicago", "image_url": "https://s3-media2.fl.yelpcdn.com/bphoto/r2KUGzb-P9RuqapjY99_Nw/o.jpg", "is_closed": false, "url": "https://www.yelp.com/biz/portillos-hot-dogs-chicago-8?adjust_creative=pbWTcU6Cnh6ec5O1K-PUAQ&utm_campaign=yelp_api_v3&utm_medium=api_v3_business_search&utm_source=pbWTcU6Cnh6ec5O1K-PUAQ", "review_count": 6667, "categories": [{"alias": "hotdog", "title": "Hot Dogs"}, {"alias": "salad", "title": "Salad"}, {"alias": "burgers", "title": "Burgers"}], "rating": 4.0, "coordinates": {"latitude": 41.8935110277366, "longitude": -87.63153932522982}, "transactions": ["pickup", "delivery"], "price": "$", "location": {"address1": "100 W Ontario St", "address2": "", "address3": null, "city": "Chicago", "zip_code": "60654", "country": "US", "state": "IL", "display_address": ["100 W Ontario St", "Chicago, IL 60654"]}, "phone": "+13125878910", "display_phone": "(312) 587-8910", "distance": 4039.13351403669}, {"id": "o-qsh446uTZ0sbxsiNfQkw", "alias": "rumi-middle-eastern-grill-chicago-2", "name": "Rumi Middle Eastern Grill", "image_url": "https://s3-media2.fl.yelpcdn.com/bphoto/I_EKcjML_5qfUORZlZvclQ/o.jpg", "is_closed": false, "url": "https://www.yelp.com/biz/rumi-middle-eastern-grill-chicago-2?adjust_creative=pbWTcU6Cnh6ec5O1K-PUAQ&utm_campaign=yelp_api_v3&utm_medium=api_v3_business_search&utm_source=pbWTcU6Cnh6ec5O1K-PUAQ", "review_count": 348, "categories": [{"alias": "mediterranean", "title": "Mediterranean"}, {"alias": "mideastern", "title": "Middle Eastern"}, {"alias": "halal", "title": "Halal"}], "rating": 4.5, "coordinates": {"latitude": 41.909312, "longitude": -87.676058}, "transactions": ["pickup", "delivery"], "price": "$$", "location": {"address1": "1534 N Milwaukee Ave", "address2": null, "address3": "", "city": "Chicago", "zip_code": "60622", "country": "US", "state": "IL", "display_address": ["1534 N Milwaukee Ave", "Chicago, IL 60622"]}, "phone": "+17736665119", "display_phone": "(773) 666-5119", "distance": 475.63584183363463}, {"id": "TFqM5xDgJTLd6AQNMxNkwg", "alias": "bereket-turkish-mediterranean-restaurant-chicago", "name": "Bereket Turkish Mediterranean Restaurant", "image_url": "https://s3-media4.fl.yelpcdn.com/bphoto/EEY1FwhhJGsrX_xt008cMg/o.jpg", "is_closed": false, "url": "https://www.yelp.com/biz/bereket-turkish-mediterranean-restaurant-chicago?adjust_creative=pbWTcU6Cnh6ec5O1K-PUAQ&utm_campaign=yelp_api_v3&utm_medium=api_v3_business_search&utm_source=pbWTcU6Cnh6ec5O1K-PUAQ", "review_count": 118, "categories": [{"alias": "mediterranean", "title": "Mediterranean"}], "rating": 4.5, "coordinates": {"latitude": 41.877235, "longitude": -87.634992}, "transactions": ["pickup", "delivery", "restaurant_reservation"], "price": "$$", "location": {"address1": "333 South Franklin", "address2": null, "address3": "", "city": "Chicago", "zip_code": "60606", "country": "US", "state": "IL", "display_address": ["333 South Franklin", "Chicago, IL 60606"]}, "phone": "+13125003663", "display_phone": "(312) 500-3663", "distance": 4708.958408923319}, {"id": "n8S7UC8dzeKfpLCCT-FGiw", "alias": "a-taste-of-the-philippines-chicago", "name": "A Taste of the Philippines", "image_url": "https://s3-media4.fl.yelpcdn.com/bphoto/UbYg6x1vId6bXC0Uh2TkFQ/o.jpg", "is_closed": false, "url": "https://www.yelp.com/biz/a-taste-of-the-philippines-chicago?adjust_creative=pbWTcU6Cnh6ec5O1K-PUAQ&utm_campaign=yelp_api_v3&utm_medium=api_v3_business_search&utm_source=pbWTcU6Cnh6ec5O1K-PUAQ", "review_count": 41, "categories": [{"alias": "filipino", "title": "Filipino"}], "rating": 4.5, "coordinates": {"latitude": 41.884137, "longitude": -87.640973}, "transactions": ["delivery"], "location": {"address1": "131 N Clinton St", "address2": null, "address3": null, "city": "Chicago", "zip_code": "60661", "country": "US", "state": "IL", "display_address": ["131 N Clinton St", "Chicago, IL 60661"]}, "phone": "+13128661993", "display_phone": "(312) 866-1993", "distance": 3839.0058582723445}, {"id": "NmynDaHorWl1uO2ppOouUA", "alias": "la-sandwichera-chicago", "name": "La Sandwichera", "image_url": "https://s3-media2.fl.yelpcdn.com/bphoto/8t9N2FhjXj3TRHnZ_bSeNg/o.jpg", "is_closed": false, "url": "https://www.yelp.com/biz/la-sandwichera-chicago?adjust_creative=pbWTcU6Cnh6ec5O1K-PUAQ&utm_campaign=yelp_api_v3&utm_medium=api_v3_business_search&utm_source=pbWTcU6Cnh6ec5O1K-PUAQ", "review_count": 28, "categories": [{"alias": "sandwiches", "title": "Sandwiches"}], "rating": 4.5, "coordinates": {"latitude": 41.902763142599, "longitude": -87.6953441678981}, "transactions": ["delivery"], "location": {"address1": "2721 W Division St", "address2": "", "address3": null, "city": "Chicago", "zip_code": "60622", "country": "US", "state": "IL", "display_address": ["2721 W Division St", "Chicago, IL 60622"]}, "phone": "+17736977477", "display_phone": "(773) 697-7477", "distance": 1479.0294524214457}, {"id": "87bmC0ZQ3pVU-wxRGtRkkQ", "alias": "sushi-plus-rotary-sushi-bar-chinatown-chicago", "name": "Sushi Plus Rotary Sushi Bar - Chinatown", "image_url": "https://s3-media4.fl.yelpcdn.com/bphoto/YNVWBbFI3fIKMyqbYA9UiA/o.jpg", "is_closed": false, "url": "https://www.yelp.com/biz/sushi-plus-rotary-sushi-bar-chinatown-chicago?adjust_creative=pbWTcU6Cnh6ec5O1K-PUAQ&utm_campaign=yelp_api_v3&utm_medium=api_v3_business_search&utm_source=pbWTcU6Cnh6ec5O1K-PUAQ", "review_count": 414, "categories": [{"alias": "sushi", "title": "Sushi Bars"}, {"alias": "ramen", "title": "Ramen"}], "rating": 4.5, "coordinates": {"latitude": 41.853511, "longitude": -87.632959}, "transactions": ["pickup"], "price": "$$", "location": {"address1": "2131 S Archer Ave", "address2": "", "address3": null, "city": "Chicago", "zip_code": "60616", "country": "US", "state": "IL", "display_address": ["2131 S Archer Ave", "Chicago, IL 60616"]}, "phone": "+13129292446", "display_phone": "(312) 929-2446", "distance": 6835.410307196334}, {"id": "KtRSglnSvoPFCT8BGDLPVA", "alias": "oc-nuong-cali-chicago", "name": "Oc Nuong Cali", "image_url": "https://s3-media4.fl.yelpcdn.com/bphoto/_5tPeAGe4gRQGJjQONHzUg/o.jpg", "is_closed": false, "url": "https://www.yelp.com/biz/oc-nuong-cali-chicago?adjust_creative=pbWTcU6Cnh6ec5O1K-PUAQ&utm_campaign=yelp_api_v3&utm_medium=api_v3_business_search&utm_source=pbWTcU6Cnh6ec5O1K-PUAQ", "review_count": 2, "categories": [{"alias": "salad", "title": "Salad"}, {"alias": "seafood", "title": "Seafood"}, {"alias": "hotpot", "title": "Hot Pot"}], "rating": 5.0, "coordinates": {"latitude": 41.95679216909235, "longitude": -87.69299704115203}, "transactions": [], "location": {"address1": "4131 N Rockwell St", "address2": null, "address3": "", "city": "Chicago", "zip_code": "60618", "country": "US", "state": "IL", "display_address": ["4131 N Rockwell St", "Chicago, IL 60618"]}, "phone": "+17737460179", "display_phone": "(773) 746-0179", "distance": 5877.958661630985}, {"id": "ApeF4oVMgM-7iiMtjwrQ5A", "alias": "harry-caray-s-shortstop-chicago", "name": "Harry Caray\u2019s Shortstop", "image_url": "https://s3-media2.fl.yelpcdn.com/bphoto/FviX-JCPcY1_voy8eWETlg/o.jpg", "is_closed": false, "url": "https://www.yelp.com/biz/harry-caray-s-shortstop-chicago?adjust_creative=pbWTcU6Cnh6ec5O1K-PUAQ&utm_campaign=yelp_api_v3&utm_medium=api_v3_business_search&utm_source=pbWTcU6Cnh6ec5O1K-PUAQ", "review_count": 78, "categories": [{"alias": "bars", "title": "Bars"}, {"alias": "breakfast_brunch", "title": "Breakfast & Brunch"}, {"alias": "food_court", "title": "Food Court"}], "rating": 4.0, "coordinates": {"latitude": 41.78546527110919, "longitude": -87.7428493327123}, "transactions": [], "price": "$$", "location": {"address1": "5700 S Cicero Ave", "address2": "", "address3": null, "city": "Chicago", "zip_code": "60629", "country": "US", "state": "IL", "display_address": ["5700 S Cicero Ave", "Chicago, IL 60629"]}, "phone": "+17735986717", "display_phone": "(773) 598-6717", "distance": 14359.809051293067}, {"id": "W-RuDMN2UwIhrr19sqPppQ", "alias": "kajiken-chicago", "name": "Kajiken", "image_url": "https://s3-media3.fl.yelpcdn.com/bphoto/R7iElRgbwGu4h_pDRGpGMA/o.jpg", "is_closed": false, "url": "https://www.yelp.com/biz/kajiken-chicago?adjust_creative=pbWTcU6Cnh6ec5O1K-PUAQ&utm_campaign=yelp_api_v3&utm_medium=api_v3_business_search&utm_source=pbWTcU6Cnh6ec5O1K-PUAQ", "review_count": 53, "categories": [{"alias": "japanese", "title": "Japanese"}], "rating": 4.5, "coordinates": {"latitude": 41.8537, "longitude": -87.63477}, "transactions": ["pickup", "delivery"], "location": {"address1": "2161 S China Pl", "address2": "Ste a", "address3": "", "city": "Chicago", "zip_code": "60616", "country": "US", "state": "IL", "display_address": ["2161 S China Pl", "Ste a", "Chicago, IL 60616"]}, "phone": "+13122852972", "display_phone": "(312) 285-2972", "distance": 6738.711280278396}, {"id": "Bp1ZiZ8eNpBCC074oGk4ag", "alias": "szechuan-corner-chicago", "name": "Szechuan Corner", "image_url": "https://s3-media2.fl.yelpcdn.com/bphoto/udQ_8orBMpCGMDwlN3npVA/o.jpg", "is_closed": false, "url": "https://www.yelp.com/biz/szechuan-corner-chicago?adjust_creative=pbWTcU6Cnh6ec5O1K-PUAQ&utm_campaign=yelp_api_v3&utm_medium=api_v3_business_search&utm_source=pbWTcU6Cnh6ec5O1K-PUAQ", "review_count": 51, "categories": [{"alias": "szechuan", "title": "Szechuan"}], "rating": 4.5, "coordinates": {"latitude": 41.93459, "longitude": -87.66901}, "transactions": ["pickup", "delivery"], "location": {"address1": "2910 N Ashland Ave", "address2": null, "address3": "", "city": "Chicago", "zip_code": "60657", "country": "US", "state": "IL", "display_address": ["2910 N Ashland Ave", "Chicago, IL 60657"]}, "phone": "+17737998586", "display_phone": "(773) 799-8586", "distance": 3327.1677291973892}, {"id": "GbC6XO60SlLnlIOTbJE-Ew", "alias": "fatsos-last-stand-chicago-2", "name": "Fatso's Last Stand", "image_url": "https://s3-media2.fl.yelpcdn.com/bphoto/b9AElWQhcmJbfhhGHQf0jw/o.jpg", "is_closed": false, "url": "https://www.yelp.com/biz/fatsos-last-stand-chicago-2?adjust_creative=pbWTcU6Cnh6ec5O1K-PUAQ&utm_campaign=yelp_api_v3&utm_medium=api_v3_business_search&utm_source=pbWTcU6Cnh6ec5O1K-PUAQ", "review_count": 936, "categories": [{"alias": "hotdog", "title": "Hot Dogs"}, {"alias": "burgers", "title": "Burgers"}, {"alias": "hotdogs", "title": "Fast Food"}], "rating": 4.0, "coordinates": {"latitude": 41.8959792096669, "longitude": -87.6842580932541}, "transactions": ["pickup", "delivery"], "price": "$$", "location": {"address1": "2258 W Chicago Ave", "address2": "", "address3": "", "city": "Chicago", "zip_code": "60622", "country": "US", "state": "IL", "display_address": ["2258 W Chicago Ave", "Chicago, IL 60622"]}, "phone": "+17732453287", "display_phone": "(773) 245-3287", "distance": 1153.59118627344}], "total": 17600, "region": {"center": {"longitude": -87.67776489257812, "latitude": 41.90515925618311}}}